     3.05           OBSERVATION DATA    M                   RINEX VERSION / TYPE
GSPF V1.7.0                             20250903 140935 UTC PGM / RUN BY / DATE
S101                                                        MARKER NAME
NON_GEODETIC                                                MARKER TYPE
                                                            OBSERVER / AGENCY
                                                            REC # / TYPE / VERS
                                                            ANT # / TYPE
  4181975.8804   860785.7409  4723075.8589                  APPROX POSITION XYZ
        0.0000        0.0000        0.0000                  ANTENNA: DELTA H/E/N
G    4 C1C L1C D1C S1C                                      SYS / # / OBS TYPES
E    4 C1B L1B D1B S1B                                      SYS / # / OBS TYPES
  2025     4    22    14     0    1.0000000     GPS         TIME OF FIRST OBS
G L1C  0.00000   0                                          SYS / PHASE SHIFT
E L1B  0.00000   0                                          SYS / PHASE SHIFT
 C1C    0.000 C1P    0.000 C2C    0.000 C2P    0.000        GLONASS COD/PHS/BIS
                                                            END OF HEADER
> 2025 04 22 14 00  1.0000000  0 16
G03  24466458.32900 128572106.30900      1659.17500                
G09  24282365.32800 127604691.05800      -394.00700                
G14  20692446.74400 108739541.57300      -197.98600                
G15  24879094.39800 130740523.48500     -4071.57100                
G18  21953154.70500 115364606.62300      2568.54700                
G19  21607166.59300 113546426.82300     -2172.23600                
G22  23698092.79300 124534318.16400      2969.77600                
G23  20732534.03300 108950201.69800     -1171.32000                
G27  21297649.22400 111919902.07000      1923.16400                
G28  24136646.45600 126838933.21900     -3003.73300                
E01         5.08400        26.71900        -6.14400                
E02         9.57100        50.29800         9.75400                
E03        22.92800       120.48500         7.24700                
E04        29.90000       157.12600         3.82500                
E05        24.37700       128.10300        -0.41900                
E06        12.65600        66.51000        -6.56000                
> 2025 04 22 14 00  2.0000000  0 16
G03  24466143.05700 128570449.54200      1654.39000                
G09  24282440.10700 127605084.02800      -392.05100                
G14  20692484.27000 108739738.77300      -196.43700                
G15  24879869.23900 130744595.30200     -4071.96700                
G18  21952665.70600 115362036.91200      2570.78800                
G19  21607580.25300 113548600.61800     -2175.29300                
G22  23697527.30000 124531346.47800      2973.56600                
G23  20732757.09600 108951373.90300     -1173.09200                
G27  21297283.41600 111917979.73400      1921.58400                
G28  24137218.39600 126841938.78300     -3007.43600                
E01         6.67100        35.05900       -10.21200                
E02         7.59300        39.90200        10.83900                
E03        21.23200       111.57600        10.52100                
E04        28.82400       151.47300         7.42600                
E05        24.15900       126.95900         2.63400                
E06        13.80300        72.53700        -5.61200                
> 2025 04 22 14 00  3.0000000  0 16
G03  24465828.66600 128568797.41000      1649.95000                
G09  24282514.58600 127605475.41600      -390.86400                
G14  20692521.51900 108739934.51600      -195.09300                
G15  24880644.08800 130748667.16200     -4071.65500                
G18  21952176.32900 115359465.22000      2572.48600                
G19  21607994.45000 113550777.23900     -2177.86200                
G22  23696961.10400 124528371.09800      2977.12400                
G23  20732980.49400 108952547.86500     -1174.81900                
G27  21296917.86100 111916058.72900      1920.50800                
G28  24137791.05000 126844948.10300     -3011.21000                
E01         8.88100        46.67200       -12.84800                
E02         5.59700        29.41100         9.43400                
E03        18.95000        99.58400        13.37100                
E04        27.10100       142.41900        10.59300                
E05        23.41000       123.02000         5.13400                
E06        14.84000        77.98700        -5.41800                
> 2025 04 22 14 00  4.0000000  0 16
G03  24465515.06800 128567149.44200      1646.10100                
G09  24282588.92100 127605866.05100      -390.56100                
G14  20692558.54100 108740129.07000      -194.08100                
G15  24881418.81100 130752738.36100     -4070.65400                
G18  21951686.69100 115356892.15400      2573.51900                
G19  21608409.07800 113552956.12600     -2179.80400                
G22  23696394.27100 124525392.37300      2980.21800                
G23  20733204.20900 108953723.49700     -1176.41900                
G27  21296552.46000 111914138.53400      1919.96700                
G28  24138364.41300 126847961.14300     -3014.84000                
E01        11.51000        60.48700       -14.66400                
E02         4.46200        23.44800         0.94400                
E03        16.18500        85.05300        15.56000                
E04        24.83200       130.49100        13.14800                
E05        22.25200       116.93700         6.89700                
E06        15.91000        83.60600        -5.91700                
> 2025 04 22 14 00  5.0000000  0 16
G03  24465202.13000 128565504.93900      1643.05000                
G09  24282663.28800 127606256.85200      -391.20100                
G14  20692595.41200 108740322.82500      -193.51000                
G15  24882193.28400 130756808.24100     -4069.03000                
G18  21951196.92600 115354318.42200      2573.81100                
G19  21608824.00900 113555136.60000     -2181.02100                
G22  23695826.91100 124522410.87500      2982.64200                
G23  20733428.21100 108954900.63200     -1177.81300                
G27  21296187.11100 111912218.61100      1919.95900                
G28  24138938.43600 126850977.65600     -3018.12300                
E01        14.41800        75.76500       -15.77100                
E02         5.47700        28.78100       -10.77900                
E03        13.08600        68.77000        16.82900                
E04        22.14500       116.37300        14.95500                
E05        20.83900       109.50900         7.81400                
E06        17.11700        89.95200        -6.80200                
> 2025 04 22 14 00  6.0000000  0 16
G03  24464889.68300 128563863.01900      1640.95600                
G09  24282737.86800 127606648.76800      -392.78500                
G14  20692632.22200 108740516.26400      -193.45900                
G15  24882967.39500 130760876.22500     -4066.88300                
G18  21950707.17800 115351744.78200      2573.33100                
G19  21609239.09700 113557317.90300     -2181.45900                
G22  23695259.16600 124519427.35700      2984.23400                
G23  20733652.45300 108956079.03200     -1178.94000                
G27  21295821.71500 111910298.44400      1920.44900                
G28  24139513.03700 126853997.20100     -3020.87600                
E01        17.46400        91.77200       -16.10800                
E02         8.09900        42.56000       -15.81500                
E03         9.86300        51.83100        16.77400                
E04        19.19300       100.85800        15.93300                
E05        19.33200       101.59100         7.89200                
E06        18.49400        97.18800        -7.62200                
> 2025 04 22 14 00  7.0000000  0 16
G03  24464577.53500 128562222.67000      1639.91900                
G09  24282812.83400 127607042.71900      -395.25500                
G14  20692669.07600 108740709.93300      -193.97600                
G15  24883741.05900 130764941.85500     -4064.34800                
G18  21950217.59500 115349172.00400      2572.09500                
G19  21609654.19300 113559499.24900     -2181.11100                
G22  23694691.20700 124516442.71100      2984.88400                
G23  20733876.88000 108957258.40500     -1179.75100                
G27  21295456.18400 111908377.56400      1921.37100                
G28  24140088.09800 126857019.17000     -3022.94900                
E01        20.49500       107.70300       -15.61200                
E02        11.25900        59.16700       -17.00100                
E03         6.85000        35.99500        14.32800                
E04        16.13500        84.79100        16.06200                
E05        17.87800        93.94900         7.30500                
E06        19.98700       105.03100        -7.95300                
> 2025 04 22 14 00  8.0000000  0 16
G03  24464265.48100 128560582.81300      1639.97300                
G09  24282888.34600 127607439.53700      -398.49800                
G14  20692706.08400 108740904.41100      -195.07500                
G15  24884514.21600 130769004.82300     -4061.58500                
G18  21949728.31400 115346600.81500      2570.16700                
G19  21610069.15200 113561679.87100     -2180.02000                
G22  23694123.21800 124513457.91000      2984.54000                
G23  20734101.42900 108958438.41800     -1180.21900                
G27  21295090.44300 111906455.58400      1922.63200                
G28  24140663.48000 126860042.82500     -3024.23500                
E01        23.35200       122.71300       -14.26900                
E02        14.45900        75.98300       -16.41000                
E03         4.75900        25.00600         6.36600                
E04        13.13100        69.00500        15.38100                
E05        16.57200        87.08800         6.39900                
E06        21.47300       112.83900        -7.52200                
> 2025 04 22 14 00  9.0000000  0 16
G03  24463953.31400 128558942.36900      1641.08200                
G09  24282964.53600 127607839.91900      -402.35300                
G14  20692743.35400 108741100.27000      -196.73200                
G15  24885286.83900 130773064.98600     -4058.76500                
G18  21949239.45800 115344031.85800      2567.65300                
G19  21610483.83900 113563859.06600     -2178.27700                
G22  23693555.39000 124510473.94900      2983.21100                
G23  20734326.03400 108959618.72400     -1180.33900                
G27  21294724.43900 111904532.22000      1924.11700                
G28  24141239.02800 126863067.34500     -3024.67400                
E01        25.87500       135.97300       -12.12500                
E02        17.43500        91.62000       -14.70700                
E03         4.75000        24.96100        -5.77900                
E04        10.32800        54.27300        13.96400                
E05        15.43400        81.10400         5.63100                
E06        22.79500       119.78700        -6.23200                
> 2025 04 22 14 00 10.0000000  0 16
G03  24463640.84400 128557300.32700      1643.14700                
G09  24283041.50200 127608244.37900      -406.62000                
G14  20692780.98900 108741298.04100      -198.88800                
G15  24886058.93500 130777122.37400     -4056.06700                
G18  21948751.12400 115341465.64800      2564.69700                
G19  21610898.14200 113566036.24400     -2176.01000                
G22  23692987.90200 124507491.78200      2980.96900                
G23  20734550.62900 108960798.98200     -1180.12400                
G27  21294358.14100 111902607.31200      1925.70000                
G28  24141814.57700 126866091.87700     -3024.26100                
E01        27.92200       146.73000        -9.28500                
E02        20.00600       105.13100       -12.20200                
E03         6.42900        33.78700       -10.57700                
E04         7.86200        41.31400        11.82600                
E05        14.39400        75.64300         5.40700                
E06        23.79300       125.03100        -4.13000                
> 2025 04 22 14 00 11.0000000  0 16
G03  24463327.90200 128555655.80600      1646.00900                
G09  24283119.30200 127608653.22100      -411.07500                
G14  20692819.07500 108741498.18300      -201.45600                
G15  24886830.54100 130781177.19500     -4053.65800                
G18  21948263.38200 115338902.54500      2561.47000                
G19  21611311.97700 113568210.96000     -2173.38300                
G22  23692420.91800 124504512.26200      2977.94100                
G23  20734775.15500 108961978.87300     -1179.61300                
G27  21293991.54300 111900680.82800      1927.24600                
G28  24142389.97000 126869115.58600     -3023.04300                
E01        29.37400       154.36300        -5.90600                
E02        22.04300       115.83800        -9.13900                
E03         8.47600        44.54100       -10.51700                
E04         5.88900        30.94800         8.68400                
E05        13.32700        70.03500         5.93600                
E06        24.32400       127.82600        -1.36500                
> 2025 04 22 14 00 12.0000000  0 16
G03  24463014.35600 128554008.10900      1649.45900                
G09  24283197.94900 127609066.51400      -415.48200                
G14  20692857.67900 108741701.05200      -204.31900                
G15  24887601.72900 130785229.81500     -4051.68900                
G18  21947776.26500 115336342.72900      2558.15800                
G19  21611725.29200 113570382.94600     -2170.58000                
G22  23691854.57200 124501536.09200      2974.30400                
G23  20734999.55900 108963158.12600     -1178.86000                
G27  21293624.66500 111898752.87000      1928.62400                
G28  24142965.06100 126872137.71400     -3021.11600                
E01        30.14800       158.42600        -2.18100                
E02        23.46400       123.30200        -5.75800                
E03        10.34700        54.37300        -9.04300                
E04         4.67500        24.56600         3.70100                
E05        12.09000        63.53400         7.16700                
E06        24.28300       127.60800         1.85800                
> 2025 04 22 14 00 13.0000000  0 16
G03  24462700.11700 128552356.77000      1653.25200                
G09  24283277.41200 127609484.09100      -419.60700                
G14  20692896.84700 108741906.87600      -207.34600                
G15  24888372.59500 130789280.74100     -4050.28500                
G18  21947289.77100 115333786.18600      2554.95400                
G19  21612138.07200 113572552.12200     -2167.79800                
G22  23691288.95900 124498563.77500      2970.27200                
G23  20735223.80300 108964336.53300     -1177.93400                
G27  21293257.55100 111896823.67100      1929.71200                
G28  24143539.73000 126875157.61700     -3018.62200                
E01        30.19600       158.68200         1.67200                
E02        24.23000       127.33000        -2.30800                
E03        11.90600        62.56700        -7.37000                
E04         4.59200        24.12900        -2.87200                
E05        10.57300        55.56000         8.81700                
E06        23.60300       124.03700         5.29800                
> 2025 04 22 14 00 14.0000000  0 16
G03  24462385.14400 128550701.57700      1657.12100                
G09  24283357.61500 127609905.56100      -423.23400                
G14  20692936.59400 108742115.75000      -210.39300                
G15  24889143.25400 130793330.58400     -4049.53400                
G18  21946803.86200 115331232.71500      2552.04400                
G19  21612550.34100 113574718.60800     -2165.23100                
G22  23690724.13200 124495595.58900      2966.08600                
G23  20735447.86000 108965513.96200     -1176.91700                
G27  21292890.26500 111894893.57300      1930.40800                
G28  24144113.88300 126878174.81500     -3015.73600                
E01        29.51700       155.11500         5.42700                
E02        24.35400       127.97900         0.95800                
E03        13.17500        69.23700        -6.06300                
E04         5.67600        29.82900        -8.15000                
E05         8.74000        45.92900        10.36500                
E06        22.26900       117.02300         8.70300                
> 2025 04 22 14 00 15.0000000  0 16
G03  24462069.44900 128549042.58900      1660.79600                
G09  24283438.44600 127610330.33100      -426.17800                
G14  20692976.91200 108742327.62100      -213.31600                
G15  24889913.83700 130797380.02200     -4049.48300                
G18  21946318.46500 115328681.93600      2549.59500                
G19  21612962.15600 113576882.71000     -2163.06000                
G22  23690160.09600 124492631.56300      2961.99200                
G23  20735671.72200 108966690.36300     -1175.89400                
G27  21292522.89100 111892963.00900      1930.63200                
G28  24144687.46600 126881189.01400     -3012.66000                
E01        28.15100       147.93400         8.86400                
E02        23.89300       125.55600         3.79800                
E03        14.25700        74.92100        -5.43300                
E04         7.56700        39.76600       -11.47900                
E05         6.69900        35.20300        10.73600                
E06        20.30900       106.72600        11.82300                
> 2025 04 22 14 00 16.0000000  0 16
G03  24461753.09400 128547380.13400      1664.01600                
G09  24283519.76000 127610757.64100      -428.29600                
G14  20693017.76300 108742542.29500      -215.97800                
G15  24890684.47700 130801429.76300     -4050.13600                
G18  21945833.47800 115326133.31600      2547.74700                
G19  21613373.60800 113579044.90700     -2161.44200                
G22  23689596.81200 124489671.48100      2958.23500                
G23  20735895.39500 108967865.77500     -1174.95300                
G27  21292155.52400 111891032.47800      1930.33500                
G28  24145260.46300 126884200.13000     -3009.60600                
E01        26.17700       137.55900        11.78500                
E02        22.94900       120.59800         5.99700                
E03        15.29200        80.35900        -5.56300                
E04         9.97800        52.43400       -13.72300                
E05         4.91100        25.80600         6.90900                
E06        17.80300        93.55300        14.41500                
> 2025 04 22 14 00 17.0000000  0 16
G03  24461436.18800 128545714.78300      1666.55100                
G09  24283601.39100 127611186.61700      -429.49700                
G14  20693059.08600 108742759.44900      -218.25800                
G15  24891455.30600 130805480.49600     -4051.45600                
G18  21945348.77800 115323586.20000      2546.60000                
G19  21613784.81500 113581205.81500     -2160.50000                
G22  23689034.19200 124486714.89500      2955.03600                
G23  20736118.90400 108969040.32100     -1174.17500                
G27  21291788.26300 111889102.51300      1929.50100                
G28  24145832.89700 126887208.29100     -3006.78400                
E01        23.70900       124.59100        14.02900                
E02        21.66100       113.82800         7.40100                
E03        16.41200        86.24500        -6.27900                
E04        12.74400        66.97100       -15.23400                
E05         4.61800        24.26900        -4.73000                
E06        14.87200        78.15100        16.24000                
> 2025 04 22 14 00 18.0000000  0 16
G03  24461118.88100 128544047.32000      1668.21300                
G09  24283683.16100 127611616.31800      -429.74700                
G14  20693100.79900 108742978.65100      -220.06100                
G15  24892226.44300 130809532.84900     -4053.35900                
G18  21944864.22500 115321039.85400      2546.21300                
G19  21614195.91400 113583366.15400     -2160.31400                
G22  23688472.11300 124483761.14800      2952.58300                
G23  20736342.28600 108970214.20100     -1173.63200                
G27  21291421.21200 111887173.64600      1928.14500                
G28  24146404.83200 126890213.83000     -3004.39200                
E01        20.88800       109.76600        15.48300                
E02        20.18700       106.08400         7.94400                
E03        17.69400        92.98400        -7.19400                
E04        15.73000        82.66100       -16.01700                
E05         6.49600        34.13500       -13.68800                
E06        11.68900        61.42400        17.00300                
> 2025 04 22 14 00 19.0000000  0 16
G03  24460801.35100 128542378.69000      1668.86700                
G09  24283764.88900 127612045.80100      -429.07000                
G14  20693142.80400 108743199.38900      -221.31900                
G15  24892997.98900 130813587.35000     -4055.73000                
G18  21944379.67100 115318493.50900      2546.59500                
G19  21614607.05300 113585526.70100     -2160.91800                
G22  23687910.41800 124480809.42100      2951.01600                
G23  20736565.59200 108971387.68100     -1173.38200                
G27  21291054.46500 111885246.37700      1926.31600                
G28  24146976.36600 126893217.26300     -3002.59800                
E01        17.87000        93.90800        16.09100                
E02        18.68700        98.20300         7.70200                
E03        19.13300       100.54400        -7.84700                
E04        18.78900        98.73800       -15.99900                
E05         9.44100        49.61500       -16.62600                
E06         8.50300        44.68100        16.12300                
> 2025 04 22 14 00 20.0000000  0 16
G03  24460483.79900 128540709.94300      1668.44200                
G09  24283846.40600 127612474.17600      -427.54900                
G14  20693184.99300 108743421.09600      -221.99800                
G15  24893770.01900 130817644.39600     -4058.42200                
G18  21943894.97500 115315946.41000      2547.71000                
G19  21615018.38000 113587688.24200     -2162.29400                
G22  23687348.92900 124477858.78000      2950.42200                
G23  20736788.88100 108972561.07400     -1173.46200                
G27  21290688.10500 111883321.14200      1924.09200                
G28  24147547.62700 126896219.26000     -3001.53700                
E01        14.81700        77.86300        15.86200                
E02        17.29000        90.86000         6.92500                
E03        20.64000       108.46600        -7.87100                
E04        21.76500       114.37500       -15.13300                
E05        12.66000        66.53100       -16.91000                
E06         5.76300        30.28300        11.81700                
> 2025 04 22 14 00 21.0000000  0 16
G03  24460166.43100 128539042.16400      1666.93400                
G09  24283927.56300 127612900.66100      -425.31700                
G14  20693227.25700 108743643.19200      -222.10200                
G15  24894542.57900 130821704.22500     -4061.26900                
G18  21943410.00200 115313397.86400      2549.47400                
G19  21615430.03900 113589851.52100     -2164.38100                
G22  23686787.45900 124474908.23300      2950.82400                
G23  20737012.21900 108973734.72100     -1173.89300                
G27  21290322.19800 111881398.28700      1921.57500                
G28  24148118.76300 126899220.60000     -3001.29500                
E01        11.88300        62.44500        14.85300                
E02        16.06000        84.39600         6.02200                
E03        22.07600       116.00800        -7.06900                
E04        24.49600       128.72600       -13.43300                
E05        15.78900        82.97300       -15.78800                
E06         4.46000        23.43800         0.78200                
> 2025 04 22 14 00 22.0000000  0 16
G03  24459849.44900 128537376.41200      1664.40600                
G09  24284008.24200 127613324.63300      -422.55500                
G14  20693269.48800 108743865.12000      -221.66800                
G15  24895315.68100 130825766.90600     -4064.09500                
G18  21942924.64200 115310847.27900      2551.76400                
G19  21615842.15300 113592017.19800     -2167.06900                
G22  23686225.82000 124471956.79900      2952.18800                
G23  20737235.67100 108974908.97400     -1174.67000                
G27  21289956.78800 111879478.04400      1918.88700                
G28  24148689.93400 126902222.12400     -3001.90800                
E01         9.20900        48.39500        13.13000                
E02        14.97700        78.70600         5.44800                
E03        23.27600       122.31800        -5.41400                
E04        26.82900       140.98700       -10.97100                
E05        18.60800        97.78700       -13.70500                
E06         5.36600        28.19800        -8.83500                
> 2025 04 22 14 00 23.0000000  0 16
G03  24459533.03600 128535713.64800      1660.98300                
G09  24284088.36200 127613745.66500      -419.47400                
G14  20693311.59100 108744086.37400      -220.76900                
G15  24896089.30500 130829832.32900     -4066.72400                
G18  21942438.80800 115308294.20400      2554.42500                
G19  21616254.82500 113594185.80500     -2170.21300                
G22  23685663.83700 124469003.55900      2954.41500                
G23  20737459.30300 108976084.16600     -1175.76800                
G27  21289591.89500 111877560.52100      1916.15900                
G28  24149261.30200 126905224.68300     -3003.35900                
E01         6.93400        36.44100        10.62400                
E02        13.94400        73.27500         5.54100                
E03        24.08800       126.58300        -3.00200                
E04        28.63100       150.45700        -7.87600                
E05        20.96100       110.15200       -10.92900                
E06         7.31900        38.46300       -10.86400                
> 2025 04 22 14 00 24.0000000  0 16
G03  24459217.34500 128534054.68000      1656.84800                
G09  24284167.88300 127614163.55200      -416.30500                
G14  20693353.48700 108744306.53700      -219.50600                
G15  24896863.39800 130833900.21400     -4068.99600                
G18  21941952.44700 115305738.35700      2557.27600                
G19  21616668.12600 113596357.71200     -2173.63900                
G22  23685101.35900 124466047.72000      2957.35600                
G23  20737683.17100 108977260.60000     -1177.14300                
G27  21289227.51500 111875645.69100      1913.52400                
G28  24149833.02100 126908229.08700     -3005.57900                
E01         5.24800        27.57800         6.80300                
E02        12.82000        67.36700         6.39500                
E03        24.38200       128.12900        -0.01000                
E04        29.79700       156.58500        -4.32100                
E05        22.73900       119.49400        -7.69800                
E06         9.32300        48.99100        -9.95600                
> 2025 04 22 14 00 25.0000000  0 16
G03  24458902.49100 128532400.11200      1652.22600                
G09  24284246.81200 127614578.32500      -413.28700                
G14  20693395.11700 108744525.30400      -218.00100                
G15  24897637.87800 130837970.13300     -4070.76900                
G18  21941465.53900 115303179.64200      2560.12800                
G19  21617082.09000 113598533.10700     -2177.15600                
G22  23684538.26900 124463088.66200      2960.81700                
G23  20737907.32200 108978438.52200     -1178.73200                
G27  21288863.61700 111873733.39400      1911.11100                
G28  24150405.22700 126911236.04800     -3008.45200                
E01         4.48400        23.56200         0.89500                
E02        11.47100        60.28100         7.85500                
E03        24.06900       126.48400         3.33800                
E04        30.25900       159.01400        -0.51300                
E05        23.87800       125.47800        -4.25500                
E06        11.06300        58.13800        -8.30200                
> 2025 04 22 14 00 26.0000000  0 16
G03  24458588.54200 128530750.30100      1647.37500                
G09  24284325.19900 127614990.25100      -410.64600                
G14  20693436.44900 108744742.50400      -216.39300                
G15  24898412.63900 130842041.52900     -4071.93500                
G18  21940978.10500 115300618.15600      2562.79000                
G19  21617496.71600 113600711.98300     -2180.56700                
G22  23683974.48900 124460125.97700      2964.56900                
G23  20738131.79000 108979618.10900     -1180.46000                
G27  21288500.14800 111871823.35300      1909.03300                
G28  24150978.02900 126914246.14400     -3011.81900                
E01         4.93800        25.94900        -5.44300                
E02         9.81500        51.57900         9.54400                
E03        23.10500       121.41700         6.79400                
E04        29.99000       157.60100         3.32600                
E05        24.36100       128.01800        -0.85400                
E06        12.48800        65.62700        -6.73500                
> 2025 04 22 14 00 27.0000000  0 16
G03  24458275.51800 128529105.34500      1642.56400                
G09  24284403.13600 127615399.81100      -408.58700                
G14  20693477.47600 108744958.10400      -214.82600                
G15  24899187.55800 130846113.75500     -4072.42200                
G18  21940490.19600 115298054.17800      2565.08300                
G19  21617911.96500 113602894.13500     -2183.68000                
G22  23683409.98700 124457159.49600      2968.36900                
G23  20738356.59300 108980799.45800     -1182.24300                
G27  21288137.03500 111869915.18100      1907.38400                
G28  24151551.50400 126917259.77700     -3015.49400                
E01         6.41900        33.73200        -9.77600                
E02         7.86600        41.33700        10.77500                
E03        21.49300       112.94500        10.10600                
E04        29.00600       152.42800         6.96900                
E05        24.22100       127.28300         2.25600                
E06        13.66100        71.78600        -5.69600                
> 2025 04 22 14 00 28.0000000  0 16
G03  24457963.38300 128527465.06700      1638.06200                
G09  24284480.75000 127615807.67500      -407.27900                
G14  20693518.22000 108745172.21800      -213.44300                
G15  24899962.50200 130850186.11500     -4072.20100                
G18  21940001.89900 115295488.15800      2566.85000                
G19  21618327.76600 113605079.18000     -2186.32400                
G22  23682844.77600 124454189.29500      2971.96800                
G23  20738581.73400 108981982.58100     -1183.99200                
G27  21287774.19000 111868008.41400      1906.23100                
G28  24152125.69200 126920277.15300     -3019.26800                
E01         8.56100        44.98600       -12.55200                
E02         5.84100        30.69600         9.90400                
E03        19.28400       101.33600        13.02600                
E04        27.36400       143.79900        10.20500                
E05        23.53600       123.68200         4.84100                
E06        14.70400        77.26900        -5.39900                
> 2025 04 22 14 00 29.0000000  0 16
G03  24457652.05600 128525829.03100      1634.11700                
G09  24284558.19600 127616214.65900      -406.84200                
G14  20693558.73000 108745385.09600      -212.37500                
G15  24900737.33800 130854257.90400     -4071.28600                
G18  21939513.32500 115292920.68600      2567.96900                
G19  21618744.01300 113607266.57400     -2188.35600                
G22  23682278.91900 124451215.69500      2975.13000                
G23  20738807.19800 108983167.40200     -1185.62400                
G27  21287411.51300 111866102.53700      1905.61000                
G28  24152700.59000 126923298.26400     -3022.92800                
E01        11.14200        58.55300       -14.46300                
E02         4.50700        23.68400         2.58600                
E03        16.57500        87.10300        15.31600                
E04        25.16000       132.21600        12.84900                
E05        22.42400       117.84000         6.71100                
E06        15.76100        82.82700        -5.82000                
> 2025 04 22 14 00 30.0000000  0 16
G03  24457341.40900 128524196.57100      1630.94400                
G09  24284635.64800 127616621.67400      -407.34600                
G14  20693599.07500 108745597.11000      -211.73200                
G15  24901511.93800 130858328.45400     -4069.73600                
G18  21939024.60700 115290352.45600      2568.35600                
G19  21619160.58000 113609455.64700     -2189.67100                
G22  23681712.51800 124448239.23900      2977.64700                
G23  20739032.95500 108984353.76100     -1187.05700                
G27  21287048.90400 111864197.01200      1905.52300                
G28  24153276.15800 126926322.89100     -3026.26800                
E01        14.02100        73.67800       -15.66600                
E02         5.21900        27.42700        -9.59500                
E03        13.51000        70.99700        16.72500                
E04        22.52000       118.34500        14.76100                
E05        21.03500       110.54200         7.74200                
E06        16.94700        89.05700        -6.67800                
> 2025 04 22 14 00 31.0000000  0 16
G03  24457031.27900 128522566.82700      1628.70800                
G09  24284713.28700 127617029.66700      -408.79800                
G14  20693639.34500 108745808.73100      -211.60000                
G15  24902286.19000 130862397.17500     -4067.64800                
G18  21938535.88800 115287784.22200      2567.97500                
G19  21619577.32400 113611645.65100     -2190.20900                
G22  23681145.71400 124445260.66100      2979.35200                
G23  20739258.96000 108985541.42700     -1188.22800                
G27  21286686.26300 111862291.31800      1905.94000                
G28  24153852.31500 126929350.62000     -3029.10200                
E01        17.05700        89.63300       -16.11000                
E02         7.70400        40.48500       -15.44500                
E03        10.28800        54.06600        16.88300                
E04        19.59400       102.96800        15.85200                
E05        19.53200       102.64100         7.92600                
E06        18.30300        96.18200        -7.53300                
> 2025 04 22 14 00 32.0000000  0 16
G03  24456721.47600 128520938.80200      1627.51800                
G09  24284791.28900 127617439.56900      -411.14900                
G14  20693679.64300 108746020.49800      -212.03100                
G15  24903060.00300 130866463.59300     -4065.15300                
G18  21938047.31500 115285216.75200      2566.83600                
G19  21619994.09400 113613835.79500     -2189.95700                
G22  23680578.67200 124442280.83600      2980.12500                
G23  20739485.15900 108986730.11100     -1189.08600                
G27  21286323.49800 111860384.98000      1906.79900                
G28  24154428.95100 126932380.86200     -3031.27400                
E01        20.09900       105.62300       -15.72700                
E02        10.83000        56.91200       -16.96900                
E03         7.21900        37.93400        14.87300                
E04        16.54100        86.92500        16.09300                
E05        18.06400        94.92500         7.41000                
E06        19.78600       103.97500        -7.94900                
> 2025 04 22 14 00 33.0000000  0 16
G03  24456411.79600 128519311.42300      1627.41700                
G09  24284869.81500 127617852.23000      -414.29300                
G14  20693720.07800 108746232.98800      -213.04400                
G15  24903833.31600 130870527.37700     -4062.40700                
G18  21937559.02600 115282650.77700      2564.99600                
G19  21620410.74400 113616025.30700     -2188.95300                
G22  23680011.57700 124439300.73100      2979.90800                
G23  20739711.48900 108987919.48200     -1189.60000                
G27  21285960.53600 111858477.59700      1908.01200                
G28  24155005.92800 126935412.89700     -3032.67000                
E01        22.98800       120.80400       -14.49500                
E02        14.04300        73.79500       -16.56200                
E03         4.93900        25.95300         7.88100                
E04        13.52100        71.05500        15.51600                
E05        16.73600        87.94600         6.52200                
E06        21.28100       111.83300        -7.62900                
> 2025 04 22 14 00 34.0000000  0 16
G03  24456102.03400 128517683.60900      1628.38000                
G09  24284949.00400 127618268.36900      -418.07600                
G14  20693760.76000 108746446.77400      -214.62000                
G15  24904606.09500 130874588.36000     -4059.58200                
G18  21937071.14600 115280086.95100      2562.55700                
G19  21620827.13800 113618213.47100     -2187.28000                
G22  23679444.61700 124436321.34000      2978.70200                
G23  20739937.88300 108989109.19000     -1189.76100                
G27  21285597.31700 111856568.87000      1909.46700                
G28  24155583.09200 126938445.91000     -3033.22500                
E01        25.56400       134.34200       -12.45200                
E02        17.06000        89.64900       -14.98500                
E03         4.62000        24.27900        -4.47400                
E04        10.68400        56.14200        14.19200                
E05        15.57700        81.85600         5.70900                
E06        22.63500       118.94500        -6.45200                
> 2025 04 22 14 00 35.0000000  0 16
G03  24455791.99300 128516054.33500      1630.31500                
G09  24285028.95800 127618688.53000      -422.30200                
G14  20693801.79200 108746662.39800      -216.70700                
G15  24905378.34300 130878646.55300     -4056.85400                
G18  21936583.77700 115277525.80900      2559.65600                
G19  21621243.16000 113620399.67900     -2185.06400                
G22  23678877.97700 124433343.62500      2976.57100                
G23  20740164.27500 108990298.88900     -1189.58300                
G27  21285233.80800 111854658.61900      1911.03900                
G28  24156160.27900 126941479.05000     -3032.92600                
E01        27.68200       145.47000        -9.69700                
E02        19.69300       103.48600       -12.57200                
E03         6.16500        32.39800       -10.34000                
E04         8.16500        42.90600        12.15600                
E05        14.53100        76.36000         5.39600                
E06        23.68400       124.46100        -4.45200                
> 2025 04 22 14 00 36.0000000  0 16
G03  24455481.50300 128514422.70100      1633.07200                
G09  24285109.74100 127619113.04700      -426.75000                
G14  20693843.26300 108746880.33000      -219.21900                
G15  24906150.09600 130882702.13800     -4054.39500                
G18  21936096.99100 115274967.72900      2556.46200                
G19  21621658.72000 113622583.46500     -2182.46500                
G22  23678311.82100 124430368.45600      2973.63500                
G23  20740390.60300 108991488.25200     -1189.09900                
G27  21284870.00000 111852746.79300      1912.59300                
G28  24156737.33100 126944511.47800     -3031.81100                
E01        29.21900       153.54700        -6.37900                
E02        21.80700       114.59600        -9.56900                
E03         8.20900        43.13600       -10.64800                
E04         6.11500        32.13400         9.18500                
E05        13.47600        70.81600         5.82200                
E06        24.28500       127.61800        -1.76300                
> 2025 04 22 14 00 37.0000000  0 16
G03  24455170.42600 128512787.98100      1636.44900                
G09  24285191.37300 127619542.02400      -431.18200                
G14  20693885.24400 108747100.94100      -222.04600                
G15  24906921.41800 130886755.46300     -4052.35800                
G18  21935610.82600 115272412.91400      2553.15800                
G19  21622073.76400 113624764.53600     -2179.66500                
G22  23677746.28700 124427396.55600      2970.06500                
G23  20740616.81400 108992676.99900     -1188.36200                
G27  21284505.90800 111850833.47800      1913.99800                
G28  24157314.10000 126947542.41900     -3029.97200                
E01        30.08600       158.10300        -2.68800                
E02        23.31200       122.50800        -6.21600                
E03        10.11500        53.15700        -9.26700                
E04         4.77800        25.11000         4.49500                
E05        12.26900        64.47200         6.97100                
E06        24.32400       127.82500         1.41200                
> 2025 04 22 14 00 38.0000000  0 16
G03  24454858.66700 128511149.67300      1640.20400                
G09  24285273.82800 127619975.32800      -435.36600                
G14  20693927.78300 108747324.48300      -225.05700                
G15  24907692.40300 130890807.01600     -4050.87000                
G18  21935125.28400 115269861.37700      2549.93800                
G19  21622488.27200 113626942.78800     -2176.86100                
G22  23677181.47700 124424428.45600      2966.07300                
G23  20740842.86700 108993864.91200     -1187.44100                
G27  21284141.57300 111848918.88300      1915.13100                
G28  24157890.46000 126950571.21300     -3027.54400                
E01        30.23200       158.87000         1.16100                
E02        24.16600       126.99400        -2.76000                
E03        11.71700        61.57500        -7.58000                
E04         4.53000        23.80400        -2.01300                
E05        10.79200        56.71500         8.58900                
E06        23.73200       124.71000         4.83800                
> 2025 04 22 14 00 39.0000000  0 16
G03  24454546.17800 128509507.53100      1644.07300                
G09  24285357.03700 127620412.59800      -439.07900                
G14  20693970.90100 108747551.06900      -228.10900                
G15  24908463.16500 130894857.39700     -4050.02600                
G18  21934640.33300 115267312.94000      2546.98700                
G19  21622902.26100 113629118.31700     -2174.24800                
G22  23676617.44700 124421464.46200      2961.89300                
G23  20741068.73200 108995051.84500     -1186.41700                
G27  21283777.05700 111847003.33700      1915.88600                
G28  24158466.31600 126953597.35600     -3024.69900                
E01        29.64800       155.80300         4.94200                
E02        24.37300       128.07900         0.54400                
E03        13.02100        68.42300        -6.20200                
E04         5.47800        28.78500        -7.58000                
E05         9.00000        47.29400        10.19400                
E06        22.48300       118.14900         8.26200                
> 2025 04 22 14 00 40.0000000  0 16
G03  24454232.96300 128507861.57700      1647.78500                
G09  24285440.89400 127620853.26600      -442.13300                
G14  20694014.59200 108747780.66700      -231.05900                
G15  24909233.83200 130898907.28100     -4049.87900                
G18  21934155.90400 115264767.24700      2544.47700                
G19  21623315.78600 113631291.40500     -2172.01100                
G22  23676054.21200 124418504.63800      2957.77500                
G23  20741294.40000 108996237.73800     -1185.37500                
G27  21283412.43900 111845087.26100      1916.18000                
G28  24159041.60600 126956620.52600     -3021.63400                
E01        28.36900       149.08200         8.43300                
E02        23.98400       126.03700         3.45300                
E03        14.11900        74.19800        -5.47200                
E04         7.28200        38.26600       -11.11500                
E05         6.97100        36.63500        10.82800                
E06        20.60300       108.26900        11.43400                
> 2025 04 22 14 00 41.0000000  0 16
G03  24453919.07800 128506212.09800      1651.07800                
G09  24285525.25600 127621296.59300      -444.37700                
G14  20694058.82400 108748013.10600      -233.76800                
G15  24910004.53800 130902957.37100     -4050.43900                
G18  21933671.89900 115262223.78400      2542.54800                
G19  21623728.93400 113633462.51200     -2170.31100                
G22  23675491.73400 124415548.79800      2953.96400                
G23  20741519.87600 108997422.61800     -1184.40500                
G27  21283047.81500 111843171.14400      1915.95900                
G28  24159616.30900 126959640.61000     -3018.56200                
E01        26.47000       139.10100        11.43300                
E02        23.09700       121.37700         5.74900                
E03        15.15200        79.62400        -5.50500                
E04         9.63400        50.63000       -13.47000                
E05         5.09800        26.78900         7.86200                
E06        18.16300        95.44600        14.11000                
> 2025 04 22 14 00 42.0000000  0 16
G03  24453604.62500 128504559.63600      1653.71600                
G09  24285609.96000 127621741.71600      -445.71200                
G14  20694103.53800 108748248.08100      -236.11200                
G15  24910775.41600 130907008.36300     -4051.67200                
G18  21933188.19700 115259681.91300      2541.30800                
G19  21624141.82000 113635632.24200     -2169.27400                
G22  23674929.93500 124412596.52200      2950.68300                
G23  20741745.18000 108998606.59900     -1183.59000                
G27  21282683.28300 111841255.51700      1915.20200                
G28  24160190.44300 126962657.70600     -3015.69300                
E01        24.06000       126.43600        13.77500                
E02        21.84600       114.80100         7.26400                
E03        16.25500        85.41900        -6.16300                
E04        12.36100        64.96000       -15.07400                
E05         4.52000        23.75500        -3.01000                
E06        15.27900        80.29400        16.05100                
> 2025 04 22 14 00 43.0000000  0 16
G03  24453289.74700 128502904.94600      1655.50500                
G09  24285694.82800 127622187.69900      -446.09600                
G14  20694148.65500 108748485.17400      -237.99000                
G15  24911546.58700 130911060.89400     -4053.50300                
G18  21932704.66000 115257140.90800      2540.82000                
G19  21624554.57900 113637801.30400     -2168.98700                
G22  23674368.69300 124409647.17900      2948.12600                
G23  20741970.34900 108999789.87200     -1183.00300                
G27  21282318.94500 111839340.91200      1913.91900                
G28  24160764.06700 126965672.12000     -3013.22900                
E01        21.27700       111.81200        15.33800                
E02        20.38800       107.13700         7.92000                
E03        17.51400        92.03700        -7.07800                
E04        15.32600        80.53800       -15.95800                
E05         6.15900        32.36600       -12.94000                
E06        12.11800        63.68000        16.97800                
> 2025 04 22 14 00 44.0000000  0 16
G03  24452974.62300 128501248.95400      1656.30300                
G09  24285779.67900 127622633.59600      -445.54500                
G14  20694194.08000 108748723.88200      -239.33200                
G15  24912318.15500 130915115.50900     -4055.81800                
G18  21932221.14200 115254600.00700      2541.10100                
G19  21624967.35800 113639970.47400     -2169.49000                
G22  23673807.85800 124406699.96800      2946.44000                
G23  20742195.43400 109000972.69900     -1182.70400                
G27  21281954.89900 111837427.83500      1912.15600                
G28  24161337.27400 126968684.34500     -3011.34100                
E01        18.27600        96.04200        16.05900                
E02        18.88300        99.23000         7.77200                
E03        18.93500        99.50600        -7.79000                
E04        18.38400        96.61000       -16.04900                
E05         9.02400        47.42000       -16.43500                
E06         8.91300        46.83900        16.37600                
> 2025 04 22 14 00 45.0000000  0 16
G03  24452659.44700 128499592.69600      1656.02800                
G09  24285864.34200 127623078.50100      -444.13200                
G14  20694239.70500 108748963.64600      -240.09800                
G15  24913090.19800 130919172.62400     -4058.47500                
G18  21931737.50000 115252058.45200      2542.11900                
G19  21625380.30800 113642140.54000     -2170.77300                
G22  23673247.25200 124403753.96600      2945.71800                
G23  20742420.49200 109002155.39000     -1182.73600                
G27  21281591.22800 111835516.73200      1909.98500                
G28  24161910.18900 126971695.03100     -3010.17000                
E01        15.21900        79.97400        15.93900                
E02        17.46700        91.78800         7.04500                
E03        20.44100       107.41800        -7.91300                
E04        21.38000       112.35500       -15.29700                
E05        12.23200        64.28200       -16.96800                
E06         6.07300        31.91300        12.72000                
> 2025 04 22 14 00 46.0000000  0 16
G03  24452344.42800 128497937.25700      1654.66800                
G09  24285948.66400 127623521.61600      -441.98700                
G14  20694285.42100 108749203.88600      -240.28700                
G15  24913862.76700 130923232.49800     -4061.31000                
G18  21931253.60000 115249515.54000      2543.79800                
G19  21625793.57200 113644312.25700     -2172.77900                
G22  23672686.68900 124400808.18800      2945.99300                
G23  20742645.59000 109003338.28700     -1183.12000                
G27  21281228.00200 111833607.96400      1907.50600                
G28  24162482.95600 126974704.94500     -3009.80900                
E01        12.26000        64.42800        15.02900                
E02        16.21400        85.20300         6.13200                
E03        21.89500       115.05900        -7.22500                
E04        24.15300       126.92400       -13.70500                
E05        15.38800        80.86300       -15.99900                
E06         4.50200        23.65800         2.54200                
> 2025 04 22 14 00 47.0000000  0 16
G03  24452029.76700 128496283.70200      1652.27500                
G09  24286032.52100 127623962.28900      -439.28300                
G14  20694331.12100 108749444.03700      -239.93000                
G15  24914635.87800 130927295.22300     -4064.14700                
G18  21930769.32700 115246970.66700      2546.01900                
G19  21626207.27800 113646486.29800     -2175.40300                
G22  23672125.98100 124397861.64500      2947.23600                
G23  20742870.79400 109004521.74500     -1183.85400                
G27  21280865.26700 111831701.78000      1904.83700                
G28  24163055.73600 126977714.92300     -3010.30100                
E01         9.54400        50.15600        13.40000                
E02        15.11500        79.43200         5.49100                
E03        23.13600       121.58200        -5.68000                
E04        26.54700       139.50600       -11.33800                
E05        18.25800        95.94700       -14.02700                
E06         5.15200        27.07300        -8.08900                
> 2025 04 22 14 00 48.0000000  0 16
G03  24451715.65000 128494633.01000      1648.96700                
G09  24286115.82700 127624400.06300      -436.22700                
G14  20694376.70500 108749683.58600      -239.09500                
G15  24915409.51500 130931360.71300     -4066.81100                
G18  21930284.59100 115244423.36400      2548.63000                
G19  21626621.53200 113648663.21700     -2178.50500                
G22  23671564.95000 124394913.41000      2949.35900                
G23  20743096.17100 109005706.10400     -1184.91800                
G27  21280503.04800 111829798.30700      1902.10800                
G28  24163628.69100 126980725.81800     -3011.63700                
E01         7.20800        37.87700        11.01400                
E02        14.08300        74.00600         5.48400                
E03        24.00800       126.16100        -3.36000                
E04        28.42600       149.38200        -8.31700                
E05        20.68000       108.67500       -11.32900                
E06         7.04500        37.02200       -10.84300                
> 2025 04 22 14 00 49.0000000  0 16
G03  24451402.23700 128492986.01200      1644.91900                
G09  24286198.53600 127624834.70100      -433.04900                
G14  20694422.09300 108749922.10000      -237.87900                
G15  24916183.62900 130935428.71100     -4069.13700                
G18  21929799.33500 115241873.32600      2551.45700                
G19  21627036.40800 113650843.40500     -2181.91300                
G22  23671003.44300 124391962.67100      2952.21700                
G23  20743321.77700 109006891.67400     -1186.26700                
G27  21280141.34300 111827897.53600      1899.45300                
G28  24164201.97500 126983738.44700     -3013.75500                
E01         5.42800        28.52200         7.42200                
E02        12.97900        68.20600         6.24100                
E03        24.37600       128.09900        -0.43300                
E04        29.68200       155.97900        -4.81200                
E05        22.53900       118.44200        -8.14400                
E06         9.06900        47.65700       -10.14600                
> 2025 04 22 14 00 50.0000000  0 16
G03  24451089.64700 128491343.34100      1640.35200                
G09  24286280.64700 127625266.20100      -429.98900                
G14  20694467.22200 108750159.25600      -236.40200                
G15  24916958.14200 130939498.80500     -4070.98100                
G18  21929313.53600 115239320.43400      2554.30800                
G19  21627451.94700 113653027.07500     -2185.43700                
G22  23670441.33700 124389008.78400      2955.62000                
G23  20743547.66300 109008078.71200     -1187.84200                
G27  21279780.12700 111825999.32900      1897.00100                
G28  24164775.72800 126986753.54100     -3016.54400                
E01         4.51800        23.74000         1.78000                
E02        11.66700        61.30900         7.63700                
E03        24.14800       126.89700         2.88200                
E04        30.24000       158.91200        -1.02500                
E05        23.76400       124.88200        -4.71500                
E06        10.85100        57.02100        -8.52900                
> 2025 04 22 14 00 51.0000000  0 16
G03  24450777.95600 128489705.39300      1635.51800                
G09  24286362.20600 127625694.79500      -427.27500                
G14  20694512.05700 108750394.86200      -234.80100                
G15  24917732.95100 130943570.45400     -4072.23000                
G18  21928827.20700 115236764.75800      2556.99400                
G19  21627868.15100 113655214.24400     -2188.87900                
G22  23669878.54900 124386051.31200      2959.34600                
G23  20743773.86400 109009267.40700     -1189.56800                
G27  21279419.34800 111824103.42200      1894.86900                
G28  24165350.06400 126989771.69700     -3019.85100                
E01         4.81000        25.27600        -4.70000                
E02        10.05300        52.83100         9.32600                
E03        23.27100       122.28900         6.33800                
E04        30.06800       158.00900         2.82300                
E05        24.33400       127.87600        -1.29400                
E06        12.31600        64.72100        -6.92000                
> 2025 04 22 14 00 52.0000000  0 16
G03  24450467.18900 128488072.30100      1630.68700                
G09  24286443.29800 127626120.93700      -425.11700                
G14  20694556.58600 108750628.86400      -233.21900                
G15  24918507.93500 130947643.02000     -4072.80700                
G18  21928340.39700 115234206.55400      2559.33400                
G19  21628284.98800 113657404.73400     -2192.04600                
G22  23669315.04000 124383090.05400      2963.15100                
G23  20744000.40100 109010457.86900     -1191.36000                
G27  21279058.93600 111822209.44800      1893.15300                
G28  24165925.06400 126992793.34400     -3023.49300                
E01         6.17800        32.46500        -9.31300                
E02         8.13700        42.76200        10.67900                
E03        21.74300       114.25800         9.68300                
E04        29.17600       153.32200         6.50400                
E05        24.27300       127.55700         1.86800                
E06        13.51500        71.02400        -5.79300                
> 2025 04 22 14 00 53.0000000  0 16
G03  24450157.31900 128486443.92600      1626.12700                
G09  24286524.04700 127626545.27300      -423.68900                
G14  20694600.82700 108750861.35500      -231.80100                
G15  24919282.96100 130951715.81100     -4072.67700                
G18  21927853.18800 115231646.25000      2561.16900                
G19  21628702.38600 113659598.18000     -2194.76400                
G22  23668750.82000 124380125.05600      2966.78600                
G23  20744227.27900 109011650.12000     -1193.13100                
G27  21278698.80600 111820316.95000      1891.92300                
G28  24166500.77300 126995818.71500     -3027.26400                
E01         8.24700        43.34000       -12.24100                
E02         6.09600        32.03500        10.26200                
E03        19.60800       103.04200        12.66900                
E04        27.61700       145.12700         9.80600                
E05        23.65400       124.30500         4.53600                
E06        14.56800        76.55300        -5.39400                
> 2025 04 22 14 00 54.0000000  0 16
G03  24449848.27100 128484819.86800      1622.09100                
G09  24286604.60300 127626968.60200      -423.12100                
G14  20694644.82500 108751092.56500      -230.67900                
G15  24920057.89600 130955788.12100     -4071.85000                
G18  21927365.68700 115229084.41900      2562.37100                
G19  21629120.24800 113661794.05600     -2196.88400                
G22  23668185.94300 124377156.60700      2970.01400                
G23  20744454.48500 109012844.09300     -1194.79300                
G27  21278338.86000 111818425.42000      1891.22200                
G28  24167077.19500 126998847.83200     -3030.95000                
E01        10.78000        56.64800       -14.25000                
E02         4.59200        24.12900         4.09700                
E03        16.95900        89.11900        15.05700                
E04        25.48100       133.90100        12.53800                
E05        22.59100       118.71800         6.50900                
E06        15.61600        82.06100        -5.73100                
> 2025 04 22 14 00 55.0000000  0 16
G03  24449539.92400 128483199.49100      1618.79900                
G09  24286685.14000 127627391.82700      -423.48700                
G14  20694688.64700 108751322.85000      -229.96700                
G15  24920832.61000 130959859.27300     -4070.37600                
G18  21926878.02600 115226521.74100      2562.85300                
G19  21629538.44700 113663991.70600     -2198.29600                
G22  23667620.50800 124374185.22400      2972.62200                
G23  20744681.99000 109014039.64000     -1196.26500                
G27  21277978.99600 111816534.32400      1891.05500                
G28  24167654.29400 127001880.50500     -3034.34300                
E01        13.62600        71.60600       -15.54900                
E02         4.99300        26.24000        -8.26100                
E03        13.93100        73.20900        16.59900                
E04        22.89100       120.29100        14.55400                
E05        21.23000       111.56400         7.65500                
E06        16.78000        88.17900        -6.55400                
> 2025 04 22 14 00 56.0000000  0 16
G03  24449232.11800 128481581.96000      1616.42400                
G09  24286765.83800 127627815.89400      -424.80600                
G14  20694732.37900 108751552.66600      -229.75400                
G15  24921606.99000 130963928.66800     -4068.35000                
G18  21926390.34500 115223958.96100      2562.57000                
G19  21629956.84100 113666190.38400     -2198.93400                
G22  23667054.64900 124371211.61800      2974.43600                
G23  20744909.75100 109015236.53600     -1197.48000                
G27  21277619.11500 111814643.13500      1891.39800                
G28  24168231.99500 127004916.34600     -3037.25400                
E01        16.65000        87.49500       -16.09800                
E02         7.31900        38.46300       -15.00300                
E03        10.71600        56.31200        16.95600                
E04        19.99300       105.06600        15.75600                
E05        19.73200       103.69400         7.94700                
E06        18.11400        95.18900        -7.43600                
> 2025 04 22 14 00 57.0000000  0 16
G03  24448924.66700 128479966.29500      1615.08200                
G09  24286846.87400 127628241.74300      -427.03600                
G14  20694776.12400 108751782.54500      -230.09900                
G15  24922380.94200 130967995.81000     -4065.89700                
G18  21925902.79100 115221396.84600      2561.52800                
G19  21630375.28100 113668389.30300     -2198.77900                
G22  23666488.53100 124368236.64900      2975.33100                
G23  20745137.71500 109016434.49500     -1198.38400                
G27  21277259.12400 111812751.37200      1892.19400                
G28  24168810.19100 127007954.78800     -3039.52300                
E01        19.70100       103.52800       -15.82700                
E02        10.40200        54.66300       -16.90500                
E03         7.60000        39.94000        15.33500                
E04        16.94800        89.06300        16.10900                
E05        18.25200        95.91600         7.50900                
E06        19.58500       102.92100        -7.93200                
> 2025 04 22 14 00 58.0000000  0 16
G03  24448617.36900 128478351.43000      1614.82600                
G09  24286928.41400 127628670.23700      -430.07800                
G14  20694819.98900 108752013.05900      -231.02600                
G15  24923154.39800 130972060.35000     -4063.17200                
G18  21925415.50300 115218836.13300      2559.77800                
G19  21630793.61900 113670587.68100     -2197.86300                
G22  23665922.33600 124365261.27400      2975.24100                
G23  20745365.81900 109017633.18800     -1198.94500                
G27  21276898.94600 111810858.62000      1893.35700                
G28  24169388.74800 127010995.12500     -3041.02900                
E01        22.61900       118.86500       -14.70700                
E02        13.62300        71.58700       -16.69300                
E03         5.15500        27.09200         9.25400                
E04        13.91500        73.12300        15.63700                
E05        16.90200        88.82000         6.64600                
E06        21.08700       110.81400        -7.72000                
> 2025 04 22 14 00 59.0000000  0 16
G03  24448310.01600 128476736.28200      1615.64100                
G09  24287010.59800 127629102.12000      -433.78400                
G14  20694864.08500 108752244.78600      -232.52000                
G15  24923927.32300 130976122.09800     -4060.34400                
G18  21924928.60900 115216277.48700      2557.41400                
G19  21631211.71600 113672784.79300     -2196.26300                
G22  23665356.25300 124362286.48700      2974.15900                
G23  20745593.99600 109018832.26400     -1199.14900                
G27  21276538.51900 111808964.56700      1894.77900                
G28  24169967.51300 127014036.55400     -3041.70000                
E01        25.24600       132.66800       -12.76700                
E02        16.67800        87.64200       -15.24800                
E03         4.52500        23.78100        -3.00200                
E04        11.04500        58.04100        14.40800                
E05        15.72200        82.62000         5.79600                
E06        22.46900       118.07500        -6.65800                
> 2025 04 22 14 01  0.0000000  0 16
G03  24448002.41300 128475119.81500      1617.44400                
G09  24287093.53700 127629537.96400      -437.96500                
G14  20694908.51600 108752478.27300      -234.53500                
G15  24924699.71400 130980181.04100     -4057.59000                
G18  21924442.21300 115213721.45600      2554.57200                
G19  21631629.45200 113674980.01300     -2194.10100                
G22  23664790.46700 124359313.25800      2972.14000                
G23  20745822.17800 109020031.36900     -1199.00800                
G27  21276177.80700 111807069.01300      1896.33600                
G28  24170546.32400 127017078.22600     -3041.51400                
E01        27.43200       144.15600       -10.09900                
E02        19.37100       101.79300       -12.93100                
E03         5.90800        31.04600       -10.00900                
E04         8.47600        44.54100        12.47100                
E05        14.66700        77.07600         5.39700                
E06        23.56800       123.85000        -4.76000                
> 2025 04 22 14 01  1.0000000  0 16
G03  24447694.38300 128473501.10800      1620.09200                
G09  24287177.29800 127629978.13400      -442.40000                
G14  20694953.37400 108752714.00200      -236.99000                
G15  24925471.60200 130984237.33900     -4055.08300                
G18  21923956.39000 115211168.44100      2551.41300                
G19  21632046.73600 113677172.85500     -2191.53300                
G22  23664225.14400 124356342.47000      2969.30000                
G23  20746050.30200 109021230.17200     -1198.55200                
G27  21275816.79700 111805171.88900      1897.89600                
G28  24171125.02000 127020119.29600     -3040.50600                
E01        29.05200       152.67000        -6.84500                
E02        21.56000       113.29800        -9.99300                
E03         7.93800        41.71600       -10.75200                
E04         6.35300        33.38500         9.65500                
E05        13.62200        71.58200         5.72100                
E06        24.23500       127.35800        -2.15300                
> 2025 04 22 14 01  2.0000000  0 16
G03  24447385.78400 128471879.41000      1623.39000                
G09  24287261.91000 127630422.76900      -446.85400                
G14  20694998.73300 108752952.36300      -239.77700                
G15  24926243.04900 130988291.32100     -4052.97900                
G18  21923471.18400 115208618.66600      2548.12200                
G19  21632463.50600 113679362.99900     -2188.74000                
G22  23663660.42800 124353374.86700      2965.80100                
G23  20746278.31500 109022428.38400     -1197.83400                
G27  21275455.49900 111803273.25900      1899.32600                
G28  24171703.45300 127023158.97900     -3038.75700                
E01        30.01200       157.71300        -3.19200                
E02        23.15000       121.65200        -6.67200                
E03         9.87900        51.91300        -9.48600                
E04         4.90100        25.75700         5.24900                
E05        12.44200        65.38500         6.78400                
E06        24.35400       127.98300         0.97100                
> 2025 04 22 14 01  3.0000000  0 16
G03  24447076.51400 128470254.18600      1627.10200                
G09  24287347.35100 127630871.76900      -451.09100                
G14  20695044.64300 108753193.62500      -242.76900                
G15  24927014.14500 130992343.45600     -4051.41000                
G18  21922986.60200 115206072.17000      2544.88800                
G19  21632879.74000 113681550.31900     -2185.91700                
G22  23663096.42500 124350411.00800      2961.85100                
G23  20746506.17000 109023625.77300     -1196.92000                
G27  21275093.95200 111801373.31700      1900.50100                
G28  24172281.49200 127026196.59500     -3036.39800                
E01        30.25500       158.99000         0.64900                
E02        24.09100       126.59700        -3.21600                
E03        11.52300        60.55500        -7.79600                
E04         4.49000        23.59500        -1.13200                
E05        11.00700        57.84000         8.36200                
E06        23.84800       125.32200         4.37800                
> 2025 04 22 14 01  4.0000000  0 16
G03  24446766.51900 128468625.15100      1630.96600                
G09  24287433.56100 127631324.80300      -454.88700                
G14  20695091.13200 108753437.92200      -245.82400                
G15  24927785.00100 130996394.33100     -4050.47400                
G18  21922502.61500 115203528.79900      2541.90000                
G19  21633295.44800 113683734.88300     -2183.26200                
G22  23662533.19700 124347451.22700      2957.68300                
G23  20746733.83900 109024822.18300     -1195.89000                
G27  21274732.21500 111799472.37400      1901.31300                
G28  24172859.03700 127029231.61600     -3033.59700                
E01        29.76700       156.42700         4.45200                
E02        24.38100       128.12300         0.12300                
E03        12.86200        67.59000        -6.35300                
E04         5.29400        27.81900        -6.97200                
E05         9.25500        48.63500        10.00800                
E06        22.68600       119.21600         7.81700                
> 2025 04 22 14 01  5.0000000  0 16
G03  24446455.79600 128466992.29100      1634.71000                
G09  24287520.43500 127631781.33100      -458.04800                
G14  20695138.19600 108753685.24500      -248.79700                
G15  24928555.74400 131000444.61500     -4050.23100                
G18  21922019.15900 115200988.22100      2539.33000                
G19  21633710.68300 113685916.95500     -2180.96100                
G22  23661970.76400 124344495.62100      2953.54500                
G23  20746961.30900 109026017.54200     -1194.83200                
G27  21274370.36500 111797570.83700      1901.67500                
G28  24173436.02200 127032263.69500     -3030.54800                
E01        28.57700       150.17300         7.99400                
E02        24.06700       126.47200         3.09800                
E03        13.98100        73.46800        -5.52500                
E04         7.00600        36.81600       -10.73000                
E05         7.24600        38.07600        10.86300                
E06        20.88700       109.76100        11.03600                
> 2025 04 22 14 01  6.0000000  0 16
G03  24446144.39300 128465355.85600      1638.07100                
G09  24287607.83800 127632240.63400      -460.41600                
G14  20695185.80700 108753935.44300      -251.55000                
G15  24929326.50900 131004495.01000     -4050.69600                
G18  21921536.14000 115198449.94300      2537.32400                
G19  21634125.52600 113688096.97300     -2179.17900                
G22  23661409.09600 124341544.03500      2949.68200                
G23  20747188.58100 109027211.86500     -1193.83400                
G27  21274008.49300 111795669.18900      1901.53000                
G28  24174012.42100 127035292.68800     -3027.46100                
E01        26.75400       140.59400        11.07000                
E02        23.23900       122.12300         5.48600                
E03        15.01400        78.89700        -5.45900                
E04         9.29800        48.85900       -13.20400                
E05         5.30700        27.88600         8.65000                
E06        18.51500        97.29800        13.79200                
> 2025 04 22 14 01  7.0000000  0 16
G03  24445832.40600 128463716.35400      1640.80800                
G09  24287695.60700 127632701.86200      -461.88500                
G14  20695233.91000 108754188.22800      -253.95500                
G15  24930097.42700 131008546.21400     -4051.84200                
G18  21921053.44100 115195913.34000      2535.99300                
G19  21634540.09100 113690275.52400     -2178.04800                
G22  23660848.11800 124338596.07800      2946.32300                
G23  20747415.67600 109028405.25700     -1192.98200                
G27  21273646.70000 111793767.95200      1900.84900                
G28  24174588.24500 127038318.66400     -3024.55000                
E01        24.40500       128.24700        13.50600                
E02        22.02800       115.75500         7.11200                
E03        16.10000        84.60800        -6.05100                
E04        11.98300        62.97000       -14.90100                
E05         4.46700        23.47200        -1.25100                
E06        15.68200        82.41100        15.84500                
> 2025 04 22 14 01  8.0000000  0 16
G03  24445519.97400 128462074.51200      1642.72200                
G09  24287783.56500 127633164.08700      -462.40400                
G14  20695282.43000 108754443.20100      -255.90800                
G15  24930868.62300 131012598.87600     -4053.59700                
G18  21920570.92500 115193377.70100      2535.40500                
G19  21634954.51000 113692453.31100     -2177.66100                
G22  23660287.71600 124335651.14400      2943.66500                
G23  20747642.62800 109029597.90100     -1192.35100                
G27  21273285.08600 111791867.66200      1899.64100                
G28  24175163.54800 127041341.90200     -3022.01600                
E01        21.66200       113.83700        15.17800                
E02        20.58700       108.18600         7.88200                
E03        17.33700        91.10500        -6.95800                
E04        14.92400        78.42500       -15.88400                
E05         5.84300        30.70500       -12.07200                
E06        12.54600        65.93100        16.92700                
> 2025 04 22 14 01  9.0000000  0 16
G03  24445207.26900 128460431.23300      1643.66100                
G09  24287871.53200 127633626.35500      -461.98000                
G14  20695331.27200 108754699.86800      -257.33300                
G15  24931640.20300 131016653.55500     -4055.85500                
G18  21920088.44700 115190842.26500      2535.58400                
G19  21635368.93000 113694631.10300     -2178.06300                
G22  23659727.74000 124332708.45100      2941.86100                
G23  20747869.48700 109030790.05200     -1192.00400                
G27  21272923.75000 111789968.82800      1897.94500                
G28  24175738.41900 127044362.87000     -3020.03800                
E01        18.68100        98.17100        16.01300                
E02        19.08000       100.26600         7.83200                
E03        18.73900        98.47600        -7.72200                
E04        17.97800        94.47800       -16.08500                
E05         8.61100        45.25300       -16.19700                
E06         9.32900        49.02600        16.57900                
> 2025 04 22 14 01 10.0000000  0 16
G03  24444894.48500 128458787.54300      1643.53600                
G09  24287959.33300 127634087.75400      -460.68000                
G14  20695380.33100 108754957.67600      -258.18600                
G15  24932412.24900 131020710.68500     -4058.47400                
G18  21919605.86500 115188306.27600      2536.50500                
G19  21635783.50200 113696809.69400     -2179.25100                
G22  23659168.01800 124329767.09100      2941.01300                
G23  20748096.31100 109031982.01800     -1191.98700                
G27  21272562.77800 111788071.90800      1895.82900                
G28  24176312.97800 127047382.19900     -3018.75900                
E01        15.62200        82.09400        16.00200                
E02        17.64600        92.73100         7.16200                
E03        20.24100       106.36600        -7.94000                
E04        20.99200       110.31400       -15.44600                
E05        11.80300        62.02700       -17.00000                
E06         6.40400        33.65400        13.49800                
> 2025 04 22 14 01 11.0000000  0 16
G03  24444581.82800 128457144.52200      1642.32300                
G09  24288046.81300 127634547.46200      -458.62400                
G14  20695429.49800 108755216.04700      -258.46000                
G15  24933184.81600 131024770.55000     -4061.29400                
G18  21919123.04100 115185769.02300      2538.09700                
G19  21636198.37100 113698989.84600     -2181.17400                
G22  23658608.36300 124326826.08200      2941.16000                
G23  20748323.16400 109033174.14200     -1192.32200                
G27  21272202.24200 111786177.27500      1893.38900                
G28  24176887.36900 127050400.64300     -3018.28000                
E01        12.64200        66.43400        15.19200                
E02        16.37000        86.02400         6.24700                
E03        21.71100       114.09100        -7.36700                
E04        23.80300       125.08800       -13.96300                
E05        14.98100        78.72700       -16.19200                
E06         4.58800        24.11100         4.27700                
> 2025 04 22 14 01 12.0000000  0 16
G03  24444269.50300 128455503.24100      1640.06800                
G09  24288133.84200 127635004.80600      -455.98200                
G14  20695478.66300 108755474.41100      -258.18100                
G15  24933957.92400 131028833.26100     -4064.13900                
G18  21918639.86000 115183229.88800      2540.24600                
G19  21636613.66800 113701172.24700     -2183.73200                
G22  23658048.58600 124323884.43500      2942.28200                
G23  20748550.11600 109034366.78000     -1193.01400                
G27  21271842.19100 111784285.19500      1890.74200                
G28  24177461.74900 127053419.03100     -3018.65100                
E01         9.88600        51.95200        13.65600                
E02        15.25500        80.16400         5.54600                
E03        22.99000       120.81100        -5.93300                
E04        26.25600       137.97700       -11.69300                
E05        17.90000        94.06400       -14.33600                
E06         4.95900        26.05800        -7.18100                
> 2025 04 22 14 01 13.0000000  0 16
G03  24443957.69800 128453864.69400      1636.87900                
G09  24288220.32900 127635459.29700      -452.95600                
G14  20695527.72700 108755732.24500      -257.41200                
G15  24934731.56200 131032898.75700     -4066.83400                
G18  21918156.22800 115180688.38500      2542.80600                
G19  21637029.50200 113703357.46900     -2186.78800                
G22  23657488.50900 124320941.21000      2944.29700                
G23  20748777.23100 109035560.28000     -1194.04100                
G27  21271482.65300 111782395.81300      1888.01600                
G28  24178036.28100 127056438.21700     -3019.87100                
E01         7.49100        39.36400        11.38300                
E02        14.22100        74.73100         5.44100                
E03        23.91800       125.69200        -3.70700                
E04        28.21100       148.24900        -8.75000                
E05        20.38900       107.14500       -11.72000                
E06         6.77200        35.58700       -10.76700                
> 2025 04 22 14 01 14.0000000  0 16
G03  24443646.57500 128452229.73500      1632.92400                
G09  24288306.22100 127635910.66500      -449.77500                
G14  20695576.60500 108755989.10300      -256.24600                
G15  24935505.68500 131036966.80200     -4069.21200                
G18  21917672.08400 115178144.18800      2545.60400                
G19  21637445.95200 113705545.92700     -2190.17400                
G22  23656927.97300 124317995.57800      2947.06800                
G23  20749004.57100 109036754.95900     -1195.36400                
G27  21271123.63200 111780509.14100      1885.34400                
G28  24178611.12200 127059459.02600     -3021.88400                
E01         5.62200        29.54600         8.00100                
E02        13.13500        69.02500         6.09900                
E03        24.36000       128.01400        -0.84900                
E04        29.55400       155.30800        -5.29900                
E05        22.32800       117.33200        -8.58600                
E06         8.81000        46.29800       -10.32100                
> 2025 04 22 14 01 15.0000000  0 16
G03  24443336.26200 128450599.02700      1628.41600                
G09  24288391.51300 127636358.87400      -446.67700                
G14  20695625.23300 108756244.64400      -254.80000                
G15  24936280.21900 131041037.00400     -4071.12500                
G18  21917187.39900 115175597.15300      2548.45100                
G19  21637863.06300 113707737.85900     -2193.70200                
G22  23656366.85300 124315046.87200      2950.41100                
G23  20749232.18600 109037951.08500     -1196.92300                
G27  21270765.10300 111778625.06000      1882.85600                
G28  24179186.41300 127062482.20300     -3024.58600                
E01         4.57300        24.03400         2.64500                
E02        11.85700        62.30800         7.42500                
E03        24.21500       127.25000         2.42800                
E04        30.20800       158.74200        -1.53600                
E05        23.63900       124.22600        -5.17600                
E06        10.63200        55.87400        -8.75600                
> 2025 04 22 14 01 16.0000000  0 16
G03  24443026.84000 128448973.00200      1623.60400                
G09  24288476.24100 127636804.12400      -443.89400                
G14  20695673.57000 108756498.65500      -253.20900                
G15  24937055.06300 131045108.83700     -4072.45700                
G18  21916702.18300 115173047.32400      2551.15800                
G19  21638280.84200 113709933.30500     -2197.17200                
G22  23655805.06000 124312094.62700      2954.10600                
G23  20749460.11500 109039148.85800     -1198.64500                
G27  21270407.02000 111776743.32300      1880.67100                
G28  24179762.27300 127065508.36700     -3027.83000                
E01         4.70100        24.70300        -3.91700                
E02        10.28600        54.05400         9.10300                
E03        23.42500       123.10000         5.88000                
E04        30.13300       158.35000         2.31700                
E05        24.29600       127.67500        -1.73900                
E06        12.13900        63.79000        -7.11400                
> 2025 04 22 14 01 17.0000000  0 16
G03  24442718.34100 128447351.82800      1618.75800                
G09  24288560.48700 127637246.83900      -441.64100                
G14  20695721.60100 108756751.06100      -251.61600                
G15  24937830.09800 131049181.67500     -4073.12300                
G18  21916216.47900 115170494.93500      2553.54300                
G19  21638699.26200 113712132.11300     -2200.39100                
G22  23655242.54900 124309138.61100      2957.91200                
G23  20749688.38000 109040348.39900     -1200.44500                
G27  21270049.31700 111774863.57800      1878.89000                
G28  24180338.78800 127068537.97100     -3031.43500                
E01         5.94900        31.26100        -8.82000                
E02         8.40500        44.17100        10.55500                
E03        21.98200       115.51500         9.25500                
E04        29.33500       154.15500         6.03300                
E05        24.31600       127.77900         1.47200                
E06        13.36800        70.24800        -5.90400                
> 2025 04 22 14 01 18.0000000  0 16
G03  24442410.74500 128445735.40500      1614.14500                
G09  24288644.36900 127637687.64200      -440.09600                
G14  20695769.34100 108757001.93400      -250.16500                
G15  24938605.19300 131053254.82800     -4073.08500                
G18  21915730.36600 115167940.39200      2555.44200                
G19  21639118.25500 113714333.93800     -2203.18000                
G22  23654679.32300 124306178.83800      2961.58000                
G23  20749916.98800 109041549.74300     -1202.23500                
G27  21269691.90800 111772985.38000      1877.58500                
G28  24180916.00700 127071571.27700     -3035.19800                
E01         7.94200        41.73700       -11.91500                
E02         6.35900        33.41600        10.52300                
E03        19.92400       104.69900        12.30200                
E04        27.85900       146.40200         9.39600                
E05        23.76500       124.88600         4.21800                
E06        14.43100        75.83600        -5.40200                
> 2025 04 22 14 01 19.0000000  0 16
G03  24442103.98500 128444123.37000      1610.02300                
G09  24288728.03500 127638127.31300      -439.39600                
G14  20695816.82800 108757251.48400      -248.99100                
G15  24939380.21400 131057327.59000     -4072.34500                
G18  21915243.94800 115165384.24800      2556.72600                
G19  21639537.72600 113716538.27200     -2205.38700                
G22  23654115.43100 124303215.56700      2964.86900                
G23  20750145.92900 109042752.83400     -1203.92700                
G27  21269334.69700 111771108.22800      1876.80400                
G28  24181493.94000 127074608.33600     -3038.90600                
E01        10.42300        54.77100       -14.02500                
E02         4.71200        24.76400         5.44900                
E03        17.33600        91.10000        14.78300                
E04        25.79300       135.54400        12.21400                
E05        22.75300       119.56800         6.29300                
E06        15.47200        81.30500        -5.65000                
> 2025 04 22 14 01 20.0000000  0 16
G03  24441797.94500 128442515.11700      1606.61500                
G09  24288811.65600 127638566.74400      -439.62500                
G14  20695864.12900 108757500.04800      -248.21200                
G15  24940155.03100 131061399.27800     -4070.95000                
G18  21914757.35200 115162827.16900      2557.30000                
G19  21639957.55200 113718744.47200     -2206.89500                
G22  23653550.96700 124300249.28700      2967.56500                
G23  20750375.17600 109043957.53400     -1205.43700                
G27  21268977.58500 111769231.59000      1876.55700                
G28  24182072.55700 127077648.98800     -3042.34900                
E01        13.23500        69.55100       -15.41800                
E02         4.80300        25.24000        -6.78200                
E03        14.34900        75.40300        16.45300                
E04        23.25500       122.20800        14.33100                
E05        21.42200       112.57300         7.55300                
E06        16.61600        87.31700        -6.43100                
> 2025 04 22 14 01 21.0000000  0 16
G03  24441492.47000 128440909.83700      1604.10300                
G09  24288895.41200 127639006.88200      -440.80900                
G14  20695911.32600 108757748.07100      -247.92100                
G15  24940929.52600 131065469.27900     -4068.98700                
G18  21914270.71800 115160269.89300      2557.11600                
G19  21640377.59200 113720951.80000     -2207.63400                
G22  23652986.06000 124297280.68500      2969.48600                
G23  20750604.68700 109045163.62300     -1206.69600                
G27  21268620.47000 111767354.93700      1876.82500                
G28  24182651.78800 127080692.87000     -3045.33400                
E01        16.24300        85.36000       -16.07100                
E02         6.94700        36.50500       -14.48100                
E03        11.14500        58.56600        16.99600                
E04        20.39000       107.15000        15.64500                
E05        19.93300       104.75000         7.95400                
E06        17.92700        94.20800        -7.33300                
> 2025 04 22 14 01 22.0000000  0 16
G03  24441187.37800 128439306.56700      1602.61100                
G09  24288979.48100 127639448.67000      -442.91500                
G14  20695958.51900 108757996.07400      -248.18000                
G15  24941703.60300 131069537.08300     -4066.57900                
G18  21913784.19300 115157713.18300      2556.17100                
G19  21640797.69700 113723159.46800     -2207.57700                
G22  23652420.87300 124294310.60600      2970.50300                
G23  20750834.40900 109046370.82000     -1207.64700                
G27  21268263.25900 111765477.78000      1877.55500                
G28  24183231.53100 127083739.43800     -3047.69700                
E01        19.30000       101.42100       -15.91200                
E02         9.97600        52.42600       -16.80600                
E03         7.99300        42.00200        15.72400                
E04        17.35500        91.20100        16.11100                
E05        18.44300        96.91900         7.60000                
E06        19.38500       101.87000        -7.90200                
> 2025 04 22 14 01 23.0000000  0 16
G03  24440882.46800 128437704.25100      1602.20000                
G09  24289064.03300 127639892.99000      -445.85200                
G14  20696005.81700 108758244.62500      -249.02000                
G15  24942477.19200 131073602.31900     -4063.87800                
G18  21913297.91600 115155157.78100      2554.51100                
G19  21641217.71800 113725366.69000     -2206.75000                
G22  23651855.58500 124291339.99600      2970.53900                
G23  20751064.27900 109047578.79900     -1208.25400                
G27  21267905.87100 111763599.69500      1878.66600                
G28  24183811.65300 127086788.00200     -3049.31100                
E01        22.24500       116.90000       -14.90400                
E02        13.20000        69.36400       -16.80200                
E03         5.40500        28.40300        10.47800                
E04        14.31100        75.20600        15.74500                
E05        17.07100        89.71000         6.77000                
E06        20.89100       109.78400        -7.79500                
> 2025 04 22 14 01 24.0000000  0 16
G03  24440577.53200 128436101.80400      1602.86500                
G09  24289149.21100 127640340.60400      -449.47800                
G14  20696053.32900 108758494.30400      -250.43100                
G15  24943250.25200 131077664.77500     -4061.05000                
G18  21912812.01600 115152604.36000      2552.22600                
G19  21641637.51300 113727572.73000     -2205.22600                
G22  23651290.38400 124288369.84800      2969.58200                
G23  20751294.23200 109048787.20700     -1208.50200                
G27  21267548.24400 111761720.35100      1880.05300                
G28  24184392.00500 127089837.77200     -3050.09700                
E01        24.91900       130.95300       -13.06900                
E02        16.28900        85.60100       -15.49600                
E03         4.47000        23.48800        -1.39200                
E04        11.41100        59.96700        14.61200                
E05        15.87000        83.39500         5.89100                
E06        22.29800       117.17800        -6.84800                
> 2025 04 22 14 01 25.0000000  0 16
G03  24440272.37300 128434498.18200      1604.53300                
G09  24289235.13000 127640792.11400      -453.60800                
G14  20696101.16100 108758745.66500      -252.37300                
G15  24944022.77600 131081724.41500     -4058.27400                
G18  21912326.60100 115150053.48700      2549.44400                
G19  21642056.96100 113729776.94300     -2203.12100                
G22  23650725.45800 124285401.13700      2967.67800                
G23  20751524.19800 109049995.68500     -1208.39900                
G27  21267190.33600 111759839.53300      1881.59300                
G28  24184972.42500 127092887.89900     -3050.02700                
E01        27.17200       142.78900       -10.49000                
E02        19.04000       100.05400       -13.28000                
E03         5.66000        29.74500        -9.57100                
E04         8.79500        46.21600        12.77100                
E05        14.80400        77.79300         5.41200                
E06        23.44400       123.19800        -5.05700                
> 2025 04 22 14 01 26.0000000  0 16
G03  24439966.81100 128432892.44400      1607.06900                
G09  24289321.86700 127641247.91700      -458.02500                
G14  20696149.40800 108758999.20100      -254.76800                
G15  24944794.79000 131085781.37600     -4055.72100                
G18  21911841.75000 115147505.57800      2546.32400                
G19  21642475.96500 113731978.82300     -2200.58800                
G22  23650160.97500 124282434.76100      2964.93500                
G23  20751754.11200 109051203.89600     -1207.97400                
G27  21266832.13100 111757957.15300      1883.15600                
G28  24185552.75100 127095937.53500     -3049.12500                
E01        28.87300       151.73000        -7.30500                
E02        21.30200       111.94300       -10.41100                
E03         7.66600        40.28300       -10.82500                
E04         6.60300        34.69700        10.09800                
E05        13.76500        72.33500         5.63300                
E06        24.17600       127.04700        -2.53300                
> 2025 04 22 14 01 27.0000000  0 16
G03  24439660.69900 128431283.81300      1610.28500                
G09  24289409.45200 127641708.18300      -462.49600                
G14  20696198.14500 108759255.31700      -257.51300                
G15  24945566.35200 131089835.96500     -4053.55300                
G18  21911357.51000 115144960.88200      2543.04800                
G19  21642894.46000 113734178.02900     -2197.80400                
G22  23649597.08200 124279471.48400      2961.51000                
G23  20751983.91900 109052411.54000     -1207.27600                
G27  21266473.63700 111756073.25400      1884.60800                
G28  24186132.83300 127098985.88600     -3047.47000                
E01        29.92500       157.25600        -3.69200                
E02        22.97500       120.73600        -7.12700                
E03         9.63600        50.63900        -9.69900                
E04         5.04300        26.50200         5.96200                
E05        12.61100        66.27400         6.60600                
E06        24.37300       128.08300         0.53500                
> 2025 04 22 14 01 28.0000000  0 16
G03  24439353.92800 128429671.72200      1613.94800                
G09  24289497.87500 127642172.84700      -466.78200                
G14  20696247.42800 108759514.30100      -260.48200                
G15  24946337.55000 131093888.63600     -4051.90400                
G18  21910873.89400 115142419.46300      2539.80500                
G19  21643312.41700 113736374.40700     -2194.96600                
G22  23649033.89000 124276511.88900      2957.60700                
G23  20752213.57300 109053618.37600     -1206.37000                
G27  21266114.88700 111754188.01200      1885.82300                
G28  24186712.53800 127102032.25300     -3045.18400                
E01        30.26500       159.04300         0.13700                
E02        24.00400       126.14000        -3.67300                
E03        11.32300        59.50500        -8.01700                
E04         4.47300        23.50400        -0.23900                
E05        11.21500        58.93500         8.13600                
E06        23.95300       125.87200         3.91800                
> 2025 04 22 14 01 29.0000000  0 16
G03  24439046.43800 128428055.85000      1617.80100                
G09  24289587.07800 127642641.61000      -470.65800                
G14  20696297.28700 108759776.31000      -263.53600                
G15  24947108.49100 131097939.96100     -4050.87800                
G18  21910390.87700 115139881.19100      2536.78200                
G19  21643729.84400 113738568.00300     -2192.27100                
G22  23648471.46800 124273556.34300      2953.45400                
G23  20752443.04000 109054824.23600     -1205.33700                
G27  21265755.93800 111752301.72100      1886.69000                
G28  24187291.76000 127105076.08500     -3042.43000                
E01        29.87300       156.98500         3.95800                
E02        24.37900       128.11100        -0.30400                
E03        12.69900        66.73600        -6.51500                
E04         5.12600        26.93600        -6.32400                
E05         9.50500        49.95000         9.80900                
E06        22.87800       120.22400         7.36800                
> 2025 04 22 14 01 30.0000000  0 16
G03  24438738.21800 128426436.14400      1621.57200                
G09  24289676.96300 127643113.95900      -473.92300                
G14  20696347.72300 108760041.35400      -266.53100                
G15  24947879.30200 131101990.60000     -4050.53900                
G18  21909908.40000 115137345.75800      2534.15600                
G19  21644146.78700 113740759.05400     -2189.90800                
G22  23647909.84100 124270604.97100      2949.30000                
G23  20752672.30600 109056029.03500     -1204.26300                
G27  21265396.86400 111750414.77500      1887.11900                
G28  24187870.42800 127108117.00800     -3039.40000                
E01        28.77300       151.20400         7.54700                
E02        24.14100       126.86000         2.73300                
E03        13.84000        72.73000        -5.59200                
E04         6.74000        35.41800       -10.32400                
E05         7.52000        39.51700        10.85000                
E06        21.16000       111.19900        10.63000                
> 2025 04 22 14 01 31.0000000  0 16
G03  24438429.31000 128424812.81900      1624.99600                
G09  24289767.39700 127643589.19700      -476.41300                
G14  20696398.71200 108760309.30400      -269.32400                
G15  24948650.11600 131106041.25400     -4050.90900                
G18  21909426.37400 115134812.68900      2532.07400                
G19  21644563.32600 113742947.98000     -2188.04600                
G22  23647348.98400 124267657.65100      2945.39000                
G23  20752901.37000 109057232.77700     -1203.23900                
G27  21265037.75600 111748527.64600      1887.04700                
G28  24188448.51000 127111154.85100     -3036.30300                
E01        27.02900       142.03900        10.69500                
E02        23.37400       122.83300         5.21000                
E03        14.87600        78.17500        -5.42500                
E04         8.96800        47.12500       -12.92500                
E05         5.53300        29.07800         9.28700                
E06        18.85900        99.10700        13.46100                
> 2025 04 22 14 01 32.0000000  0 16
G03  24438119.80200 128423186.34700      1627.82900                
G09  24289858.22300 127644066.48900      -478.01500                
G14  20696450.20300 108760579.89200      -271.78800                
G15  24949421.06700 131110092.62500     -4051.96600                
G18  21908944.68200 115132281.38000      2530.65300                
G19  21644979.56900 113745135.35400     -2186.82300                
G22  23646788.83000 124264714.02100      2941.95600                
G23  20753130.25200 109058435.55600     -1202.35100                
G27  21264678.71100 111746640.85300      1886.44400                
G28  24189026.01400 127114189.65200     -3033.35300                
E01        24.74200       130.02100        13.22500                
E02        22.20500       116.68800         6.94400                
E03        15.94900        83.81200        -5.94500                
E04        11.60900        61.00400       -14.71600                
E05         4.45700        23.42200         0.49000                
E06        16.08000        84.50000        15.62200                
> 2025 04 22 14 01 33.0000000  0 16
G03  24437809.82900 128421557.42500      1629.86300                
G09  24289949.26400 127644544.91100      -478.66900                
G14  20696502.12300 108760852.73300      -273.81400                
G15  24950192.27900 131114145.37200     -4053.64400                
G18  21908463.19100 115129751.13000      2529.96700                
G19  21645395.64900 113747321.86600     -2186.33600                
G22  23646229.26800 124261773.50100      2939.19900                
G23  20753358.98300 109059637.54800     -1201.67700                
G27  21264319.83200 111744754.93000      1885.31100                
G28  24189602.98600 127117221.66200     -3030.75300                
E01        22.04400       115.84000        15.00300                
E02        20.78600       109.22900         7.83000                
E03        17.16300        90.19000        -6.83600                
E04        14.52400        76.32200       -15.79700                
E05         5.55000        29.16700       -11.07000                
E06        12.97300        68.17300        16.85200                
> 2025 04 22 14 01 34.0000000  0 16
G03  24437499.55700 128419926.93700      1630.94100                
G09  24290040.33800 127645023.51100      -478.37500                
G14  20696554.38000 108761127.34700      -275.32100                
G15  24950963.86100 131118200.06600     -4055.84100                
G18  21907981.75800 115127221.18400      2530.04500                
G19  21645811.71000 113749508.28200     -2186.63600                
G22  23645670.15300 124258835.33100      2937.28000                
G23  20753587.61200 109060839.00100     -1201.28200                
G27  21263961.21600 111742870.39200      1883.68300                
G28  24190179.51200 127120251.32500     -3028.68700                
E01        19.08500       100.29200        15.95100                
E02        19.27800       101.30900         7.88100                
E03        18.54500        97.45600        -7.64500                
E04        17.57200        92.34100       -16.10600                
E05         8.20600        43.12200       -15.90400                
E06         9.75000        51.23800        16.73800                
> 2025 04 22 14 01 35.0000000  0 16
G03  24437189.18000 128418295.89100      1630.96500                
G09  24290131.27000 127645501.36300      -477.18900                
G14  20696606.87100 108761403.18600      -276.26100                
G15  24951735.90100 131122257.16000     -4058.41900                
G18  21907500.23900 115124690.78300      2530.86800                
G19  21646227.90400 113751695.39600     -2187.72800                
G22  23645111.31400 124255898.61400      2936.30600                
G23  20753816.19600 109062040.22000     -1201.21400                
G27  21263602.95200 111740987.70400      1881.62400                
G28  24190755.70700 127123279.25200     -3027.30200                
E01        16.02700        84.22200        16.05100                
E02        17.82800        93.68900         7.27500                
E03        20.04000       105.31100        -7.95300                
E04        20.60000       108.25500       -15.58000                
E05        11.37400        59.77000       -17.00500                
E06         6.75400        35.49100        14.16600                
> 2025 04 22 14 01 36.0000000  0 16
G03  24436878.90100 128416665.36600      1629.90200                
G09  24290221.90100 127645977.63000      -475.22800                
G14  20696659.48500 108761679.67400      -276.62000                
G15  24952508.45400 131126316.95800     -4061.22100                
G18  21907018.49700 115122159.21200      2532.37100                
G19  21646644.37800 113753883.98100     -2189.56500                
G22  23644552.56700 124252962.37800      2936.32400                
G23  20754044.80100 109063241.54700     -1201.50100                
G27  21263245.11400 111739107.25300      1879.22600                
G28  24191331.71200 127126306.18100     -3026.70600                
E01        13.02800        68.46100        15.34300                
E02        16.52900        86.86200         6.36600                
E03        21.52300       113.10400        -7.49200                
E04        23.44800       123.21800       -14.20700                
E05        14.57000        76.56500       -16.36800                
E06         4.71700        24.79000         5.93900                
> 2025 04 22 14 01 37.0000000  0 16
G03  24436568.92600 128415036.43500      1627.78700                
G09  24290312.09700 127646451.61200      -472.65100                
G14  20696712.11300 108761956.23900      -276.42100                
G15  24953281.54900 131130379.59700     -4064.07100                
G18  21906536.41300 115119625.84200      2534.44700                
G19  21647061.26500 113756074.73900     -2192.05400                
G22  23643993.72200 124250025.62800      2937.32400                
G23  20754273.49500 109064443.34100     -1202.14800                
G27  21262887.75600 111737229.32200      1876.60400                
G28  24191907.68500 127129332.93500     -3026.95700                
E01        10.23400        53.78100        13.90000                
E02        15.39600        80.90500         5.61100                
E03        22.83700       120.00700        -6.17200                
E04        25.95600       136.40200       -12.03600                
E05        17.53400        92.14100       -14.63100                
E06         4.79100        25.17400        -6.09900                
> 2025 04 22 14 01 38.0000000  0 16
G03  24436259.44600 128413410.10700      1624.72000                
G09  24290401.76000 127646922.79300      -469.66000                
G14  20696764.65500 108762232.34800      -275.72000                
G15  24954055.17700 131134445.03800     -4066.79500                
G18  21906053.89000 115117090.16700      2536.95300                
G19  21647478.67800 113758268.25700     -2195.06200                
G22  23643434.59900 124247087.41600      2939.22900                
G23  20754502.34500 109065645.95600     -1203.13800                
G27  21262530.90800 111735354.07400      1873.88300                
G28  24192483.78600 127132360.36600     -3028.05900                
E01         7.78300        40.89800        11.73500                
E02        14.35800        75.45200         5.41200                
E03        23.82000       125.17700        -4.04300                
E04        27.98400       147.05900        -9.17400                
E05        20.08800       105.56400       -12.10300                
E06         6.50200        34.16600       -10.62700                
> 2025 04 22 14 01 39.0000000  0 16
G03  24435950.62800 128411787.25700      1620.86000                
G09  24290490.83200 127647390.86900      -466.48000                
G14  20696817.02300 108762507.54100      -274.60700                
G15  24954829.29700 131138513.06700     -4069.22200                
G18  21905570.86200 115114551.84100      2539.71900                
G19  21647896.69900 113760464.97500     -2198.42400                
G22  23642875.03700 124244146.89800      2941.91100                
G23  20754731.41300 109066849.71700     -1204.43200                
G27  21262174.57700 111733481.54100      1871.19600                
G28  24193060.17400 127135389.30900     -3029.96500                
E01         5.83200        30.64500         8.54400                
E02        13.28700        69.82600         5.96800                
E03        24.33400       127.87400        -1.25700                
E04        29.41400       154.57300        -5.77900                
E05        22.10500       116.16300        -9.02400                
E06         8.54700        44.91700       -10.47900                
> 2025 04 22 14 01 40.0000000  0 16
G03  24435642.60400 128410168.57900      1616.41600                
G09  24290579.29900 127647855.76900      -463.34900                
G14  20696869.14800 108762781.46200      -273.19500                
G15  24955603.83900 131142583.31100     -4071.20200                
G18  21905087.29900 115112010.69600      2542.55900                
G19  21648315.38000 113762665.15400     -2201.95100                
G22  23642314.90500 124241203.38300      2945.19000                
G23  20754960.75200 109068054.90200     -1205.97400                
G27  21261818.74300 111731611.62200      1868.67600                
G28  24193636.99500 127138420.52100     -3032.57700                
E01         4.65100        24.44100         3.48300                
E02        12.04200        63.28000         7.22000                
E03        24.27000       127.54200         1.97700                
E04        30.16200       158.50400        -2.04600                
E05        23.50300       123.50800        -5.63500                
E06        10.40800        54.69600        -8.98300                
> 2025 04 22 14 01 41.0000000  0 16
G03  24435335.46100 128408554.53600      1611.63200                
G09  24290667.19400 127648317.66200      -460.50200                
G14  20696920.98700 108763053.87600      -271.61700                
G15  24956378.70500 131146655.26100     -4072.61400                
G18  21904603.20200 115109466.75400      2545.28400                
G19  21648734.73100 113764868.86100     -2205.44700                
G22  23641754.10900 124238256.37900      2948.85100                
G23  20755190.40200 109069261.72200     -1207.69000                
G27  21261463.36400 111729744.09000      1866.44100                
G28  24194214.36900 127141454.64100     -3035.75400                
E01         4.61200        24.23800        -3.09700                
E02        10.51300        55.24800         8.87800                
E03        23.56800       123.85000         5.42100                
E04        30.18500       158.62400         1.80800                
E05        24.24600       127.41400        -2.18700                
E06        11.95700        62.83200        -7.31500                
> 2025 04 22 14 01 42.0000000  0 16
G03  24435029.24100 128406945.33600      1606.77600                
G09  24290754.59200 127648776.94100      -458.15600                
G14  20696972.52100 108763324.68800      -270.01500                
G15  24957153.77800 131150728.29900     -4073.37000                
G18  21904118.61300 115106920.22100      2547.70900                
G19  21649154.72900 113767075.96600     -2208.71500                
G22  23641192.59800 124235305.62400      2952.65300                
G23  20755420.38900 109070470.31000     -1209.49700                
G27  21261108.37400 111727878.60600      1864.59500                
G28  24194792.38700 127144492.14800     -3039.31900                
E01         5.73200        30.12400        -8.29600                
E02         8.67000        45.56300        10.40800                
E03        22.21000       116.71500         8.82000                
E04        29.48100       154.92400         5.55600                
E05        24.34800       127.94700         1.06800                
E06        13.21700        69.45600        -6.02800                
> 2025 04 22 14 01 43.0000000  0 16
G03  24434723.93000 128405340.91600      1602.11600                
G09  24290841.60600 127649234.20300      -456.49600                
G14  20697023.75900 108763593.94600      -268.53500                
G15  24957928.92900 131154801.74500     -4073.42400                
G18  21903633.60400 115104371.48200      2549.67100                
G19  21649575.31300 113769286.14800     -2211.57300                
G22  23640630.37100 124232351.09800      2956.34900                
G23  20755650.72100 109071680.71300     -1211.30500                
G27  21260753.69200 111726014.73900      1863.21700                
G28  24195371.10500 127147533.33000     -3043.07000                
E01         7.64600        40.17800       -11.57300                
E02         6.62700        34.82500        10.70100                
E03        20.23000       106.30700        11.92500                
E04        28.09100       147.62100         8.97700                
E05        23.86700       125.42400         3.88800                
E06        14.29400        75.11800        -5.42400                
> 2025 04 22 14 01 44.0000000  0 16
G03  24434419.46600 128403740.94800      1597.91200                
G09  24290928.38200 127649690.21100      -455.66700                
G14  20697074.73800 108763861.84300      -267.31200                
G15  24958704.02300 131158874.89100     -4072.77200                
G18  21903148.27700 115101821.07100      2551.03400                
G19  21649996.38900 113771498.91700     -2213.86500                
G22  23640067.46900 124229393.03100      2959.69700                
G23  20755881.39000 109072892.88800     -1213.02500                
G27  21260399.22300 111724151.99400      1862.35600                
G28  24195950.53700 127150578.26800     -3046.79600                
E01        10.07100        52.92500       -13.78800                
E02         4.86500        25.56700         6.62500                
E03        17.70500        93.04300        14.49500                
E04        26.09700       137.14300        11.87700                
E05        22.90900       120.38800         6.06200                
E06        15.33000        80.56000        -5.57900                
> 2025 04 22 14 01 45.0000000  0 16
G03  24434115.74100 128402144.86000      1594.39300                
G09  24291015.08600 127650145.84500      -455.75900                
G14  20697125.51800 108764128.69600      -266.46700                
G15  24959478.92900 131162947.04700     -4071.45700                
G18  21902662.75600 115099269.63900      2551.69900                
G19  21650417.83700 113773713.64200     -2215.46900                
G22  23639503.98200 124226431.88200      2962.47700                
G23  20756112.37200 109074106.70400     -1214.57200                
G27  21260044.86800 111722289.84400      1862.03000                
G28  24196530.65900 127153626.83100     -3050.28500                
E01        12.84700        67.51400       -15.27400                
E02         4.65200        24.44500        -5.17600                
E03        14.76200        77.57600        16.28800                
E04        23.61400       124.09500        14.09500                
E05        21.61100       113.56800         7.43500                
E06        16.45500        86.47100        -6.31000                
> 2025 04 22 14 01 46.0000000  0 16
G03  24433812.60400 128400551.86800      1591.74600                
G09  24291101.89900 127650602.04900      -456.80800                
G14  20697176.18200 108764394.93600      -266.09900                
G15  24960253.52700 131167017.58900     -4069.56000                
G18  21902177.17900 115096717.91500      2551.61300                
G19  21650839.51800 113775929.59400     -2216.30800                
G22  23638940.03400 124223468.31700      2964.50400                
G23  20756343.62500 109075321.94900     -1215.87500                
G27  21259690.52500 111720427.75800      1862.22200                
G28  24197111.40700 127156678.68300     -3053.34200                
E01        15.83800        83.22900       -16.02900                
E02         6.58800        34.62300       -13.86800                
E03        11.57400        60.82300        17.00600                
E04        20.78400       109.21900        15.51900                
E05        20.13400       105.80500         7.94900                
E06        17.74300        93.24200        -7.22300                
> 2025 04 22 14 01 47.0000000  0 16
G03  24433509.87800 128398961.02900      1590.10500                
G09  24291189.00000 127651059.77100      -458.78800                
G14  20697226.82700 108764661.07500      -266.27300                
G15  24961027.71800 131171085.99100     -4067.20000                
G18  21901691.69100 115094166.66000      2550.76600                
G19  21651261.28400 113778145.98700     -2216.35100                
G22  23638375.78300 124220503.16100      2965.64000                
G23  20756575.09900 109076538.34900     -1216.87300                
G27  21259336.09900 111718565.23800      1862.88500                
G28  24197692.68200 127159733.30200     -3055.79700                
E01        18.89700        99.30400       -15.98200                
E02         9.55300        50.20300       -16.66900                
E03         8.39400        44.11100        16.04800                
E04        17.76200        93.33900        16.09800                
E05        18.63600        97.93300         7.68200                
E06        19.18600       100.82400        -7.85900                
> 2025 04 22 14 01 48.0000000  0 16
G03  24433207.36200 128397371.29600      1589.53900                
G09  24291276.56100 127651519.90700      -461.61600                
G14  20697277.55900 108764927.67600      -267.02600                
G15  24961801.42800 131175151.86200     -4064.52500                
G18  21901206.43400 115091616.61700      2549.19700                
G19  21651682.98300 113780362.03000     -2215.61500                
G22  23637811.40800 124217537.35100      2965.80300                
G23  20756806.73000 109077755.57800     -1217.52700                
G27  21258981.50800 111716701.85200      1863.94100                
G28  24198274.35600 127162790.01800     -3057.51700                
E01        21.86700       114.90900       -15.08600                
E02        12.77400        67.12800       -16.89000                
E03         5.68400        29.86700        11.55500                
E04        14.71000        77.30300        15.83900                
E05        17.24400        90.61700         6.89300                
E06        20.69400       108.74500        -7.85600                
> 2025 04 22 14 01 49.0000000  0 16
G03  24432904.85000 128395781.58600      1590.05400                
G09  24291364.73100 127651983.24200      -465.15800                
G14  20697328.49000 108765195.31800      -268.35400                
G15  24962574.61100 131179214.96900     -4061.70100                
G18  21900721.53800 115089068.47000      2546.99100                
G19  21652104.47300 113782576.97400     -2214.16900                
G22  23637247.09700 124214571.87600      2964.97100                
G23  20757038.45100 109078973.28200     -1217.82100                
G27  21258626.68700 111714837.25300      1865.29000                
G28  24198856.28000 127165848.05100     -3058.41800                
E01        24.58600       129.19900       -13.35800                
E02        15.89500        83.52900       -15.72800                
E03         4.45600        23.41600         0.31700                
E04        11.78300        61.92000        14.80400                
E05        16.02000        84.18400         5.99400                
E06        22.12300       116.25800        -7.02400                
> 2025 04 22 14 01 50.0000000  0 16
G03  24432602.14200 128394190.84600      1591.58400                
G09  24291453.62800 127652450.40100      -469.23300                
G14  20697379.72500 108765464.56300      -270.22000                
G15  24963347.25800 131183275.25300     -4058.90400                
G18  21900237.11300 115086522.79800      2544.27200                
G19  21652525.62800 113784790.16200     -2212.12400                
G22  23636683.03700 124211607.71700      2963.18300                
G23  20757270.19400 109080191.09900     -1217.75800                
G27  21258271.59100 111712971.21000      1866.81100                
G28  24199438.29400 127168906.55700     -3058.46300                
E01        26.90200       141.37200       -10.87100                
E02        18.70000        98.26800       -13.61700                
E03         5.42500        28.51100        -9.00800                
E04         9.12100        47.93100        13.05700                
E05        14.94100        78.51300         5.44000                
E06        23.31200       122.50800        -5.34000                
> 2025 04 22 14 01 51.0000000  0 16
G03  24432299.05600 128392598.11800      1594.00500                
G09  24291543.33500 127652921.81400      -473.62800                
G14  20697431.36200 108765735.91400      -272.55300                
G15  24964119.38800 131187332.82500     -4056.31000                
G18  21899753.24200 115083980.03800      2541.19400                
G19  21652946.34900 113787001.06500     -2209.62700                
G22  23636119.40000 124208645.78500      2960.54000                
G23  20757501.89300 109081408.68400     -1217.36400                
G27  21257916.19900 111711103.61400      1868.37300                
G28  24200020.23700 127171964.68500     -3057.67000                
E01        28.68300       150.73100        -7.75600                
E02        21.03400       110.53400       -10.82100                
E03         7.39200        38.84300       -10.86100                
E04         6.86300        36.06500        10.51700                
E05        13.90600        73.07800         5.55900                
E06        24.10800       126.68600        -2.90400                
> 2025 04 22 14 01 52.0000000  0 16
G03  24431995.43900 128391002.59800      1597.13300                
G09  24291633.89100 127653397.68500      -478.11000                
G14  20697483.47900 108766009.79100      -275.25300                
G15  24964891.05700 131191387.97300     -4054.08000                
G18  21899269.97600 115081440.46200      2537.93600                
G19  21653366.56600 113789209.31900     -2206.85700                
G22  23635556.33500 124205686.86200      2957.19300                
G23  20757733.48900 109082625.73000     -1216.68700                
G27  21257560.51700 111709234.49000      1869.84400                
G28  24200601.95400 127175021.62900     -3056.11000                
E01        29.82500       156.73300        -4.18900                
E02        22.79000       119.76000        -7.57800                
E03         9.38900        49.33800        -9.90300                
E04         5.20200        27.33800         6.63200                
E05        12.77600        67.13900         6.43800                
E06        24.38100       128.12500         0.10400                
> 2025 04 22 14 01 53.0000000  0 16
G03  24431691.17600 128389403.68800      1600.74300                
G09  24291725.28800 127653877.98300      -482.44100                
G14  20697536.13500 108766286.50000      -278.19700                
G15  24965662.34700 131195441.13200     -4052.35300                
G18  21898787.33300 115078904.15500      2534.68600                
G19  21653786.24500 113791414.74600     -2204.00700                
G22  23634993.96000 124202731.55700      2953.34000                
G23  20757964.93400 109083841.98400     -1215.79200                
G27  21257204.57300 111707363.99500      1871.09600                
G28  24201183.31000 127178076.67600     -3053.89900                
E01        30.26200       159.02700        -0.37600                
E02        23.90500       125.62200        -4.13300                
E03        11.11800        58.42600        -8.24100                
E04         4.47800        23.53200         0.65700                
E05        11.41800        60.00000         7.91400                
E06        24.04600       126.36200         3.46000                
> 2025 04 22 14 01 54.0000000  0 16
G03  24431386.20100 128387801.03300      1604.57900                
G09  24291817.47700 127654362.44000      -486.39200                
G14  20697589.36400 108766566.22000      -281.24700                
G15  24966433.36600 131199492.86100     -4051.23700                
G18  21898305.29300 115076371.01600      2531.63300                
G19  21654205.39000 113793617.36600     -2201.27500                
G22  23634432.34700 124199780.26500      2949.20700                
G23  20758196.19400 109085057.26500     -1214.75700                
G27  21256848.42100 111705492.40400      1872.01600                
G28  24201764.19600 127181129.25100     -3051.19600                
E01        29.96700       157.47700         3.45900                
E02        24.36600       128.04200        -0.73800                
E03        12.53300        65.86000        -6.68800                
E04         4.97500        26.14200        -5.63400                
E05         9.75000        51.23800         9.60100                
E06        23.05800       121.17200         6.91500                
> 2025 04 22 14 01 55.0000000  0 16
G03  24431080.49600 128386194.54100      1608.37200                
G09  24291910.36600 127654850.57100      -489.75800                
G14  20697643.17100 108766848.98200      -284.25900                
G15  24967204.23600 131203543.81300     -4050.80200                
G18  21897823.80100 115073840.75700      2528.95300                
G19  21654624.04100 113795817.39300     -2198.85300                
G22  23633871.52900 124196833.14300      2945.04000                
G23  20758427.25100 109086271.47800     -1213.66900                
G27  21256492.13400 111703620.10000      1872.51100                
G28  24202344.53500 127184178.95600     -3048.19000                
E01        28.95800       152.17600         7.09100                
E02        24.20500       127.19700         2.35700                
E03        13.69800        71.98300        -5.67200                
E04         6.48400        34.07600        -9.89500                
E05         7.79300        40.95400        10.79600                
E06        21.42400       112.58300        10.21700                
> 2025 04 22 14 01 56.0000000  0 16
G03  24430774.09400 128384584.39000      1611.85400                
G09  24292003.82500 127655341.70300      -492.36900                
G14  20697697.53800 108767134.67700      -287.09100                
G15  24967975.09100 131207594.68200     -4051.07700                
G18  21897342.77100 115071312.92700      2526.79800                
G19  21655042.27500 113798015.22600     -2196.91300                
G22  23633311.48700 124193890.10200      2941.08700                
G23  20758658.10400 109087484.61500     -1212.62000                
G27  21256135.79800 111701747.54300      1872.51300                
G28  24202924.29000 127187225.58700     -3045.08700                
E01        27.29400       143.43300        10.30900                
E02        23.50200       123.50600         4.92000                
E03        14.73900        77.45600        -5.40300                
E04         8.64500        45.42800       -12.63300                
E05         5.77500        30.34600         9.79000                
E06        19.19500       100.87200        13.11900                
> 2025 04 22 14 01 57.0000000  0 16
G03  24430467.08000 128382971.01700      1614.77800                
G09  24292097.69900 127655835.01500      -494.10300                
G14  20697752.41500 108767423.05900      -289.61000                
G15  24968746.06500 131211646.17600     -4052.04300                
G18  21896862.09100 115068786.93700      2525.28900                
G19  21655460.19700 113800211.42100     -2195.59800                
G22  23632752.15800 124190950.80800      2937.58100                
G23  20758888.76700 109088696.75800     -1211.69600                
G27  21255779.51200 111699875.24600      1871.98700                
G28  24203503.46200 127190269.15700     -3042.10200                
E01        25.07300       131.75700        12.93000                
E02        22.37800       117.59800         6.76100                
E03        15.80000        83.03000        -5.84600                
E04        11.23900        59.06400       -14.51900                
E05         4.49100        23.59900         2.15900                
E06        16.47100        86.55800        15.38200                
> 2025 04 22 14 01 58.0000000  0 16
G03  24430159.57900 128381355.08900      1616.93000                
G09  24292191.81400 127656329.59200      -494.89200                
G14  20697807.73300 108767713.75700      -291.70700                
G15  24969517.28400 131215698.95900     -4053.64300                
G18  21896381.63000 115066262.09800      2524.50600                
G19  21655877.93600 113802406.65900     -2195.01100                
G22  23632193.43700 124188014.71000      2934.72900                
G23  20759119.27300 109089908.07500     -1210.97900                
G27  21255423.37600 111698003.74200      1870.92900                
G28  24204082.09400 127193309.88800     -3039.44000                
E01        22.42000       117.82000        14.81400                
E02        20.98300       110.26400         7.76200                
E03        16.99100        89.29100        -6.71200                
E04        14.12600        74.23100       -15.69600                
E05         5.28500        27.77200        -9.92500                
E06        13.39700        70.40300        16.75400                
> 2025 04 22 14 01 59.0000000  0 16
G03  24429851.75500 128379737.46700      1618.14500                
G09  24292285.98800 127656824.48100      -494.72800                
G14  20697863.40200 108768006.30300      -293.29600                
G15  24970288.86000 131219753.61800     -4055.77600                
G18  21895901.24600 115063737.66400      2524.48300                
G19  21656295.63900 113804601.69900     -2195.21000                
G22  23631635.18300 124185081.06600      2932.69600                
G23  20759349.66700 109091118.80600     -1210.53700                
G27  21255067.49100 111696133.55100      1869.37000                
G28  24204660.26500 127196348.19700     -3037.28800                
E01        19.48700       102.40500        15.87400                
E02        19.47800       102.35800         7.91700                
E03        18.35300        96.44700        -7.55900                
E04        17.16500        90.20200       -16.11200                
E05         7.80800        41.03400       -15.55100                
E06        10.17500        53.46800        16.85600                
> 2025 04 22 14 02  0.0000000  0 16
G03  24429543.79900 128378119.14400      1618.31800                
G09  24292380.04400 127657318.74600      -493.66000                
G14  20697919.32200 108768300.16000      -294.32200                
G15  24971060.88200 131223810.62500     -4058.31200                
G18  21895420.79500 115061212.87500      2525.20700                
G19  21656713.45500 113806797.33900     -2196.20400                
G22  23631077.22800 124182148.99500      2931.59700                
G23  20759580.00800 109092329.25500     -1210.41900                
G27  21254711.94500 111694265.14500      1867.37000                
G28  24205238.08700 127199384.67400     -3035.80000                
E01        16.43300        86.35500        16.08500                
E02        18.01400        94.66200         7.38200                
E03        19.83900       104.25500        -7.95300                
E04        20.20500       106.17900       -15.69900                
E05        10.94500        57.51400       -16.98100                
E06         7.11900        37.41100        14.73600                
> 2025 04 22 14 02  1.0000000  0 16
G03  24429235.91300 128376501.19100      1617.40400                
G09  24292473.81800 127657811.53500      -491.79600                
G14  20697975.38100 108768594.75300      -294.76700                
G15  24971833.41300 131227870.30300     -4061.09200                
G18  21894940.13900 115058687.01100      2526.62100                
G19  21657131.53300 113808994.35500     -2197.95400                
G22  23630519.38900 124179217.53100      2931.48700                
G23  20759810.36000 109093539.76100     -1210.65700                
G27  21254356.81500 111692398.92500      1865.01700                
G28  24205815.69900 127202420.04400     -3035.08800                
E01        13.41700        70.50700        15.48100                
E02        16.69200        87.71500         6.48800                
E03        21.33200       112.10200        -7.60300                
E04        23.08600       121.31700       -14.43700                
E05        14.15400        74.38200       -16.52400                
E06         4.88700        25.68300         7.48900                
> 2025 04 22 14 02  2.0000000  0 16
G03  24428928.30200 128374884.68700      1615.43000                
G09  24292567.17400 127658302.12300      -489.29000                
G14  20698031.47000 108768889.50600      -294.64800                
G15  24972606.48300 131231932.81200     -4063.94500                
G18  21894459.15600 115056159.43000      2528.62100                
G19  21657550.01000 113811193.46300     -2200.37100                
G22  23629961.47700 124176285.68000      2932.36300                
G23  20760040.79100 109094750.68800     -1211.25800                
G27  21254002.15800 111690535.18800      1862.42100                
G28  24206393.25500 127205455.12000     -3035.21800                
E01        10.58800        55.64100        14.13200                
E02        15.53800        81.65400         5.68600                
E03        22.67800       119.17300        -6.39600                
E04        25.64800       134.78300       -12.36700                
E05        17.16100        90.18000       -14.91300                
E06         4.65200        24.44700        -4.84000                
> 2025 04 22 14 02  3.0000000  0 16
G03  24428621.16100 128373270.65000      1612.48800                
G09  24292660.00700 127658789.96500      -486.33800                
G14  20698087.48800 108769183.87800      -294.01800                
G15  24973380.08900 131235998.13600     -4066.69300                
G18  21893977.74700 115053629.61100      2531.07000                
G19  21657969.00000 113813395.27100     -2203.32800                
G22  23629403.30900 124173352.48800      2934.15700                
G23  20760271.37100 109095962.39200     -1212.20900                
G27  21253648.00800 111688674.11700      1859.70900                
G28  24206970.91700 127208490.75300     -3036.20200                
E01         8.08300        42.47800        12.06900                
E02        14.49400        76.16900         5.39700                
E03        23.71400       124.61900        -4.36800                
E04        27.74700       145.81400        -9.58900                
E05        19.77800       103.93300       -12.47500                
E06         6.23600        32.76900       -10.41200                
> 2025 04 22 14 02  4.0000000  0 16
G03  24428314.66100 128371659.98100      1608.72800                
G09  24292752.25400 127659274.72500      -483.16400                
G14  20698143.34300 108769477.39900      -292.96000                
G15  24974154.19400 131240066.08500     -4069.16700                
G18  21893495.84300 115051097.18700      2533.80100                
G19  21658388.59100 113815600.23900     -2206.66200                
G22  23628844.72100 124170417.09000      2936.74600                
G23  20760502.16200 109097175.20900     -1213.47300                
G27  21253294.37400 111686815.76100      1857.01100                
G28  24207548.84400 127211527.78400     -3038.00000                
E01         6.05400        31.81300         9.05300                
E02        13.43700        70.61000         5.85100                
E03        24.29700       127.68100        -1.65800                
E04        29.26200       153.77400        -6.25400                
E05        21.87200       114.93700        -9.45600                
E06         8.28100        43.51700       -10.61600                
> 2025 04 22 14 02  5.0000000  0 16
G03  24428008.93800 128370053.39800      1604.35200                
G09  24292843.89500 127659756.29800      -480.00500                
G14  20698198.96400 108769769.69200      -291.58500                
G15  24974928.73100 131244136.30600     -4071.21200                
G18  21893013.40700 115048561.96700      2536.63100                
G19  21658808.83800 113817808.65200     -2210.18600                
G22  23628285.57800 124167478.77600      2939.95800                
G23  20760733.22000 109098389.42300     -1214.99500                
G27  21252941.24300 111684960.04100      1854.46000                
G28  24208127.18500 127214566.98300     -3040.52000                
E01         4.74900        24.95700         4.28600                
E02        12.22200        64.22600         7.02200                
E03        24.31500       127.77500         1.53100                
E04        30.10400       158.19900        -2.55300                
E05        23.35500       122.73000        -6.09400                
E06        10.17900        53.48900        -9.20800                
> 2025 04 22 14 02  6.0000000  0 16
G03  24427704.08800 128368451.39800      1599.60200                
G09  24292934.95400 127660234.81900      -477.09800                
G14  20698254.30400 108770060.50600      -290.02300                
G15  24975703.60600 131248208.30400     -4072.70300                
G18  21892530.43800 115046023.94800      2539.37000                
G19  21659229.75900 113820020.60300     -2213.70400                
G22  23627725.78200 124164537.02600      2943.58000                
G23  20760964.58600 109099605.26000     -1216.70400                
G27  21252588.57300 111683106.74800      1852.17800                
G28  24208706.06300 127217609.00800     -3043.62600                
E01         4.54500        23.88300        -2.24500                
E02        10.73500        56.41100         8.65000                
E03        23.69900       124.53900         4.96100                
E04        30.22400       158.83000         1.29800                
E05        24.18500       127.09400        -2.63900                
E06        11.76900        61.84700        -7.52400                
> 2025 04 22 14 02  7.0000000  0 16
G03  24427400.15700 128366854.22700      1594.74100                
G09  24293025.50200 127660710.65200      -474.66300                
G14  20698309.34000 108770349.72200      -288.41600                
G15  24976478.70500 131252281.47500     -4073.54700                
G18  21892046.97100 115043483.31200      2541.83400                
G19  21659651.33200 113822235.98600     -2217.01800                
G22  23627165.27600 124161591.54700      2947.37500                
G23  20761196.28800 109100822.86300     -1218.51500                
G27  21252236.30300 111681255.55700      1850.27000                
G28  24209285.57400 127220654.36100     -3047.14600                
E01         5.53000        29.06000        -7.73600                
E02         8.93100        46.93300        10.24100                
E03        22.42700       117.85700         8.38100                
E04        29.61500       155.62900         5.07200                
E05        24.36900       128.06200         0.65600                
E06        13.06300        68.64700        -6.16400                
> 2025 04 22 14 02  8.0000000  0 16
G03  24427097.13900 128365261.86000      1590.03900                
G09  24293115.64700 127661184.36600      -472.89100                
G14  20698364.07800 108770637.37000      -286.90800                
G15  24977253.89800 131256355.14400     -4073.69300                
G18  21891563.07500 115040940.42000      2543.85500                
G19  21660073.50200 113824454.50300     -2219.94300                
G22  23626604.05100 124158642.29000      2951.09500                
G23  20761428.33800 109102042.29300     -1220.34000                
G27  21251884.35300 111679406.05100      1848.81900                
G28  24209865.77900 127223703.36000     -3050.88200                
E01         7.35800        38.66500       -11.21300                
E02         6.89900        36.25300        10.81000                
E03        20.52600       107.86500        11.53900                
E04        28.31300       148.78500         8.54900                
E05        23.96100       125.91800         3.54700                
E06        14.15700        74.39600        -5.46000                
> 2025 04 22 14 02  9.0000000  0 16
G03  24426794.98000 128363674.00600      1585.75800                
G09  24293205.53000 127661656.70600      -471.93300                
G14  20698418.54900 108770923.61900      -285.63900                
G15  24978029.05200 131260428.60300     -4073.13100                
G18  21891078.84700 115038395.78700      2545.29500                
G19  21660496.17800 113826675.68200     -2222.31800                
G22  23626042.14500 124155689.45200      2954.49800                
G23  20761660.72900 109103263.51600     -1222.08700                
G27  21251532.63200 111677557.74400      1847.87900                
G28  24210446.69900 127226756.11400     -3054.62200                
E01         9.72600        51.11100       -13.53800                
E02         5.04600        26.51500         7.62500                
E03        18.06800        94.94700        14.19300                
E04        26.39300       138.69700        11.52900                
E05        23.05900       121.17600         5.81700                
E06        15.19000        79.82400        -5.51900                
> 2025 04 22 14 02 10.0000000  0 16
G03  24426493.57800 128362090.12400      1582.13100                
G09  24293295.31700 127662128.53800      -471.88900                
G14  20698472.81100 108771208.77000      -284.73200                
G15  24978804.03400 131264501.16000     -4071.89700                
G18  21890594.41000 115035850.05100      2546.05000                
G19  21660919.24400 113828898.90800     -2224.01800                
G22  23625479.63900 124152733.46400      2957.35900                
G23  20761893.43800 109104486.41200     -1223.67200                
G27  21251181.03900 111675710.11000      1847.47300                
G28  24211028.31400 127229812.52200     -3058.15300                
E01        12.46400        65.49700       -15.11700                
E02         4.54200        23.87000        -3.47400                
E03        15.17100        79.72600        16.10400                
E04        23.96700       125.94900        13.84400                
E05        21.79700       114.54700         7.30200                
E06        16.29700        85.64100        -6.19300                
> 2025 04 22 14 02 11.0000000  0 16
G03  24426192.78700 128360509.45800      1579.35200                
G09  24293385.18600 127662600.80300      -472.80100                
G14  20698526.94400 108771493.23700      -284.28700                
G15  24979578.72200 131268572.17700     -4070.06800                
G18  21890109.89900 115033303.92800      2546.06000                
G19  21661342.56200 113831123.45800     -2224.95800                
G22  23624916.65600 124149774.96700      2959.48900                
G23  20762126.42700 109105710.77800     -1225.01700                
G27  21250829.47400 111673862.62000      1847.58800                
G28  24211610.56600 127232872.27300     -3061.27800                
E01        15.43400        81.10500       -15.97400                
E02         6.24700        32.82800       -13.15000                
E03        12.00400        63.07900        16.98800                
E04        21.17400       111.27000        15.37800                
E05        20.33500       106.85900         7.92900                
E06        17.56200        92.29100        -7.10800                
> 2025 04 22 14 02 12.0000000  0 16
G03  24425892.43300 128358931.08500      1577.56400                
G09  24293475.31900 127663074.45400      -474.65300                
G14  20698581.04200 108771777.52300      -284.37800                
G15  24980353.01600 131272641.11500     -4067.75900                
G18  21889625.45800 115030758.17600      2545.31100                
G19  21661765.98300 113833348.55000     -2225.10000                
G22  23624353.34800 124146814.76700      2960.74300                
G23  20762359.64500 109106936.34300     -1226.06200                
G27  21250477.83900 111672014.77000      1848.18300                
G28  24212193.35900 127235934.87200     -3063.82200                
E01        18.49300        97.17900       -16.03600                
E02         9.13500        48.00200       -16.49000                
E03         8.80300        46.26000        16.31400                
E04        18.16800        95.47400        16.07000                
E05        18.83100        98.95800         7.75500                
E06        18.98800        99.78400        -7.80500                
> 2025 04 22 14 02 13.0000000  0 16
G03  24425592.31800 128357353.97000      1576.84400                
G09  24293565.88800 127663550.39800      -477.37000                
G14  20698635.21100 108772062.18500      -285.04300                
G15  24981126.83500 131276707.56100     -4065.11300                
G18  21889141.23000 115028213.54100      2543.83400                
G19  21662189.35500 113835573.38900     -2224.45700                
G22  23623789.89300 124143853.79200      2961.03200                
G23  20762593.02900 109108162.78600     -1226.76500                
G27  21250126.05200 111670166.11500      1849.18300                
G28  24212776.56900 127238999.66500     -3065.64700                
E01        21.48300       112.89500       -15.25400                
E02        12.34600        64.88100       -16.95400                
E03         5.98800        31.46500        12.49300                
E04        15.11100        79.41100        15.92000                
E05        17.42000        91.54000         7.01400                
E06        20.49500       107.69900        -7.90200                
> 2025 04 22 14 02 14.0000000  0 16
G03  24425292.23600 128355777.03200      1577.20700                
G09  24293657.04600 127664029.43900      -480.82300                
G14  20698689.56200 108772347.80200      -286.28700                
G15  24981900.13100 131280771.26200     -4062.29500                
G18  21888657.34700 115025670.71600      2541.71000                
G19  21662612.53600 113837797.21700     -2223.09100                
G22  23623226.47800 124140893.02500      2960.32500                
G23  20762826.51200 109109389.75000     -1227.10400                
G27  21249774.04300 111668316.29600      1850.49100                
G28  24213360.05100 127242065.88300     -3066.66200                
E01        24.24500       127.40700       -13.63300                
E02        15.49500        81.42700       -15.94300                
E03         4.48600        23.57400         2.07400                
E04        12.15900        63.89700        14.98300                
E05        16.17200        84.98700         6.10300                
E06        21.94400       115.31400        -7.18400                
> 2025 04 22 14 02 15.0000000  0 16
G03  24424991.98700 128354199.21000      1578.59800                
G09  24293748.91900 127664512.23100      -484.83800                
G14  20698744.20300 108772634.94000      -288.07600                
G15  24982672.88900 131284832.13200     -4059.48200                
G18  21888173.92000 115023130.29100      2539.05500                
G19  21663035.39500 113840019.35900     -2221.10800                
G22  23622663.29000 124137933.45100      2958.65600                
G23  20763060.02600 109110616.87100     -1227.08200                
G27  21249421.76600 111666465.06500      1851.98900                
G28  24213943.64600 127245132.69100     -3066.82200                
E01        26.62300       139.90400       -11.24000                
E02        18.35200        96.43900       -13.94200                
E03         5.20600        27.36000        -8.30200                
E04         9.45400        49.68200        13.33000                
E05        15.07800        79.23800         5.47900                
E06        23.17400       121.78100        -5.61000                
> 2025 04 22 14 02 16.0000000  0 16
G03  24424691.38400 128352619.53000      1580.89900                
G09  24293841.59200 127664999.23300      -489.20600                
G14  20698799.23100 108772924.11400      -290.34500                
G15  24983445.12600 131288890.26500     -4056.84900                
G18  21887691.03700 115020592.72400      2536.02200                
G19  21663457.83000 113842239.26900     -2218.65200                
G22  23622100.50400 124134975.99300      2956.11500                
G23  20763293.50200 109111843.79900     -1226.72100                
G27  21249069.19500 111664612.29300      1853.54800                
G28  24214527.18900 127248199.23500     -3066.14000                
E01        28.48200       149.67200        -8.20000                
E02        20.75600       109.07100       -11.22300                
E03         7.11700        37.40200       -10.85300                
E04         7.13400        37.48700        10.91200                
E05        14.04600        73.81100         5.49800                
E06        24.03000       126.27700        -3.26500                
> 2025 04 22 14 02 17.0000000  0 16
G03  24424390.26900 128351037.16400      1583.93500                
G09  24293935.11200 127665490.68400      -493.69500                
G14  20698854.72900 108773215.75800      -292.99700                
G15  24984216.89200 131292945.92400     -4054.55900                
G18  21887208.75300 115018058.30700      2532.78500                
G19  21663879.76600 113844456.55800     -2215.89800                
G22  23621538.27400 124132021.45300      2952.84900                
G23  20763526.88100 109113070.21400     -1226.06800                
G27  21248716.33200 111662757.98800      1855.03600                
G28  24215110.52800 127251264.69900     -3064.67700                
E01        29.71300       156.14400        -4.68100                
E02        22.59300       118.72500        -8.02500                
E03         9.13600        48.01100       -10.09600                
E04         5.37800        28.26100         7.26100                
E05        12.93700        67.98300         6.28100                
E06        24.37900       128.11100        -0.32000                
> 2025 04 22 14 02 18.0000000  0 16
G03  24424088.52500 128349451.48400      1587.48700                
G09  24294029.47900 127665986.58400      -498.06700                
G14  20698910.75800 108773510.19600      -295.91300                
G15  24984988.26700 131296999.52400     -4052.75500                
G18  21886727.09000 115015527.15100      2529.53200                
G19  21664301.16500 113846671.02400     -2213.03900                
G22  23620976.71900 124129070.46300      2949.04900                
G23  20763760.11300 109114295.85600     -1225.18500                
G27  21248363.20400 111660902.28400      1856.32300                
G28  24215693.52200 127254328.35300     -3062.54500                
E01        30.24600       158.94300        -0.88800                
E02        23.79500       125.04300        -4.59200                
E03        10.90700        57.31700        -8.46800                
E04         4.50600        23.67800         1.54600                
E05        11.61500        61.03600         7.69500                
E06        24.12700       126.79100         3.00300                
> 2025 04 22 14 02 19.0000000  0 16
G03  24423786.07500 128347862.10000      1591.30200                
G09  24294124.64700 127666486.70000      -502.08900                
G14  20698967.35700 108773807.62500      -298.95600                
G15  24985759.35400 131301051.61300     -4051.55100                
G18  21886246.03300 115012999.17700      2526.45100                
G19  21664722.02500 113848882.66000     -2210.27300                
G22  23620415.92100 124126123.44700      2944.94000                
G23  20763993.16100 109115520.53100     -1224.15000                
G27  21248009.85800 111659045.44300      1857.29400                
G28  24216276.05800 127257389.60400     -3059.89700                
E01        30.04800       157.90300         2.95700                
E02        24.34100       127.91500        -1.17600                
E03        12.36200        64.96000        -6.87000                
E04         4.84100        25.44200        -4.90200                
E05         9.99000        52.49800         9.38500                
E06        23.22700       122.06000         6.46000                
> 2025 04 22 14 02 20.0000000  0 16
G03  24423482.89500 128346268.88000      1595.11100                
G09  24294220.53200 127666990.57500      -505.55200                
G14  20699024.53600 108774108.10200      -301.98200                
G15  24986530.27500 131305102.83100     -4051.02100                
G18  21885765.53100 115010474.12200      2523.72100                
G19  21665142.38400 113851091.65900     -2207.79400                
G22  23619855.91500 124123180.59400      2940.76500                
G23  20764226.00400 109116744.13100     -1223.05000                
G27  21247656.36700 111657187.83000      1857.85200                
G28  24216858.05600 127260448.02400     -3056.91800                
E01        29.13100       153.08700         6.62900                
E02        24.26000       127.48500         1.97200                
E03        13.55300        71.22400        -5.76600                
E04         6.24000        32.79300        -9.43900                
E05         8.06500        42.38200        10.70700                
E06        21.67700       113.91100         9.79600                
> 2025 04 22 14 02 21.0000000  0 16
G03  24423179.01200 128344671.96600      1598.64600                
G09  24294317.00700 127667497.55900      -508.28100                
G14  20699082.27800 108774411.53600      -304.84900                
G15  24987301.16200 131309153.87100     -4051.20000                
G18  21885285.50300 115007951.55800      2521.49600                
G19  21665562.31200 113853298.39700     -2205.77900                
G22  23619296.68900 124120241.84400      2936.77300                
G23  20764458.64000 109117966.63700     -1221.97600                
G27  21247302.81300 111655329.89600      1857.92700                
G28  24217439.47200 127263503.38500     -3053.81300                
E01        27.55000       144.77500         9.91300                
E02        23.62300       124.13900         4.61800                
E03        14.60300        76.73900        -5.39500                
E04         8.32900        43.77200       -12.32600                
E05         6.02700        31.67200        10.17600                
E06        19.52200       102.59000        12.76500                
> 2025 04 22 14 02 22.0000000  0 16
G03  24422874.50300 128343071.76000      1601.65600                
G09  24294413.92200 127668006.84800      -510.14600                
G14  20699140.53900 108774717.70100      -307.42200                
G15  24988072.15100 131313205.44300     -4052.07500                
G18  21884805.84000 115005430.91300      2519.90100                
G19  21665981.91300 113855503.41400     -2204.37300                
G22  23618738.18700 124117306.89700      2933.19900                
G23  20764691.08000 109119188.12000     -1221.01900                
G27  21246949.29600 111653472.14800      1857.47700                
G28  24218020.30300 127266555.66900     -3050.79700                
E01        25.39500       133.45300        12.62200                
E02        22.54700       118.48300         6.56400                
E03        15.65400        82.26000        -5.75400                
E04        10.87500        57.15000       -14.30900                
E05         4.56500        23.99000         3.70800                
E06        16.85700        88.58300        15.12700                
> 2025 04 22 14 02 23.0000000  0 16
G03  24422569.48900 128341468.89800      1603.92300                
G09  24294511.10300 127668517.53700      -511.07200                
G14  20699199.25300 108775026.24500      -309.58800                
G15  24988843.36800 131317258.21700     -4053.59400                
G18  21884326.41400 115002911.51000      2519.02100                
G19  21666401.31300 113857707.37800     -2203.68700                
G22  23618180.30900 124114375.22600      2930.25400                
G23  20764923.35600 109120408.73800     -1220.25900                
G27  21246595.91400 111651615.11600      1856.49600                
G28  24218600.58400 127269605.06700     -3048.07700                
E01        22.79200       119.77300        14.61000                
E02        21.17800       111.28900         7.67900                
E03        16.82300        88.40800        -6.58800                
E04        13.73100        72.15500       -15.58200                
E05         5.05000        26.53900        -8.63100                
E06        13.81900        72.62000        16.63400                
> 2025 04 22 14 02 24.0000000  0 16
G03  24422264.12800 128339864.21600      1605.27400                
G09  24294608.36900 127669028.67200      -511.03900                
G14  20699258.33300 108775336.71200      -311.25700                
G15  24989614.92800 131321312.79300     -4055.66200                
G18  21883847.08300 115000392.61000      2518.89700                
G19  21666820.65700 113859911.04400     -2203.78400                
G22  23617622.91700 124111446.11100      2928.10900                
G23  20765155.51200 109121628.72700     -1219.76900                
G27  21246242.76800 111649759.32200      1855.00700                
G28  24219180.39100 127272651.97200     -3045.84200                
E01        19.88700       104.50600        15.78300                
E02        19.67800       103.41100         7.94200                
E03        18.16400        95.45000        -7.46400                
E04        16.75800        88.06400       -16.10300                
E05         7.42100        38.99700       -15.12900                
E06        10.60200        55.71200        16.93900                
> 2025 04 22 14 02 25.0000000  0 16
G03  24421958.60700 128338258.69200      1605.59300                
G09  24294705.54000 127669539.31000      -510.09200                
G14  20699317.67800 108775648.57200      -312.36900                
G15  24990386.92400 131325369.66000     -4058.15100                
G18  21883367.70400 114997873.45700      2519.52300                
G19  21667240.09500 113862115.20600     -2204.67900                
G22  23617065.84700 124108518.68800      2926.88600                
G23  20765387.60500 109122848.38300     -1219.60100                
G27  21245889.95000 111647905.24800      1853.06700                
G28  24219759.83100 127275696.95400     -3044.25100                
E01        16.83900        88.49100        16.10600                
E02        18.20100        95.64900         7.48300                
E03        19.63800       103.20000        -7.93900                
E04        19.80700       104.08800       -15.80300                
E05        10.51600        55.26300       -16.92600                
E06         7.49700        39.39900        15.21900                
> 2025 04 22 14 02 26.0000000  0 16
G03  24421653.12800 128336653.38900      1604.82900                
G09  24294802.45100 127670048.58200      -508.32800                
G14  20699377.17900 108775961.25500      -312.90000                
G15  24991159.42200 131329429.16300     -4060.90700                
G18  21882888.13900 114995353.32300      2520.84600                
G19  21667659.77800 113864320.65200     -2206.34000                
G22  23616508.91600 124105591.99900      2926.64800                
G23  20765619.69900 109124068.04600     -1219.78900                
G27  21245537.53700 111646053.30500      1850.76100                
G28  24220339.04100 127278740.71900     -3043.42500                
E01        13.81000        72.57000        15.60500                
E02        16.85700        88.58400         6.61200                
E03        21.13900       111.08700        -7.69800                
E04        22.71800       119.38600       -14.65300                
E05        13.73500        72.17900       -16.66000                
E06         5.09500        26.77200         8.90100                
> 2025 04 22 14 02 27.0000000  0 16
G03  24421347.89700 128335049.38800      1602.99800                
G09  24294898.96000 127670555.74200      -505.89600                
G14  20699436.72700 108776274.18200      -312.86300                
G15  24991932.45600 131333491.48600     -4063.75900                
G18  21882408.26200 114992831.55700      2522.76900                
G19  21668079.84200 113866528.10800     -2208.68400                
G22  23615951.93600 124102665.05000      2927.39900                
G23  20765851.86400 109125288.08000     -1220.34300                
G27  21245185.58900 111644203.80800      1848.19500                
G28  24220918.17100 127281784.07200     -3043.43500                
E01        10.94800        57.53200        14.35100                
E02        15.68300        82.41500         5.77100                
E03        22.51400       118.31000        -6.60500                
E04        25.33200       133.12000       -12.68500                
E05        16.78100        88.18300       -15.18000                
E06         4.54700        23.89700        -3.41100                
> 2025 04 22 14 02 28.0000000  0 16
G03  24421043.10900 128333447.71800      1600.18300                
G09  24294994.95800 127671060.21600      -502.98900                
G14  20699496.21800 108776586.80600      -312.30400                
G15  24992706.02800 131337556.63300     -4066.52900                
G18  21881927.97400 114990307.62200      2525.15800                
G19  21668500.40900 113868738.20000     -2211.58600                
G22  23615394.72400 124099736.87900      2929.08000                
G23  20766084.16900 109126508.85000     -1221.25400                
G27  21244834.14500 111642356.95600      1845.49400                
G28  24221497.38600 127284827.86300     -3044.30000                
E01         8.39200        44.10200        12.38800                
E02        14.63100        76.88500         5.39500                
E03        23.60000       124.01800        -4.68000                
E04        27.50000       144.51400        -9.99300                
E05        19.45800       102.25300       -12.83700                
E06         5.97600        31.40600       -10.10800                
> 2025 04 22 14 02 29.0000000  0 16
G03  24420738.94000 128331849.29900      1596.52700                
G09  24295090.37500 127671561.63400      -499.82600                
G14  20699555.55800 108776898.64300      -311.30400                
G15  24993480.10600 131341624.43900     -4069.04700                
G18  21881447.19800 114987781.13100      2527.85200                
G19  21668921.56800 113870951.40800     -2214.88800                
G22  23614837.11200 124096806.60800      2931.57400                
G23  20766316.67800 109127730.69400     -1222.48600                
G27  21244483.21700 111640512.81900      1842.78700                
G28  24222076.84300 127287872.93500     -3045.98800                
E01         6.28900        33.04700         9.53200                
E02        13.58300        71.37900         5.74600                
E03        24.25000       127.43400        -2.05000                
E04        29.09800       152.91300        -6.72200                
E05        21.62700       113.65300        -9.88100                
E06         8.01100        42.10000       -10.72800                
> 2025 04 22 14 02 30.0000000  0 16
G03  24420435.53200 128330254.87700      1592.22500                
G09  24295185.18500 127672059.86100      -496.64400                
G14  20699614.67500 108777209.30300      -309.96900                
G15  24994254.62600 131345694.56900     -4071.15500                
G18  21880965.89600 114985251.87000      2530.66800                
G19  21669343.38000 113873168.04200     -2218.40700                
G22  23614278.96100 124093873.50300      2934.71500                
G23  20766549.44800 109128953.91100     -1223.98800                
G27  21244132.79500 111638671.33500      1840.20800                
G28  24222656.69400 127290920.07200     -3048.41300                
E01         4.86700        25.57700         5.05100                
E02        12.39700        65.14500         6.83300                
E03        24.34800       127.94900         1.08800                
E04        30.03300       157.82700        -3.05800                
E05        23.19500       121.89000        -6.55100                
E06         9.94300        52.25200        -9.42800                
> 2025 04 22 14 02 31.0000000  0 16
G03  24420132.98500 128328664.98300      1587.51300                
G09  24295279.40500 127672554.99500      -493.68000                
G14  20699673.51500 108777518.51100      -308.42600                
G15  24995029.49800 131349766.54800     -4072.72400                
G18  21880484.06100 114982719.80900      2533.41800                
G19  21669765.86600 113875388.22100     -2221.94300                
G22  23613720.16700 124090937.02000      2938.29400                
G23  20766782.52400 109130178.73300     -1225.68700                
G27  21243782.84000 111636832.31300      1837.88100                
G28  24223237.06700 127293969.95200     -3051.44500                
E01         4.49900        23.64300        -1.37000                
E02        10.95000        57.54400         8.42300                
E03        23.81800       125.16700         4.50100                
E04        30.25100       158.96800         0.78600                
E05        24.11300       126.71300        -3.09400                
E06        11.57600        60.83400        -7.73800                
> 2025 04 22 14 02 32.0000000  0 16
G03  24419831.35300 128327079.89800      1582.65300                
G09  24295373.10100 127673047.36900      -491.16000                
G14  20699732.05400 108777826.13200      -306.81700                
G15  24995804.60900 131353839.78300     -4073.65600                
G18  21880001.72400 114980185.11000      2535.91600                
G19  21670189.01100 113877611.86300     -2225.30000                
G22  23613160.66800 124087996.83500      2942.07800                
G23  20767015.93600 109131405.32100     -1227.50100                
G27  21243433.29700 111634995.44800      1835.91300                
G28  24223818.06200 127297023.09800     -3054.91800                
E01         5.34200        28.07200        -7.13800                
E02         9.18800        48.28100        10.05900                
E03        22.63300       118.94000         7.93600                
E04        29.73700       156.27000         4.58400                
E05        24.38100       128.12100         0.23600                
E06        12.90600        67.81900        -6.31200                
> 2025 04 22 14 02 33.0000000  0 16
G03  24419530.63900 128325499.63400      1577.91400                
G09  24295466.37500 127673537.52800      -489.27900                
G14  20699790.29100 108778132.17100      -305.28600                
G15  24996579.83100 131357913.60700     -4073.89300                
G18  21879518.94800 114977648.10900      2537.99500                
G19  21670612.76200 113879838.69200     -2228.29000                
G22  23612600.45000 124085052.86800      2945.81900                
G23  20767249.69700 109132633.74300     -1229.34100                
G27  21243084.08600 111633160.33300      1834.39100                
G28  24224399.74300 127300079.85600     -3058.63300                
E01         7.07900        37.20200       -10.83400                
E02         7.17300        37.69200        10.85900                
E03        20.81200       109.37000        11.14300                
E04        28.52300       149.89100         8.11200                
E05        24.04600       126.36500         3.19400                
E06        14.01900        73.66800        -5.50900                
> 2025 04 22 14 02 34.0000000  0 16
G03  24419230.79400 128323923.93800      1573.56000                
G09  24295559.36500 127674026.19300      -488.19500                
G14  20699848.25600 108778436.77700      -303.97300                
G15  24997355.03200 131361987.31200     -4073.42100                
G18  21879035.82900 114975109.30100      2539.50900                
G19  21671037.03500 113882068.25800     -2230.74700                
G22  23612039.54300 124082105.28300      2949.27200                
G23  20767483.80300 109133863.97900     -1231.11500                
G27  21242735.11800 111631326.49200      1833.37400                
G28  24224982.13900 127303140.36500     -3062.38300                
E01         9.38700        49.33100       -13.27600                
E02         5.24900        27.58400         8.45600                
E03        18.42200        96.81000        13.87800                
E04        26.68000       140.20300        11.16800                
E05        23.20300       121.93100         5.55800                
E06        15.05100        79.09500        -5.47000                
> 2025 04 22 14 02 35.0000000  0 16
G03  24418931.72200 128322352.30300      1569.82900                
G09  24295652.23300 127674514.21900      -488.01400                
G14  20699906.00100 108778740.23300      -303.00500                
G15  24998130.07700 131366060.20100     -4072.27000                
G18  21878552.48400 114972569.30700      2540.35300                
G19  21671461.71300 113884299.95800     -2232.54100                
G22  23611478.02400 124079154.48400      2952.21200                
G23  20767718.23400 109135095.91900     -1232.73500                
G27  21242386.29300 111629493.40500      1832.88700                
G28  24225565.23400 127306204.55000     -3065.95300                
E01        12.08400        63.50100       -14.94800                
E02         4.47700        23.52500        -1.72100                
E03        15.57600        81.85100        15.90200                
E04        24.31400       127.77000        13.58000                
E05        21.98000       115.50600         7.15400                
E06        16.14200        84.82700        -6.08000                
> 2025 04 22 14 02 36.0000000  0 16
G03  24418633.28400 128320784.00200      1566.92200                
G09  24295745.15800 127675002.54000      -488.78900                
G14  20699963.60400 108779042.93700      -302.48600                
G15  24998904.84300 131370131.62700     -4070.51100                
G18  21878069.04900 114970028.83400      2540.45800                
G19  21671886.66200 113886533.08100     -2233.58100                
G22  23610916.01100 124076201.08500      2954.44200                
G23  20767952.95100 109136329.36900     -1234.12300                
G27  21242037.51000 111627660.53900      1832.92500                
G28  24226148.97500 127309272.13100     -3069.14200                
E01        15.03100        78.98900       -15.90400                
E02         5.92500        31.13700       -12.31500                
E03        12.43200        65.33200        16.94400                
E04        21.56000       113.30100        15.22300                
E05        20.53500       107.91000         7.89500                
E06        17.38400        91.35500        -6.98900                
> 2025 04 22 14 02 37.0000000  0 16
G03  24418335.30900 128319218.13000      1564.98800                
G09  24295838.32000 127675492.11300      -490.51100                
G14  20700021.15700 108779345.38000      -302.49300                
G15  24999679.22600 131374201.03500     -4068.25500                
G18  21877585.66500 114967488.63500      2539.80600                
G19  21672311.73400 113888766.84800     -2233.82400                
G22  23610353.65400 124073245.87600      2955.81300                
G23  20768187.90600 109137564.06400     -1235.21500                
G27  21241688.67300 111625827.38800      1833.45000                
G28  24226733.27300 127312342.63600     -3071.77300                
E01        18.08700        95.04800       -16.07600                
E02         8.72100        45.82800       -16.26500                
E03         9.21800        48.44000        16.53000                
E04        18.57400        97.60500        16.02700                
E05        19.02800        99.99100         7.81800                
E06        18.79200        98.75200        -7.74100                
> 2025 04 22 14 02 38.0000000  0 16
G03  24418037.60100 128317653.66800      1564.11500                
G09  24295931.89600 127675983.85600      -493.11300                
G14  20700078.76500 108779648.11400      -303.07200                
G15  25000453.14300 131378267.99600     -4065.64100                
G18  21877102.47500 114964949.45800      2538.42300                
G19  21672736.77600 113891000.45800     -2233.27600                
G22  23609791.12500 124070289.76900      2956.22600                
G23  20768423.03700 109138799.68300     -1235.96600                
G27  21241339.69500 111623993.49700      1834.39200                
G28  24227318.00600 127315415.43000     -3073.70100                
E01        21.09600       110.86000       -15.40700                
E02        11.91800        62.62800       -16.99300                
E03         6.31400        33.17800        13.30300                
E04        15.51400        81.52800        15.98700                
E05        17.59800        92.47900         7.13200                
E06        20.29400       106.64800        -7.93300                
> 2025 04 22 14 02 39.0000000  0 16
G03  24417739.95700 128316089.53600      1564.32500                
G09  24296026.04100 127676478.59200      -496.47400                
G14  20700136.53900 108779951.71800      -304.23000                
G15  25001226.54100 131382332.23300     -4062.83400                
G18  21876619.61300 114962412.00100      2536.38100                
G19  21673161.64200 113893233.14700     -2231.99200                
G22  23609228.61200 124067333.74400      2955.64600                
G23  20768658.27600 109140035.87200     -1236.35200                
G27  21240990.50500 111622158.49300      1835.65700                
G28  24227903.03100 127318489.75900     -3074.82900                
E01        23.89700       125.58000       -13.89500                
E02        15.09000        79.29700       -16.14200                
E03         4.56100        23.96600         3.82100                
E04        12.54000        65.89700        15.15000                
E05        16.32800        85.80500         6.21700                
E06        21.76000       114.35100        -7.33000                
> 2025 04 22 14 02 40.0000000  0 16
G03  24417442.17200 128314524.66800      1565.57400                
G09  24296120.88500 127676977.00100      -500.42500                
G14  20700194.58700 108780256.75900      -305.94100                
G15  25001999.40100 131386393.63600     -4060.00700                
G18  21876137.19400 114959876.87000      2533.79400                
G19  21673586.20200 113895464.22400     -2230.07300                
G22  23608666.30300 124064378.79000      2954.09500                
G23  20768893.55300 109141272.26400     -1236.37200                
G27  21240641.05300 111620322.11000      1837.13000                
G28  24228488.19100 127321564.79200     -3075.10500                
E01        26.33400       138.38800       -11.59900                
E02        17.99600        94.56800       -14.25400                
E03         5.00700        26.31300        -7.43900                
E04         9.79400        51.46900        13.59000                
E05        15.21700        79.96800         5.53100                
E06        23.02900       121.01900        -5.86600                
> 2025 04 22 14 02 41.0000000  0 16
G03  24417144.06000 128312958.07500      1567.75200                
G09  24296216.52100 127677479.57100      -504.76100                
G14  20700253.00800 108780563.76400      -308.14300                
G15  25002771.73500 131390452.27700     -4057.33700                
G18  21875655.30700 114957344.53900      2530.80800                
G19  21674010.34800 113897693.12300     -2227.66100                
G22  23608104.37500 124061425.83900      2951.65900                
G23  20769128.80100 109142508.49900     -1236.04600                
G27  21240291.31100 111618484.20200      1838.68300                
G28  24229073.32200 127324639.67500     -3074.53400                
E01        28.26900       148.55400        -8.63500                
E02        20.46700       107.55500       -11.61600                
E03         6.84400        35.96400       -10.79300                
E04         7.41400        38.96100        11.28700                
E05        14.18400        74.53800         5.45200                
E06        23.94300       125.82000        -3.61500                
> 2025 04 22 14 02 42.0000000  0 16
G03  24416845.45700 128311388.90600      1570.69300                
G09  24296313.00100 127677986.57500      -509.25200                
G14  20700311.88700 108780873.17900      -310.74500                
G15  25003543.58800 131394508.39700     -4054.99000                
G18  21875174.01300 114954815.32200      2527.59600                
G19  21674434.00000 113899919.43300     -2224.92700                
G22  23607542.98500 124058475.71000      2948.47700                
G23  20769363.95700 109143744.25200     -1235.41700                
G27  21239941.27600 111616644.75700      1840.18400                
G28  24229658.26700 127327713.58300     -3073.17000                
E01        29.58900       155.49000        -5.16900                
E02        22.38400       117.63000        -8.46900                
E03         8.87900        46.65800       -10.27600                
E04         5.56900        29.26400         7.85100                
E05        13.09400        68.80700         6.13600                
E06        24.36500       128.04000        -0.73800                
> 2025 04 22 14 02 43.0000000  0 16
G03  24416546.23800 128309816.50200      1574.18200                
G09  24296410.33100 127678498.04700      -513.65900                
G14  20700371.29100 108781185.34800      -313.62900                
G15  25004315.03800 131398562.39200     -4053.11200                
G18  21874693.33800 114952289.35300      2524.34300                
G19  21674857.11700 113902142.92700     -2222.06100                
G22  23606982.25600 124055529.06000      2944.73500                
G23  20769598.96900 109144979.25100     -1234.54800                
G27  21239590.97100 111614803.89100      1841.50300                
G28  24230242.88500 127330785.77400     -3071.12000                
E01        30.21700       158.79100        -1.40000                
E02        23.67300       124.40300        -5.05300                
E03        10.69000        56.17800        -8.69600                
E04         4.55600        23.94200         2.41800                
E05        11.80600        62.04300         7.48200                
E06        24.19800       127.15900         2.54900                
> 2025 04 22 14 02 44.0000000  0 16
G03  24416246.32300 128308240.43900      1577.97000                
G09  24296508.47300 127679013.78700      -517.74900                
G14  20700431.26000 108781500.48800      -316.66200                
G15  25005086.18500 131402614.79600     -4051.82100                
G18  21874213.27000 114949766.57900      2521.23700                
G19  21675279.69200 113904363.57300     -2219.26500                
G22  23606422.27500 124052586.34200      2940.65400                
G23  20769833.79900 109146213.29200     -1233.51500                
G27  21239240.44200 111612961.84700      1842.52300                
G28  24230827.06000 127333855.63100     -3068.53000                
E01        30.11600       158.26200         2.45200                
E02        24.30600       127.73000        -1.62000                
E03        12.18600        64.03600        -7.06100                
E04         4.72700        24.84200        -4.12900                
E05        10.22400        53.73000         9.16300                
E06        23.38500       122.88700         6.00300                
> 2025 04 22 14 02 45.0000000  0 16
G03  24415945.68000 128306660.54900      1581.79000                
G09  24296607.34600 127679533.36700      -521.30600                
G14  20700491.80900 108781818.67400      -319.70000                
G15  25005857.14800 131406666.23600     -4051.19700                
G18  21873733.76400 114947246.76100      2518.45900                
G19  21675701.75700 113906581.53800     -2216.73200                
G22  23605863.08400 124049647.77400      2936.47500                
G23  20770068.42400 109147446.25300     -1232.40400                
G27  21238889.75500 111611118.97500      1843.14300                
G28  24231410.70400 127336922.70300     -3065.58300                
E01        29.29300       153.93500         6.15900                
E02        24.30400       127.72100         1.57800                
E03        13.40600        70.45200        -5.87300                
E04         6.00800        31.57200        -8.95500                
E05         8.33400        43.79500        10.59000                
E06        21.91900       115.18300         9.36900                
> 2025 04 22 14 02 46.0000000  0 16
G03  24415644.32900 128305076.93500      1585.37300                
G09  24296706.83000 127680056.16100      -524.15100                
G14  20700552.92500 108782139.84100      -322.59900                
G15  25006628.06000 131410717.40400     -4051.27900                
G18  21873254.74400 114944729.49100      2516.16600                
G19  21676123.37900 113908797.17900     -2214.64300                
G22  23605304.67800 124046713.33000      2932.44700                
G23  20770302.83700 109148678.10300     -1231.30800                
G27  21238538.99400 111609275.71500      1843.28900                
G28  24231993.77000 127339986.73300     -3062.48000                
E01        27.79500       146.06400         9.50600                
E02        23.73600       124.73100         4.30300                
E03        14.46700        76.02300        -5.39900                
E04         8.02200        42.15700       -12.00400                
E05         6.28800        33.04300        10.46100                
E06        19.84000       104.26000        12.40100                
> 2025 04 22 14 02 47.0000000  0 16
G03  24415342.33800 128303489.96300      1588.46600                
G09  24296806.77700 127680581.38400      -526.14600                
G14  20700614.56900 108782463.78000      -325.22400                
G15  25007399.05400 131414769.00600     -4052.06200                
G18  21872776.10300 114942214.21600      2514.48700                
G19  21676544.65900 113911011.01700     -2213.14900                
G22  23604747.00500 124043782.73900      2928.80900                
G23  20770537.05100 109149908.90200     -1230.31700                
G27  21238188.25500 111607432.56600      1842.91600                
G28  24232576.24700 127343047.67200     -3059.43700                
E01        25.71000       135.10800        12.30100                
E02        22.71000       119.34000         6.35100                
E03        15.50900        81.50200        -5.67100                
E04        10.51700        55.26500       -14.08700                
E05         4.67700        24.57700         5.10500                
E06        17.23600        90.57300        14.85700                
> 2025 04 22 14 02 48.0000000  0 16
G03  24415039.82400 128301900.23900      1590.84300                
G09  24296907.01500 127681108.14000      -527.20700                
G14  20700676.67600 108782790.15700      -327.45600                
G15  25008170.26100 131418821.72500     -4053.49800                
G18  21872297.71500 114939700.27400      2513.51300                
G19  21676965.72000 113913223.70700     -2212.36400                
G22  23604189.97000 124040855.50100      2925.77400                
G23  20770771.09200 109151138.80000     -1229.51700                
G27  21237837.63700 111605590.05600      1842.01100                
G28  24233158.16700 127346105.68400     -3056.66100                
E01        23.15800       121.69800        14.39100                
E02        21.37000       112.30200         7.58100                
E03        16.65900        87.54200        -6.46500                
E04        13.33900        70.09500       -15.45500                
E05         4.85000        25.48700        -7.19000                
E06        14.23800        74.81900        16.49400                
> 2025 04 22 14 02 49.0000000  0 16
G03  24414736.93900 128300308.57200      1592.32600                
G09  24297007.36400 127681635.47700      -527.30800                
G14  20700739.16400 108783118.53000      -329.20300                
G15  25008941.79600 131422876.17100     -4055.49800                
G18  21871819.44200 114937186.93200      2513.28900                
G19  21677386.70500 113915435.99800     -2212.35800                
G22  23603633.44100 124037930.92000      2923.51900                
G23  20771005.00600 109152368.02200     -1228.97900                
G27  21237487.24000 111603748.71100      1840.59300                
G28  24233739.60000 127349161.13700     -3054.34700                
E01        20.28400       106.59400        15.67600                
E02        19.87900       104.46600         7.95300                
E03        17.97600        94.46600        -7.36200                
E04        16.35200        85.92800       -16.08000                
E05         7.04500        37.02100       -14.63000                
E06        11.03000        57.96400        16.98700                
> 2025 04 22 14 02 50.0000000  0 16
G03  24414433.86800 128298715.92400      1592.79100                
G09  24297107.64300 127682162.44700      -526.48300                
G14  20700801.93200 108783448.37900      -330.40000                
G15  25009713.75600 131426932.84800     -4057.93800                
G18  21871341.14000 114934673.43700      2513.81600                
G19  21677807.76500 113917648.68500     -2213.15400                
G22  23603077.25600 124035008.14800      2922.17300                
G23  20771238.84600 109153596.86200     -1228.76000                
G27  21237137.15900 111601909.01900      1838.71600                
G28  24234320.65000 127352214.57500     -3052.65700                
E01        17.24600        90.63000        16.11100                
E02        18.39200        96.64800         7.57600                
E03        19.43800       102.14800        -7.91200                
E04        19.40700       101.98400       -15.89200                
E05        10.09000        53.02200       -16.83700                
E06         7.88700        41.44700        15.62600                
> 2025 04 22 14 02 51.0000000  0 16
G03  24414130.81100 128297123.34700      1592.17700                
G09  24297207.68400 127682688.16400      -524.82300                
G14  20700864.87300 108783779.13700      -331.01900                
G15  25010486.21100 131430992.12300     -4060.66700                
G18  21870862.67000 114932159.05800      2515.04600                
G19  21678229.05100 113919862.55800     -2214.72400                
G22  23602521.23500 124032086.23500      2921.80800                
G23  20771472.67800 109154825.65900     -1228.89700                
G27  21236787.47200 111600071.40200      1836.45800                
G28  24234901.44900 127355266.69000     -3051.71800                
E01        14.20500        74.64900        15.71700                
E02        17.02600        89.47000         6.73600                
E03        20.94400       110.05900        -7.77700                
E04        22.34600       117.42700       -14.85400                
E05        13.31300        69.96000       -16.77600                
E06         5.33600        28.03900        10.16500                
> 2025 04 22 14 02 52.0000000  0 16
G03  24413827.97300 128295531.92400      1590.49100                
G09  24297307.34000 127683211.86100      -522.47000                
G14  20700927.87700 108784110.22500      -331.06400                
G15  25011259.19800 131435054.20000     -4063.51500                
G18  21870383.90500 114929643.13200      2516.89000                
G19  21678650.70400 113922078.35900     -2216.99100                
G22  23601965.18800 124029164.19100      2922.43300                
G23  20771706.57200 109156054.77800     -1229.40400                
G27  21236438.24200 111598236.19000      1833.92500                
G28  24235482.14600 127358318.27600     -3051.60800                
E01        11.31300        59.45100        14.55900                
E02        15.83000        83.18700         5.86400                
E03        22.34400       117.42000        -6.80000                
E04        25.00800       131.41500       -12.99100                
E05        16.39400        86.15100       -15.43200                
E06         4.48100        23.54800        -1.83400                
> 2025 04 22 14 02 53.0000000  0 16
G03  24413525.55300 128293942.69500      1587.80600                
G09  24297406.49700 127683732.93500      -519.61100                
G14  20700990.83800 108784441.08900      -330.57900                
G15  25012032.72500 131439119.11100     -4066.30400                
G18  21869904.74100 114927125.10800      2519.21700                
G19  21679072.84500 113924296.72700     -2219.83600                
G22  23601408.93200 124026241.04400      2923.99900                
G23  20771940.59700 109157284.58700     -1230.27300                
G27  21236089.51200 111596403.59900      1831.23700                
G28  24236062.90400 127361370.18000     -3052.35300                
E01         8.70900        45.76600        12.69200                
E02        14.76700        77.60200         5.40600                
E03        23.47800       123.37700        -4.98000                
E04        27.24300       143.16100       -10.38700                
E05        19.12900       100.52500       -13.18900                
E06         5.72600        30.09000        -9.70000                
> 2025 04 22 14 02 54.0000000  0 16
G03  24413223.72900 128292356.59700      1584.25700                
G09  24297505.07900 127684250.98700      -516.46400                
G14  20701053.66200 108784771.23200      -329.63900                
G15  25012806.76400 131443186.71200     -4068.86300                
G18  21869425.10000 114924604.58000      2521.87100                
G19  21679495.57100 113926518.16600     -2223.10400                
G22  23600852.29600 124023315.90400      2926.39500                
G23  20772174.81900 109158515.43300     -1231.47200                
G27  21235741.29700 111594573.71900      1828.52500                
G28  24236643.88400 127364423.24900     -3053.92900                
E01         6.53500        34.34200         9.98200                
E02        13.72700        72.13600         5.65500                
E03        24.19300       127.13700        -2.43300                
E04        28.92300       151.99000        -7.18300                
E05        21.37300       112.31300       -10.30100                
E06         7.73900        40.67000       -10.81000                
> 2025 04 22 14 02 55.0000000  0 16
G03  24412922.64700 128290774.40400      1580.03300                
G09  24297603.05300 127684765.84500      -513.26300                
G14  20701116.27200 108785100.24900      -328.34600                
G15  25013581.25400 131447256.68700     -4071.03200                
G18  21868944.93800 114922081.31000      2524.67000                
G19  21679918.94400 113928743.00900     -2226.61200                
G22  23600295.13800 124020388.01800      2929.46200                
G23  20772409.29700 109159747.62300     -1232.95100                
G27  21235393.59100 111592746.50800      1825.92200                
G28  24237225.23700 127367478.27800     -3056.25700                
E01         5.00400        26.29600         5.77500                
E02        12.56700        66.04000         6.65200                
E03        24.37000       128.06400         0.65000                
E04        29.95000       157.38700        -3.55900                
E05        23.02400       120.99100        -7.00600                
E06         9.70200        50.98600        -9.64300                
> 2025 04 22 14 02 56.0000000  0 16
G03  24412622.41600 128289196.67600      1575.36500                
G09  24297700.43200 127685277.57500      -510.24800                
G14  20701178.61200 108785427.84800      -326.82600                
G15  25014356.11000 131451328.58000     -4072.67700                
G18  21868464.24400 114919555.24600      2527.42800                
G19  21680342.99300 113930971.39900     -2230.16500                
G22  23599737.34800 124017456.81400      2932.99500                
G23  20772644.07700 109160981.40300     -1234.63900                
G27  21235046.35900 111590921.79400      1823.55200                
G28  24237807.09400 127370535.96000     -3059.21300                
E01         4.47600        23.52000        -0.47900                
E02        11.16000        58.64700         8.19600                
E03        23.92600       125.73400         4.04100                
E04        30.26400       159.03900         0.27300                
E05        24.02900       126.27200        -3.55100                
E06        11.37800        59.79300        -7.95800                
> 2025 04 22 14 02 57.0000000  0 16
G03  24412323.09500 128287623.73300      1570.51000                
G09  24297797.27300 127685786.47900      -507.64700                
G14  20701240.65200 108785753.87000      -325.21700                
G15  25015131.22000 131455401.81100     -4073.69500                
G18  21867983.04400 114917026.52300      2529.95800                
G19  21680767.70600 113933203.28100     -2233.56200                
G22  23599178.86000 124014521.94000      2936.76300                
G23  20772879.19300 109162216.94200     -1236.45500                
G27  21234699.54700 111589099.28500      1821.52600                
G28  24238389.56100 127373596.84700     -3062.63300                
E01         5.17000        27.16700        -6.50100                
E02         9.43900        49.60300         9.86300                
E03        22.82800       119.96300         7.48800                
E04        29.84700       156.84600         4.09000                
E05        24.38100       128.12400        -0.19000                
E06        12.74400        66.97100        -6.47100                
> 2025 04 22 14 02 58.0000000  0 16
G03  24412024.69400 128286055.62500      1565.74000                
G09  24297893.67500 127686293.07300      -505.65900                
G14  20701302.38900 108786078.30100      -323.66600                
G15  25015906.45900 131459475.71800     -4074.02300                
G18  21867501.39800 114914495.45500      2532.09000                
G19  21681193.03500 113935438.40200     -2236.61400                
G22  23598619.65200 124011583.28100      2940.52000                
G23  20773114.65800 109163454.32300     -1238.30800                
G27  21234353.08100 111587278.59200      1819.93400                
G28  24238972.70900 127376661.30600     -3066.32500                
E01         6.81100        35.79000       -10.43400                
E02         7.44700        39.13400        10.85800                
E03        21.08900       110.82300        10.74000                
E04        28.72300       150.93800         7.66700                
E05        24.12300       126.76500         2.83100                
E06        13.87900        72.93300        -5.57200                
> 2025 04 22 14 02 59.0000000  0 16
G03  24411727.17100 128284492.13300      1561.31800                
G09  24297989.77000 127686798.05700      -504.45000                
G14  20701363.84800 108786401.26800      -322.31200                
G15  25016681.69200 131463549.59900     -4073.64200                
G18  21867019.39600 114911962.51700      2533.67700                
G19  21681618.89900 113937676.33000     -2239.15100                
G22  23598059.75000 124008640.97400      2944.02100                
G23  20773350.47300 109164693.53800     -1240.10700                
G27  21234006.87100 111585459.24700      1818.83900                
G28  24239556.56800 127379729.50600     -3070.08000                
E01         9.05600        47.58700       -13.00000                
E02         5.47200        28.75300         9.13100                
E03        18.76900        98.63100        13.55100                
E04        26.95700       141.66100        10.79600                
E05        23.34000       122.65100         5.28500                
E06        14.91400        78.37100        -5.43300                
> 2025 04 22 14 03  0.0000000  0 16
G03  24411430.43700 128282932.78700      1557.48800                
G09  24298085.71900 127687302.27100      -504.13400                
G14  20701425.07800 108786723.03500      -321.28500                
G15  25017456.78800 131467622.75300     -4072.57500                
G18  21866537.15300 114909428.31300      2534.60700                
G19  21682045.18500 113939916.48000     -2241.03800                
G22  23597499.22400 124005695.39100      2947.03500                
G23  20773586.61800 109165934.48700     -1241.76200                
G27  21233660.81900 111583640.73400      1818.27200                
G28  24240141.13100 127382801.40400     -3073.68500                
E01        11.70900        61.52900       -14.76600                
E02         4.45500        23.41300         0.03000                
E03        15.97500        83.94700        15.68300                
E04        24.65300       129.55400        13.30200                
E05        22.15900       116.44500         6.99100                
E06        15.99000        84.02700        -5.97200                
> 2025 04 22 14 03  1.0000000  0 16
G03  24411134.36000 128281376.88700      1554.45600                
G09  24298181.69800 127687806.64300      -504.77100                
G14  20701486.15300 108787043.98500      -320.69400                
G15  25018231.62000 131471694.52200     -4070.88900                
G18  21866054.80100 114906893.53900      2534.80700                
G19  21682471.76100 113942158.15000     -2242.17800                
G22  23596938.18700 124002747.12200      2949.36300                
G23  20773823.05700 109167176.98500     -1243.19200                
G27  21233314.82500 111581822.52200      1818.23300                
G28  24240726.34900 127385876.74600     -3076.93500                
E01        14.63000        76.88300       -15.82100                
E02         5.62600        29.56500       -11.35100                
E03        12.85900        67.57600        16.87500                
E04        21.94300       115.31000        15.05200                
E05        20.73300       108.95500         7.84600                
E06        17.20900        90.43600        -6.86800                
> 2025 04 22 14 03  2.0000000  0 16
G03  24410838.77000 128279823.55400      1552.37800                
G09  24298277.88900 127688312.13100      -506.36100                
G14  20701547.16300 108787364.59600      -320.61900                
G15  25019006.08000 131475764.33800     -4068.68800                
G18  21865572.48400 114904358.94300      2534.25200                
G19  21682898.47800 113944400.56500     -2242.52200                
G22  23596376.78500 123999796.93700      2950.84800                
G23  20774059.74200 109168420.77200     -1244.33100                
G27  21232968.79100 111580004.09900      1818.68600                
G28  24241312.13700 127388955.08400     -3079.65000                
E01        17.68100        92.91200       -16.10100                
E02         8.31300        43.68700       -15.98700                
E03         9.63800        50.64600        16.70000                
E04        18.97800        99.72800        15.97000                
E05        19.22600       101.03300         7.86900                
E06        18.59700        97.73000        -7.66600                
> 2025 04 22 14 03  3.0000000  0 16
G03  24410543.47700 128278271.77700      1551.35100                
G09  24298374.46900 127688819.66400      -508.84600                
G14  20701608.21200 108787685.41200      -321.11100                
G15  25019780.08300 131479831.75100     -4066.11000                
G18  21865090.34200 114901825.27200      2532.96300                
G19  21683325.18500 113946642.92300     -2242.07000                
G22  23595815.19000 123996845.73200      2951.38600                
G23  20774296.61200 109169665.53100     -1245.13100                
G27  21232622.62800 111578185.00300      1819.56800                
G28  24241898.37900 127392035.80500     -3081.68000                
E01        20.70500       108.80600       -15.54500                
E02        11.48800        60.37100       -17.00600                
E03         6.65900        34.99200        13.99900                
E04        15.91900        83.65400        16.04000                
E05        17.78000        93.43400         7.24600                
E06        20.09400       105.59400        -7.95000                
> 2025 04 22 14 03  4.0000000  0 16
G03  24410248.27600 128276720.48500      1551.40900                
G09  24298471.59900 127689330.08400      -512.11100                
G14  20701669.41100 108788007.01200      -322.18300                
G15  25020553.57200 131483896.46400     -4063.31500                
G18  21864608.51100 114899293.23200      2531.00500                
G19  21683751.73300 113948884.44900     -2240.87000                
G22  23595253.58600 123993894.48400      2950.93200                
G23  20774533.60000 109170910.91000     -1245.56500                
G27  21232276.26400 111576364.84600      1820.78800                
G28  24242484.93300 127395118.16800     -3082.91900                
E01        23.54300       123.71900       -14.14300                
E02        14.68000        77.14200       -16.32200                
E03         4.67900        24.58600         5.50700                
E04        12.92400        67.91800        15.30400                
E05        16.48700        86.63800         6.33500                
E06        21.57300       113.36900        -7.45900                
> 2025 04 22 14 03  5.0000000  0 16
G03  24409952.96300 128275168.60700      1552.51400                
G09  24298569.41200 127689844.09300      -515.99400                
G14  20701730.86700 108788329.96600      -323.81500                
G15  25021326.52200 131487958.34600     -4060.47800                
G18  21864127.10800 114896763.44100      2528.48700                
G19  21684177.98900 113951124.44000     -2239.02000                
G22  23594692.16200 123990944.18200      2949.50200                
G23  20774770.63400 109172156.53500     -1245.62700                
G27  21231929.64400 111574543.34800      1822.23300                
G28  24243071.64300 127398201.34900     -3083.31200                
E01        26.03700       136.82500       -11.94500                
E02        17.63200        92.65600       -14.55300                
E03         4.83200        25.39300        -6.40400                
E04        10.14100        53.28900        13.83700                
E05        15.35800        80.70600         5.59300                
E06        22.87800       120.22400        -6.10900                
> 2025 04 22 14 03  6.0000000  0 16
G03  24409657.34800 128273615.13800      1554.56700                
G09  24298668.00600 127690362.21100      -520.29300                
G14  20701792.68200 108788654.80900      -325.94900                
G15  25022098.94300 131492017.44400     -4057.77400                
G18  21863646.22600 114894236.39000      2525.55100                
G19  21684603.84200 113953362.31000     -2236.65400                
G22  23594131.09800 123987995.76900      2947.17300                
G23  20775007.64700 109173402.04500     -1245.33800                
G27  21231582.73800 111572720.34400      1823.77700                
G28  24243658.34600 127401284.49500     -3082.85200                
E01        28.04500       147.37900        -9.06100                
E02        20.16900       105.98700       -12.00100                
E03         6.57300        34.53900       -10.67100                
E04         7.70400        40.48300        11.64300                
E05        14.32100        75.25900         5.41900                
E06        23.84700       125.31700        -3.95400                
> 2025 04 22 14 03  7.0000000  0 15
G03  24409361.26400 128272059.20700      1557.40800                
G09  24298767.44000 127690884.74200      -524.78100                
G14  20701854.94500 108788982.00200      -328.49700                
G18  21863165.92900 114891712.41400      2522.36600                
G19  21685029.20800 113955597.62700     -2233.94300                
G22  23593570.55200 123985050.08100      2944.07800                
G23  20775244.57400 109174647.10500     -1244.73600                
G27  21231235.53900 111570895.80000      1825.28900                
G28  24244244.88400 127404366.77300     -3081.59000                
E01        29.45200       154.77200        -5.65100                
E02        22.16500       116.47700        -8.90700                
E03         8.61700        45.28300       -10.43800                
E04         5.77400        30.34300         8.40300                
E05        13.24700        69.61300         6.00200                
E06        24.34100       127.91500        -1.14900                
> 2025 04 22 14 03  8.0000000  0 15
G03  24409064.58100 128270500.12700      1560.82800                
G09  24298867.72800 127691411.75600      -529.21900                
G14  20701917.72300 108789311.90400      -331.34700                
G18  21862686.24800 114889191.67100      2519.11700                
G19  21685454.04100 113957830.13700     -2231.07500                
G22  23593010.65400 123982107.79800      2940.39700                
G23  20775481.36100 109175891.43100     -1243.88200                
G27  21230888.06600 111569069.81600      1826.63800                
G28  24244831.11300 127407447.42800     -3079.62400                
E01        30.17500       158.57100        -1.91000                
E02        23.54000       123.70200        -5.51300                
E03        10.46800        55.00900        -8.92300                
E04         4.62800        24.31900         3.26300                
E05        11.99300        63.02300         7.27400                
E06        24.25600       127.46800         2.09800                
> 2025 04 22 14 03  9.0000000  0 15
G03  24408767.21100 128268937.43600      1564.58400                
G09  24298968.83600 127691943.08400      -533.37100                
G14  20701981.06200 108789644.75300      -334.36600                
G18  21862207.17600 114886674.13100      2515.99000                
G19  21685878.32900 113960059.78400     -2228.25000                
G22  23592451.49600 123979169.40000      2936.34700                
G23  20775717.96800 109177134.80800     -1242.85200                
G27  21230540.36100 111567242.61500      1827.70400                
G28  24245416.91200 127410525.82200     -3077.09600                
E01        30.17200       158.55400         1.94400                
E02        24.26000       127.48500        -2.06700                
E03        12.00500        63.08500        -7.26100                
E04         4.63300        24.34800        -3.31800                
E05        10.45300        54.93100         8.93800                
E06        23.53000       123.65300         5.54400                
> 2025 04 22 14 03 10.0000000  0 15
G03  24408469.11500 128267370.93100      1568.41000                
G09  24299070.69000 127692478.33000      -537.02000                
G14  20702044.98100 108789980.64600      -337.41200                
G18  21861728.67300 114884159.58200      2513.16700                
G19  21686302.09900 113962286.71200     -2225.66700                
G22  23591893.12400 123976235.13700      2932.16900                
G23  20775954.36900 109178377.10300     -1241.73200                
G27  21230192.48900 111565414.53300      1828.38400                
G28  24246002.19000 127413601.48000     -3074.18400                
E01        29.44300       154.72100         5.68300                
E02        24.33900       127.90400         1.17600                
E03        13.25700        69.66400        -5.99400                
E04         5.78800        30.41700        -8.43900                
E05         8.60000        45.19200        10.44900                
E06        22.15000       116.39800         8.93700                
> 2025 04 22 14 03 11.0000000  0 15
G03  24408170.30600 128265800.67900      1572.03700                
G09  24299173.17500 127693016.89300      -539.97800                
G14  20702109.47000 108790319.53700      -340.34000                
G18  21861250.66500 114881647.63400      2510.80900                
G19  21686725.41500 113964511.25400     -2223.50600                
G22  23591335.54000 123973305.01200      2928.10900                
G23  20776190.55600 109179618.27200     -1240.61500                
G27  21229844.53000 111563585.99700      1828.60100                
G28  24246586.89300 127416674.11700     -3071.08800                
E01        28.03000       147.29900         9.09000                
E02        23.84000       125.28100         3.97700                
E03        14.33000        75.30500        -5.41700                
E04         7.72300        40.58500       -11.66600                
E05         6.55500        34.44600        10.66100                
E06        20.14900       105.88100        12.02600                
> 2025 04 22 14 03 12.0000000  0 15
G03  24407870.84600 128264227.00700      1575.20700                
G09  24299276.14600 127693558.00600      -542.10100                
G14  20702174.49400 108790661.24100      -343.01400                
G18  21860773.05100 114879137.75600      2509.04800                
G19  21687148.37300 113966733.91200     -2221.92400                
G22  23590778.69800 123970378.78700      2924.41000                
G23  20776426.53700 109180858.36300     -1239.59300                
G27  21229496.57800 111561757.49900      1828.30300                
G28  24247171.00700 127419743.65300     -3068.02100                
E01        26.01700       136.71800        11.96800                
E02        22.86700       120.16800         6.12400                
E03        15.36700        80.75400        -5.59800                
E04        10.16400        53.41100       -13.85300                
E05         4.82200        25.33700         6.32900                
E06        17.60700        92.52700        14.57300                
> 2025 04 22 14 03 13.0000000  0 15
G03  24407570.84500 128262650.49100      1577.69100                
G09  24299379.43300 127694100.78600      -543.29800                
G14  20702239.99200 108791005.43900      -345.31100                
G18  21860295.70800 114876629.29800      2507.98000                
G19  21687571.09400 113968955.32900     -2221.04100                
G22  23590222.50800 123967455.98800      2921.28800                
G23  20776662.34000 109182097.51600     -1238.75100                
G27  21229148.73400 111559929.56300      1827.47500                
G28  24247754.55600 127422810.22700     -3065.19400                
E01        23.51900       123.59300        14.15900                
E02        21.56000       113.30100         7.46800                
E03        16.49700        86.69200        -6.34300                
E04        12.95000        68.05300       -15.31400                
E05         4.68800        24.63600        -5.61600                
E06        14.65200        76.99800        16.33300                
> 2025 04 22 14 03 14.0000000  0 15
G03  24407270.45100 128261071.91300      1579.30400                
G09  24299482.85700 127694644.28100      -543.53300                
G14  20702305.88500 108791351.70500      -347.13500                
G18  21859818.49700 114874121.53900      2507.65700                
G19  21687993.72100 113971176.24500     -2220.93200                
G22  23589666.84200 123964535.94600      2918.92600                
G23  20776898.00600 109183335.95000     -1238.16600                
G27  21228801.09700 111558102.71800      1826.13000                
G28  24248337.60600 127425874.17600     -3062.80300                
E01        20.67900       108.66700        15.55400                
E02        20.08000       105.52100         7.95100                
E03        17.79200        93.49600        -7.25400                
E04        15.94600        83.79600       -16.04300                
E05         6.68200        35.11700       -14.04200                
E06        11.46000        60.22000        17.00500                
> 2025 04 22 14 03 15.0000000  0 15
G03  24406969.84500 128259492.21500      1579.91300                
G09  24299586.23600 127695187.53900      -542.83300                
G14  20702372.07300 108791699.52800      -348.41700                
G18  21859341.27600 114871613.72500      2508.08500                
G19  21688416.40300 113973397.45600     -2221.62800                
G22  23589111.54200 123961617.82700      2917.45900                
G23  20777133.59000 109184573.95200     -1237.89700                
G27  21228453.76100 111556277.45700      1824.31600                
G28  24248920.25700 127428936.02400     -3061.01700                
E01        17.65300        92.76800        16.10200                
E02        18.58400        97.65900         7.66000                
E03        19.23900       101.10100        -7.87300                
E04        19.00500        99.86900       -15.96500                
E05         9.66600        50.79500       -16.71000                
E06         8.28600        43.54500        15.96600                
> 2025 04 22 14 03 16.0000000  0 15
G03  24406669.22400 128257912.44200      1579.44900                
G09  24299689.39800 127695729.66100      -541.27900                
G14  20702438.45100 108792048.34600      -349.12200                
G18  21858863.90500 114869105.12400      2509.22200                
G19  21688839.29300 113975619.75600     -2223.10500                
G22  23588556.43000 123958700.69200      2916.96600                
G23  20777369.15600 109185811.86000     -1237.98300                
G27  21228106.80900 111554454.21300      1822.11000                
G28  24249502.63500 127431996.44400     -3059.96600                
E01        14.60300        76.74200        15.81500                
E02        17.19700        90.37200         6.86000                
E03        20.74600       109.02200        -7.84200                
E04        21.96800       115.44300       -15.04000                
E05        12.88800        67.72700       -16.87000                
E06         5.60700        29.46500        11.28100                
> 2025 04 22 14 03 17.0000000  0 15
G03  24406368.79400 128256333.67400      1577.90900                
G09  24299792.19400 127696269.85800      -539.01000                
G14  20702504.90800 108792397.58000      -349.25100                
G18  21858386.25700 114866595.06400      2510.98500                
G19  21689262.53300 113977843.89700     -2225.29300                
G22  23588001.31700 123955783.55300      2917.46500                
G23  20777604.77400 109187050.04000     -1238.44100                
G27  21227760.30700 111552633.33100      1819.61100                
G28  24250084.89100 127435056.21900     -3059.73600                
E01        11.68300        61.39600        14.75400                
E02        15.97900        83.97200         5.96500                
E03        22.17000       116.50600        -6.97900                
E04        24.67600       129.67200       -13.28300                
E05        16.00100        84.08700       -15.66800                
E06         4.45600        23.41500        -0.14600                
> 2025 04 22 14 03 18.0000000  0 15
G03  24406068.75600 128254756.96000      1575.35600                
G09  24299894.50400 127696807.50100      -536.20400                
G14  20702571.33700 108792746.66900      -348.84100                
G18  21857908.22300 114864082.97900      2513.24800                
G19  21689686.24800 113980070.53500     -2228.07800                
G22  23587446.01700 123952865.43400      2918.91400                
G23  20777840.51400 109188288.86300     -1239.26700                
G27  21227414.29800 111550815.04400      1816.94000                
G28  24250667.18400 127438116.19000     -3060.36200                
E01         9.03300        47.47000        12.98100                
E02        14.90400        78.32100         5.43000                
E03        23.34800       122.69700        -5.26700                
E04        26.97500       141.75700       -10.77100                
E05        18.79200        98.75200       -13.52900                
E06         5.48700        28.83600        -9.17200                
> 2025 04 22 14 03 19.0000000  0 15
G03  24405769.28900 128253183.25400      1571.91800                
G09  24299996.24600 127697342.15900      -533.07700                
G14  20702637.64300 108793095.10600      -347.96300                
G18  21857429.72300 114861568.44400      2515.85800                
G19  21690110.53800 113982300.19600     -2231.30900                
G22  23586890.35900 123949945.43100      2921.21000                
G23  20778076.44500 109189528.68500     -1240.43100                
G27  21227068.80400 111548999.46100      1814.22500                
G28  24251249.67700 127441177.21000     -3061.82500                
E01         6.79300        35.69600        10.40700                
E02        13.86900        72.88100         5.57700                
E03        24.12700       126.78900        -2.80700                
E04        28.73500       151.00600        -7.63700                
E05        21.10700       110.91900       -10.71300                
E06         7.46600        39.23200       -10.85600                
> 2025 04 22 14 03 20.0000000  0 15
G03  24405470.54800 128251613.35500      1567.77700                
G09  24300097.38100 127697873.62600      -529.86300                
G14  20702703.74400 108793442.47100      -346.71500                
G18  21856950.70700 114859051.19800      2518.63700                
G19  21690535.47100 113984533.23500     -2234.80400                
G22  23586334.19600 123947022.77100      2924.19900                
G23  20778312.62500 109190769.82000     -1241.88500                
G27  21226723.82100 111547186.55900      1811.60000                
G28  24251832.52200 127444240.08300     -3064.05300                
E01         5.15900        27.10800         6.45600                
E02        12.73300        66.91200         6.48200                
E03        24.38100       128.12100         0.21800                
E04        29.85400       156.88200        -4.05700                
E05        22.84100       120.03100        -7.45800                
E06         9.45600        49.69200        -9.85000                
> 2025 04 22 14 03 21.0000000  0 15
G03  24405172.64300 128250047.85700      1563.15700                
G09  24300197.91500 127698401.93500      -526.80100                
G14  20702769.58300 108793788.45400      -345.22100                
G18  21856471.16100 114856531.16600      2521.40000                
G19  21690961.08000 113986769.82100     -2238.37000                
G22  23585777.41300 123944096.85800      2927.68200                
G23  20778549.10400 109192012.52700     -1243.56000                
G27  21226379.31800 111545376.18600      1809.18900                
G28  24252415.85600 127447305.52000     -3066.92900                
E01         4.47500        23.51600         0.41800                
E02        11.36400        59.72000         7.97300                
E03        24.02300       126.24000         3.58200                
E04        30.26400       159.04100        -0.23900                
E05        23.93300       125.77000        -4.01000                
E06        11.17400        58.72200        -8.18100                
> 2025 04 22 14 03 22.0000000  0 15
G03  24404875.64300 128248487.11300      1558.31400                
G09  24300297.89900 127698927.35600      -524.12200                
G14  20702835.12400 108794132.87600      -343.61700                
G18  21855991.10500 114854008.45900      2523.95900                
G19  21691387.35700 113989009.92400     -2241.80400                
G22  23585219.93800 123941167.30800      2931.43000                
G23  20778785.91700 109193256.98600     -1245.37600                
G27  21226035.24500 111543568.06700      1807.10800                
G28  24252999.78600 127450374.09200     -3070.29300                
E01         5.01400        26.34800        -5.82200                
E02         9.68600        50.89900         9.65700                
E03        23.01200       120.92700         7.03600                
E04        29.94400       157.35600         3.59300                
E05        24.37100       128.07100        -0.62100                
E06        12.57900        66.10100        -6.64100                
> 2025 04 22 14 03 23.0000000  0 15
G03  24404579.56500 128246931.21100      1553.51700                
G09  24300397.42600 127699450.37500      -522.03100                
G14  20702900.36100 108794475.69900      -342.04800                
G18  21855510.59600 114851483.36700      2526.14200                
G19  21691814.26000 113991253.31500     -2244.91500                
G22  23584661.74400 123938233.97900      2935.20000                
G23  20779023.08100 109194503.29400     -1247.24200                
G27  21225691.52800 111541761.82500      1805.44800                
G28  24253584.38700 127453446.19500     -3073.95800                
E01         6.55200        34.43200       -10.01100                
E02         7.72100        40.57300        10.81400                
E03        21.35500       112.22100        10.32800                
E04        28.91100       151.92600         7.21400                
E05        24.18900       127.11600         2.45800                
E06        13.73700        72.18800        -5.64900                
> 2025 04 22 14 03 24.0000000  0 15
G03  24404284.37400 128245379.97100      1549.03300                
G09  24300496.62500 127699971.67000      -520.69900                
G14  20702965.31400 108794817.03000      -340.65600                
G18  21855029.72000 114848956.34400      2527.79800                
G19  21692241.71100 113993499.58200     -2247.53100                
G22  23584102.85000 123935296.97300      2938.74400                
G23  20779260.59800 109195751.45300     -1249.06400                
G27  21225348.08200 111539957.00400      1804.27700                
G28  24254169.69800 127456522.02600     -3077.71400                
E01         8.73100        45.88000       -12.71100                
E02         5.70900        30.00200         9.66800                
E03        19.10700       100.40700        13.21200                
E04        27.22500       143.06900        10.41300                
E05        23.47000       123.33400         4.99900                
E06        14.77700        77.65200        -5.40800                
> 2025 04 22 14 03 25.0000000  0 15
G03  24403989.98700 128243832.95500      1545.10700                
G09  24300595.65400 127700492.06700      -520.24800                
G14  20703030.03000 108795157.11400      -339.57300                
G18  21854548.58700 114846427.97700      2528.81300                
G19  21692669.60000 113995748.15700     -2249.51000                
G22  23583543.32200 123932356.63400      2941.82900                
G23  20779498.45000 109197001.37500     -1250.75200                
G27  21225004.80900 111538153.09300      1803.63000                
G28  24254755.71600 127459601.57100     -3081.35000                
E01        11.33800        59.58100       -14.57200                
E02         4.47800        23.53100         1.72400                
E03        16.36800        86.01400        15.44800                
E04        24.98600       131.30100        13.01000                
E05        22.33300       117.36100         6.81200                
E06        15.84000        83.24100        -5.87100                
> 2025 04 22 14 03 26.0000000  0 15
G03  24403696.27600 128242289.49600      1541.95300                
G09  24300694.68600 127701012.48300      -520.74700                
G14  20703094.57800 108795496.31700      -338.91100                
G18  21854067.33000 114843898.95100      2529.10700                
G19  21693097.79700 113997998.34800     -2250.75000                
G22  23582983.26800 123929413.52600      2944.25200                
G23  20779736.60400 109198252.88400     -1252.22400                
G27  21224661.60900 111536349.56400      1803.51200                
G28  24255342.39800 127462684.60500     -3084.65800                
E01        14.23200        74.79000       -15.72400                
E02         5.35300        28.13000       -10.24500                
E03        13.28500        69.81100        16.78300                
E04        22.32100       117.29600        14.86600                
E05        20.93100       109.99200         7.78200                
E06        17.03700        89.53200        -6.74400                
> 2025 04 22 14 03 27.0000000  0 15
G03  24403403.07900 128240748.73400      1539.73300                
G09  24300793.90400 127701533.88000      -522.20400                
G14  20703159.04700 108795835.10400      -338.75500                
G18  21853586.08800 114841370.00700      2528.64900                
G19  21693526.15500 114000249.38500     -2251.19500                
G22  23582422.82800 123926468.39500      2945.85000                
G23  20779975.01200 109199505.72600     -1253.41000                
G27  21224318.38300 111534545.89900      1803.89200                
G28  24255929.66300 127465770.70400     -3087.45400                
E01        17.27400        90.77400       -16.11100                
E02         7.91400        41.58600       -15.65100                
E03        10.06100        52.87200        16.82900                
E04        19.38000       101.84400        15.89700                
E05        19.42500       102.08000         7.90900                
E06        18.40500        96.71700        -7.58200                
> 2025 04 22 14 03 28.0000000  0 15
G03  24403110.20600 128239209.67800      1538.55500                
G09  24300893.48700 127702057.19500      -524.56900                
G14  20703223.54000 108796174.01400      -339.16000                
G18  21853105.00300 114838841.89200      2527.45400                
G19  21693954.52200 114002500.46500     -2250.84000                
G22  23581862.17200 123923522.12800      2946.51200                
G23  20780213.61500 109200759.59000     -1254.26000                
G27  21223975.04200 111532741.62800      1804.71300                
G28  24256517.39900 127468859.27700     -3089.58300                
E01        20.31100       106.73400       -15.66800                
E02        11.05900        58.11400       -16.99000                
E03         7.02000        36.89100        14.59300                
E04        16.32500        85.78600        16.07800                
E05        17.96400        94.40300         7.35500                
E06        19.89300       104.53800        -7.95300                
> 2025 04 22 14 03 29.0000000  0 15
G03  24402817.45500 128237671.26000      1538.45800                
G09  24300993.59900 127702583.28500      -527.73500                
G14  20703288.16400 108796513.61900      -340.14600                
G18  21852624.21200 114836315.31700      2525.58100                
G19  21694382.74700 114004750.80600     -2249.72700                
G22  23581301.48300 123920575.69100      2946.18500                
G23  20780452.34400 109202014.12100     -1254.74200                
G27  21223631.50900 111530936.35200      1805.88500                
G28  24257105.46800 127471949.59700     -3090.93300                
E01        23.18300       121.82600       -14.37600                
E02        14.26500        74.96500       -16.48300                
E03         4.83800        25.42300         7.08900                
E04        13.31300        69.95900        15.44600                
E05        16.64800        87.48700         6.45600                
E06        21.38400       112.37100        -7.57400                
> 2025 04 22 14 03 30.0000000  0 15
G03  24402524.62100 128236132.40500      1539.41800                
G09  24301094.37700 127703112.87900      -531.54500                
G14  20703353.03100 108796854.49500      -341.69700                
G18  21852143.83400 114833790.91300      2523.13400                
G19  21694810.69600 114006999.69000     -2247.94600                
G22  23580740.95100 123917630.07500      2944.87600                
G23  20780691.12900 109203268.94600     -1254.84900                
G27  21223287.72900 111529129.77300      1807.29900                
G28  24257693.71300 127475040.85000     -3091.44100                
E01        25.73100       135.21700       -12.27900                
E02        17.26100        90.70500       -14.83800                
E03         4.68500        24.62100        -5.19200                
E04        10.49300        55.14200        14.07200                
E05        15.50000        81.45400         5.66600                
E06        22.72100       119.39800        -6.33600                
> 2025 04 22 14 03 31.0000000  0 15
G03  24402231.51000 128234592.09900      1541.34200                
G09  24301195.92700 127703646.52400      -535.80200                
G14  20703418.24200 108797197.18400      -343.76000                
G18  21851663.96600 114831269.18700      2520.25100                
G19  21695238.25200 114009246.51400     -2245.63100                
G22  23580180.75700 123914686.23200      2942.65600                
G23  20780929.90000 109204523.69600     -1254.59600                
G27  21222943.66600 111527321.71000      1808.83200                
G28  24258281.97400 127478132.18200     -3091.09500                
E01        27.81100       146.14900        -9.47800                
E02        19.86100       104.36900       -12.37600                
E03         6.30500        33.13500       -10.47700                
E04         8.00200        42.05100        11.98200                
E05        14.45800        75.97700         5.40000                
E06        23.74300       124.77100        -4.28200                
> 2025 04 22 14 03 32.0000000  0 15
G03  24401937.95300 128233049.44600      1544.07900                
G09  24301298.31100 127704184.55700      -540.28200                
G14  20703483.88900 108797542.15900      -346.25300                
G18  21851184.67400 114828750.49300      2517.09700                
G19  21695665.33000 114011490.82200     -2242.94500                
G22  23579621.06200 123911745.01500      2939.65000                
G23  20781168.59200 109205778.03000     -1254.02300                
G27  21222599.31000 111525512.10900      1810.35200                
G28  24258870.09100 127481222.75700     -3089.93600                
E01        29.30300       153.99000        -6.12700                
E02        21.93400       115.26600        -9.34100                
E03         8.35200        43.88800       -10.58100                
E04         5.99300        31.49300         8.92100                
E05        13.39700        70.40100         5.88100                
E06        24.30700       127.73600        -1.55200                
> 2025 04 22 14 03 33.0000000  0 15
G03  24401643.81400 128231503.73300      1547.42700                
G09  24301401.55000 127704727.08200      -544.74600                
G14  20703550.04200 108797889.79700      -349.06600                
G18  21850705.99500 114826235.01500      2513.85400                
G19  21696091.87600 114013732.33700     -2240.07800                
G22  23579062.00000 123908807.12500      2936.03400                
G23  20781407.14900 109207031.65300     -1253.18700                
G27  21222254.67700 111523701.05000      1811.72800                
G28  24259457.91700 127484311.80200     -3088.05700                
E01        30.12000       158.28400        -2.41800                
E02        23.39500       122.93900        -5.97200                
E03        10.24000        53.80900        -9.14800                
E04         4.72100        24.80600         4.07600                
E05        12.17400        63.97500         7.07400                
E06        24.30400       127.71600         1.65000                
> 2025 04 22 14 03 34.0000000  0 15
G03  24401348.99800 128229954.46500      1551.14600                
G09  24301505.61800 127705273.96400      -548.95700                
G14  20703616.75100 108798240.35400      -352.06800                
G18  21850227.92600 114823722.74500      2510.70900                
G19  21696517.87500 114015970.97700     -2237.22900                
G22  23578503.66800 123905873.07000      2932.02000                
G23  20781645.52700 109208284.33800     -1252.16200                
G27  21221909.80500 111521888.73800      1812.83800                
G28  24260045.32700 127487398.66400     -3085.59400                
E01        30.21400       158.77800         1.43400                
E02        24.20200       127.18100        -2.51800                
E03        11.81900        62.10800        -7.46700                
E04         4.56000        23.96300        -2.47400                
E05        10.67600        56.10200         8.71100                
E06        23.66500       124.35900         5.08400                
> 2025 04 22 14 03 35.0000000  0 15
G03  24401053.46000 128228401.40200      1554.97300                
G09  24301610.44600 127705824.83700      -552.69300                
G14  20703684.03800 108798593.95000      -355.11900                
G18  21849750.43100 114821213.49500      2507.84500                
G19  21696943.34900 114018206.86100     -2234.59700                
G22  23577946.11800 123902943.12900      2927.84600                
G23  20781883.69900 109209535.94000     -1251.03400                
G27  21221564.75700 111520075.49400      1813.57600                
G28  24260632.22700 127490482.84200     -3082.72100                
E01        29.58000       155.44400         5.20200                
E02        24.36400       128.03300         0.76600                
E03        13.10400        68.86000        -6.12600                
E04         5.58200        29.33300        -7.88900                
E05         8.86200        46.56900        10.28700                
E06        22.37000       117.55500         8.49800                
> 2025 04 22 14 03 36.0000000  0 15
G03  24400757.20500 128226844.57000      1558.63700                
G09  24301715.92400 127706379.12600      -555.76200                
G14  20703751.89900 108798950.56000      -358.07300                
G18  21849273.44200 114818706.90000      2505.42400                
G19  21697368.35900 114020440.29900     -2232.36700                
G22  23577389.35900 123900017.33800      2923.75900                
G23  20782121.65400 109210786.40200     -1249.89700                
G27  21221219.60900 111518261.73200      1813.86200                
G28  24261218.55600 127493564.02300     -3079.63500                
E01        28.25400       148.47700         8.66400                
E02        23.93600       125.78600         3.63800                
E03        14.19300        74.58400        -5.44900                
E04         7.43300        39.06000       -11.31100                
E05         6.82600        35.87000        10.78700                
E06        20.44800       107.45200        11.64200                
> 2025 04 22 14 03 37.0000000  0 15
G03  24400460.28800 128225284.26500      1561.88000                
G09  24301821.91000 127706936.08600      -558.01200                
G14  20703820.30100 108799310.01800      -360.79300                
G18  21848796.86000 114816202.44500      2503.58400                
G19  21697792.99500 114022671.77600     -2230.69900                
G22  23576833.35000 123897095.48900      2920.00200                
G23  20782359.39900 109212035.76000     -1248.84400                
G27  21220874.45500 111516447.93600      1813.64000                
G28  24261804.29500 127496642.10000     -3076.54900                
E01        26.31500       138.28400        11.62200                
E02        23.01900       120.96500         5.88300                
E03        15.22600        80.01500        -5.53500                
E04         9.81700        51.58800       -13.60600                
E05         4.99500        26.24900         7.37500                
E06        17.97200        94.44100        14.27400                
> 2025 04 22 14 03 38.0000000  0 15
G03  24400162.81400 128223721.02600      1564.46800                
G09  24301928.23800 127707494.84300      -559.34400                
G14  20703889.18900 108799672.02500      -363.15300                
G18  21848320.56500 114813699.49700      2502.42400                
G19  21698217.37700 114024901.92000     -2229.71800                
G22  23576278.00600 123894177.13900      2916.79700                
G23  20782596.95800 109213284.14500     -1247.96300                
G27  21220529.39400 111514634.62600      1812.88800                
G28  24262389.46300 127499717.17900     -3073.67500                
E01        23.87300       125.45600        13.91200                
E02        21.74800       114.28400         7.33900                
E03        16.33800        85.85800        -6.22500                
E04        12.56500        66.03000       -15.16100                
E05         4.56700        24.00100        -3.93600                
E06        15.06200        79.15400        16.15400                
> 2025 04 22 14 03 39.0000000  0 15
G03  24399864.92500 128222155.61000      1566.20800                
G09  24302034.72800 127708054.45200      -559.71400                
G14  20703958.48300 108800036.16900      -365.05200                
G18  21847844.42100 114811197.34300      2502.00200                
G19  21698641.64500 114027131.46300     -2229.50700                
G22  23575723.20500 123891261.63900      2914.33000                
G23  20782834.37300 109214531.76800     -1247.33100                
G27  21220184.52500 111512822.32900      1811.61600                
G28  24262974.12000 127502789.57500     -3071.21100                
E01        21.07000       110.72300        15.41700                
E02        20.28100       106.57600         7.93500                
E03        17.61000        92.54000        -7.14000                
E04        15.54100        81.66900       -15.99100                
E05         6.33600        33.29700       -13.35300                
E06        11.88900        62.47700        16.99500                
> 2025 04 22 14 03 40.0000000  0 15
G03  24399566.79700 128220588.93800      1566.95900                
G09  24302141.19800 127708613.95600      -559.14000                
G14  20704028.08900 108800401.95100      -366.41800                
G18  21847368.28500 114808695.23500      2502.33000                
G19  21699065.94900 114029361.19700     -2230.10100                
G22  23575168.79100 123888348.17500      2912.74300                
G23  20783071.69600 109215778.91000     -1247.01100                
G27  21219839.94500 111511011.54800      1809.86800                
G28  24263558.36200 127505859.78400     -3069.33000                
E01        18.06000        94.90400        16.07800                
E02        18.77800        98.68100         7.73600                
E03        19.04100       100.05900        -7.82200                
E04        18.60000        97.74600       -16.02400                
E05         9.24600        48.58700       -16.54300                
E06         8.69300        45.68400        16.24800                
> 2025 04 22 14 03 41.0000000  0 15
G03  24399268.62700 128219022.04400      1566.64500                
G09  24302247.47400 127709172.44200      -557.69700                
G14  20704097.90100 108800768.81300      -367.21000                
G18  21846892.01900 114806192.43600      2503.37400                
G19  21699490.44200 114031591.92200     -2231.48400                
G22  23574614.58800 123885435.81900      2912.12200                
G23  20783308.99200 109217025.90600     -1247.04500                
G27  21219495.73700 111509202.72500      1807.71400                
G28  24264142.31200 127508928.46400     -3068.16900                
E01        15.00400        78.84700        15.89900                
E02        17.37200        91.29100         6.98100                
E03        20.54800       107.97800        -7.89200                
E04        21.58600       113.43500       -15.21200                
E05        12.46100        65.48200       -16.94000                
E06         5.90400        31.02800        12.25500                
> 2025 04 22 14 03 42.0000000  0 15
G03  24398970.62000 128217456.00500      1565.25100                
G09  24302353.40300 127709729.10200      -555.51400                
G14  20704167.80800 108801136.17700      -367.42300                
G18  21846415.49100 114803688.26700      2505.05400                
G19  21699915.26800 114033824.40000     -2233.59100                
G22  23574060.40900 123882523.58700      2912.49500                
G23  20783546.32900 109218273.12300     -1247.45400                
G27  21219151.97100 111507396.21900      1805.25300                
G28  24264726.11700 127511996.38300     -3067.82100                
E01        12.05800        63.36700        14.93600                
E02        16.13100        84.77100         6.07200                
E03        21.99200       115.56800        -7.14400                
E04        24.33700       127.89000       -13.56200                
E05        15.60300        81.99200       -15.88800                
E06         4.47400        23.51100         1.60300                
> 2025 04 22 14 03 43.0000000  0 15
G03  24398672.97700 128215891.88000      1562.83400                
G09  24302458.86000 127710283.28000      -552.76600                
G14  20704237.70300 108801503.47700      -367.09000                
G18  21845938.59200 114801182.14700      2507.25100                
G19  21700340.55600 114036059.30400     -2236.31400                
G22  23573506.06700 123879610.49900      2913.82500                
G23  20783783.78000 109219520.93600     -1248.23500                
G27  21218808.69200 111505592.27800      1802.60200                
G28  24265309.93800 127515064.37900     -3068.32600                
E01         9.36500        49.21200        13.25800                
E02        15.04200        79.04400         5.46700                
E03        23.21200       121.97900        -5.54000                
E04        26.69900       140.30200       -11.14400                
E05        18.44600        96.93400       -13.85700                
E06         5.26400        27.66100        -8.50600                
> 2025 04 22 14 03 44.0000000  0 15
G03  24398375.88200 128214330.63800      1559.51000                
G09  24302563.75600 127710834.51600      -549.66500                
G14  20704307.48700 108801870.19600      -366.27600                
G18  21845461.23800 114798673.63400      2509.81400                
G19  21700766.41000 114038297.17700     -2239.50300                
G22  23572951.38700 123876695.63800      2916.01900                
G23  20784021.41400 109220769.70800     -1249.36300                
G27  21218465.92600 111503791.03200      1799.88700                
G28  24265893.93500 127518133.30400     -3069.67400                
E01         7.06100        37.10400        10.80800                
E02        14.00900        73.61700         5.51300                
E03        24.05200       126.39200        -3.17000                
E04        28.53700       149.96200        -8.08300                
E05        20.83100       109.47000       -11.11700                
E06         7.19100        37.79000       -10.86000                
> 2025 04 22 14 03 45.0000000  0 15
G03  24398079.49300 128212773.10100      1555.45500                
G09  24302668.04700 127711382.56900      -546.44200                
G14  20704377.07800 108802235.90000      -365.07600                
G18  21844983.37500 114796162.44700      2512.57100                
G19  21701192.90000 114040538.40100     -2242.98300                
G22  23572396.21900 123873778.21200      2918.92700                
G23  20784259.29100 109222019.76100     -1250.79100                
G27  21218123.67300 111501992.47700      1797.24200                
G28  24266478.26400 127521203.97500     -3071.80100                
E01         5.33000        28.00800         7.09700                
E02        12.89500        67.76100         6.32200                
E03        24.38100       128.12200        -0.20800                
E04        29.74500       156.31000        -4.55100                
E05        22.64700       119.01100        -7.90700                
E06         9.20500        48.37200       -10.04600                
> 2025 04 22 14 03 46.0000000  0 15
G03  24397783.92800 128211219.89500      1550.88900                
G09  24302771.73200 127711927.43800      -543.33700                
G14  20704446.41300 108802600.25900      -363.61000                
G18  21844504.98400 114793648.48300      2515.33400                
G19  21701620.06500 114042783.16800     -2246.55700                
G22  23571840.44500 123870857.59900      2922.35600                
G23  20784497.46300 109223271.36500     -1252.45200                
G27  21217781.90600 111500196.47900      1794.79400                
G28  24267063.06300 127524277.11600     -3074.59300                
E01         4.49700        23.63000         1.30900                
E02        11.56300        60.76400         7.75300                
E03        24.10700       126.68500         3.12500                
E04        30.25200       158.97500        -0.75200                
E05        23.82600       125.20700        -4.47000                
E06        10.96500        57.62100        -8.40700                
> 2025 04 22 14 03 47.0000000  0 15
G03  24397489.26000 128209671.40700      1546.06300                
G09  24302874.85700 127712469.36000      -540.58400                
G14  20704515.45500 108802963.07600      -362.01300                
G18  21844026.08100 114791131.83000      2517.91900                
G19  21702047.90300 114045031.47300     -2250.02600                
G22  23571283.98700 123867933.39100      2926.08100                
G23  20784735.96700 109224524.71400     -1254.26500                
G27  21217440.57600 111498402.78100      1792.65900                
G28  24267648.44600 127527353.32100     -3077.89900                
E01         4.87600        25.62300        -5.10100                
E02         9.92700        52.16700         9.44300                
E03        23.18400       121.83100         6.58200                
E04        30.02800       157.79900         3.09100                
E05        24.35000       127.95900        -1.05900                
E06        12.40900        65.20800        -6.82000                
> 2025 04 22 14 03 48.0000000  0 15
G03  24397195.51500 128208127.76400      1541.24500                
G09  24302977.50700 127713008.79400      -538.39300                
G14  20704584.19200 108803324.29000      -360.43000                
G18  21843546.71700 114788612.75600      2520.14900                
G19  21702476.37600 114047283.11200     -2253.19400                
G22  23570726.81100 123865005.40900      2929.85900                
G23  20784974.82400 109225779.91500     -1256.14100                
G27  21217099.61600 111496611.02100      1790.93200                
G28  24268234.49100 127530433.01100     -3081.53200                
E01         6.30500        33.13300        -9.56300                
E02         7.99300        42.00300        10.73400                
E03        21.61100       113.56400         9.91000                
E04        29.08700       152.85300         6.75300                
E05        24.24700       127.41700         2.07600                
E06        13.59300        71.43200        -5.74000                
> 2025 04 22 14 03 49.0000000  0 15
G03  24396902.66400 128206588.82300      1536.70300                
G09  24303079.80900 127713546.39200      -536.94000                
G14  20704652.64000 108803683.98800      -359.00300                
G18  21843066.97400 114786091.69300      2521.87400                
G19  21702905.40900 114049537.69500     -2255.88600                
G22  23570168.93000 123862073.72700      2933.44100                
G23  20785214.03700 109227036.98400     -1257.98600                
G27  21216758.93900 111494820.75200      1789.68600                
G28  24268821.24300 127533516.41200     -3085.28600                
E01         8.41300        44.21300       -12.40900                
E02         5.95900        31.31500        10.08400                
E03        19.43600       102.13800        12.86100                
E04        27.48300       144.42500        10.02000                
E05        23.59200       123.97800         4.70000                
E06        14.64000        76.93500        -5.39500                
> 2025 04 22 14 03 50.0000000  0 15
G03  24396610.63100 128205054.18000      1532.68600                
G09  24303181.91500 127714082.96400      -536.35600                
G14  20704720.84200 108804042.39300      -357.86600                
G18  21842586.96200 114783569.21000      2522.97000                
G19  21703334.89700 114051794.67000     -2257.95500                
G22  23569610.40500 123859138.65900      2936.59500                
G23  20785453.59000 109228295.84400     -1259.70700                
G27  21216418.45000 111493031.47100      1788.96000                
G28  24269408.70400 127536603.54000     -3088.94800                
E01        10.97200        57.66100       -14.36600                
E02         4.54200        23.86600         3.30900                
E03        16.75500        88.04800        15.19700                
E04        25.31000       133.00700        12.70600                
E05        22.50300       118.25300         6.61800                
E06        15.69300        82.46800        -5.77700                
> 2025 04 22 14 03 51.0000000  0 15
G03  24396319.29500 128203523.19800      1529.41300                
G09  24303283.99900 127714619.42000      -536.71700                
G14  20704788.86500 108804399.85600      -357.13500                
G18  21842106.80700 114781045.98100      2523.35700                
G19  21703764.71100 114054053.35600     -2259.29500                
G22  23569051.33800 123856200.74000      2939.11000                
G23  20785693.45200 109229556.32700     -1261.22000                
G27  21216078.04900 111491242.65200      1788.76200                
G28  24269996.83600 127539694.19600     -3092.31000                
E01        13.83600        72.71000       -15.61300                
E02         5.11000        26.85100        -8.99100                
E03        13.70700        72.03100        16.66900                
E04        22.69400       119.25600        14.66600                
E05        21.12600       111.02000         7.70300                
E06        16.86900        88.64500        -6.62000                
> 2025 04 22 14 03 52.0000000  0 15
G03  24396028.49700 128201995.04500      1527.05500                
G09  24303386.24400 127715156.71800      -538.03900                
G14  20704856.79500 108804756.82900      -356.89900                
G18  21841626.65000 114778522.73800      2522.99600                
G19  21704194.70400 114056312.98900     -2259.84300                
G22  23568491.86600 123853260.69700      2940.81900                
G23  20785933.57600 109230818.18800     -1262.45300                
G27  21215737.63700 111489453.77400      1789.07000                
G28  24270585.56500 127542787.98600     -3095.18400                
E01        16.86700        88.63500       -16.10600                
E02         7.52300        39.53400       -15.24800                
E03        10.48800        55.11200        16.92100                
E04        19.78100       103.94800        15.80900                
E05        19.62500       103.13200         7.93700                
E06        18.21400        95.71700        -7.48900                
> 2025 04 22 14 03 53.0000000  0 15
G03  24395738.05200 128200468.74300      1525.72500                
G09  24303488.82900 127715695.80500      -540.28100                
G14  20704924.73200 108805113.84000      -357.21900                
G18  21841146.63300 114776000.22800      2521.89500                
G19  21704624.72600 114058572.76600     -2259.58500                
G22  23567932.15600 123850319.40000      2941.60400                
G23  20786173.90400 109232081.11900     -1263.35100                
G27  21215397.12200 111487664.35800      1789.82600                
G28  24271174.78100 127545884.33700     -3097.41000                
E01        19.91400       104.64700       -15.77600                
E02        10.63000        55.86200       -16.94300                
E03         7.39500        38.86200        15.09900                
E04        16.73100        87.92200        16.10200                
E05        18.15100        95.38600         7.45700                
E06        19.69200       103.48300        -7.94300                
> 2025 04 22 14 03 54.0000000  0 15
G03  24395447.75600 128198943.23200      1525.47500                
G09  24303591.92000 127716237.55500      -543.34400                
G14  20704992.78500 108805471.46000      -358.11800                
G18  21840666.89100 114773479.16800      2520.10900                
G19  21705054.62400 114060831.89700     -2258.56000                
G22  23567372.39000 123847377.80900      2941.40300                
G23  20786414.36800 109233344.76600     -1263.88200                
G27  21215056.42800 111485873.99500      1790.94900                
G28  24271764.34900 127548982.53800     -3098.87000                
E01        22.81700       119.90300       -14.59600                
E02        13.84700        72.76700       -16.62500                
E03         5.03600        26.46200         8.54000                
E04        13.70500        72.01800        15.57400                
E05        16.81300        88.35200         6.58000                
E06        21.19100       111.35900        -7.67300                
> 2025 04 22 14 03 55.0000000  0 15
G03  24395157.40700 128197417.43500      1526.28700                
G09  24303695.66100 127716782.71700      -547.07700                
G14  20705061.06300 108805830.26700      -359.58700                
G18  21840187.54700 114770960.19800      2517.73600                
G19  21705484.26100 114063089.65200     -2256.85300                
G22  23566812.75600 123844436.91300      2940.21700                
G23  20786654.89700 109234608.75500     -1264.03500                
G27  21214715.49300 111484082.37000      1792.33000                
G28  24272354.11600 127552081.78500     -3099.49400                
E01        25.41700       133.56600       -12.60100                
E02        16.88200        88.71700       -15.10900                
E03         4.57100        24.02200        -3.80700                
E04        10.85100        57.02400        14.29500                
E05        15.64400        82.21100         5.74800                
E06        22.55800       118.54300        -6.55000                
> 2025 04 22 14 03 56.0000000  0 15
G03  24394866.80800 128195890.32700      1528.08000                
G09  24303800.16100 127717331.86800      -551.28800                
G14  20705129.67200 108806190.80800      -361.57800                
G18  21839708.70000 114768443.84100      2514.90700                
G19  21705913.51700 114065345.41000     -2254.59000                
G22  23566253.43700 123841497.67300      2938.10700                
G23  20786895.42000 109235872.71200     -1263.82200                
G27  21214374.28000 111482289.28500      1793.84900                
G28  24272943.92000 127555181.22800     -3099.26200                
E01        27.56700       144.86400        -9.88600                
E02        19.54400       102.70200       -12.74100                
E03         6.04400        31.76100       -10.19800                
E04         8.30900        43.66400        12.30500                
E05        14.59400        76.69400         5.39500                
E06        23.63100       124.18100        -4.59700                
> 2025 04 22 14 03 57.0000000  0 15
G03  24394575.78500 128194360.99300      1530.71000                
G09  24303905.49100 127717885.37800      -555.75500                
G14  20705198.70400 108806553.57100      -364.01300                
G18  21839230.42200 114765930.47300      2511.78700                
G19  21706342.30300 114067598.69400     -2251.93300                
G22  23565694.59800 123838560.95600      2935.19400                
G23  20787135.87000 109237136.28600     -1263.27800                
G27  21214032.77500 111480494.66600      1795.37400                
G28  24273533.60100 127558280.02200     -3098.20800                
E01        29.14300       153.14600        -6.59700                
E02        21.69300       113.99700        -9.76800                
E03         8.08300        42.47500       -10.70000                
E04         6.22500        32.71000         9.40800                
E05        13.54400        71.17500         5.77300                
E06        24.26300       127.50400        -1.94600                
> 2025 04 22 14 03 58.0000000  0 15
G03  24394284.19800 128192828.69000      1533.98000                
G09  24304011.67600 127718443.38400      -560.24100                
G14  20705268.23200 108806918.94700      -366.78500                
G18  21838752.75100 114763420.29700      2508.55300                
G19  21706770.56000 114069849.20200     -2249.07000                
G22  23565136.37800 123835627.48600      2931.64600                
G23  20787376.19000 109238399.17500     -1262.46100                
G27  21213690.99100 111478698.57500      1796.77400                
G28  24274123.01000 127561377.38500     -3096.41800                
E01        30.05300       157.92900        -2.92300                
E02        23.23800       122.11600        -6.42900                
E03        10.00600        52.58000        -9.37000                
E04         4.83300        25.39900         4.85200                
E05        12.35000        64.90100         6.88300                
E06        24.34000       127.90600         1.20600                
> 2025 04 22 14 03 59.0000000  0 15
G03  24393991.94500 128191292.89300      1537.65700                
G09  24304118.69700 127719005.78500      -564.50600                
G14  20705338.31100 108807287.21200      -369.76800                
G18  21838275.69200 114760913.33400      2505.39400                
G19  21707198.26900 114072096.82600     -2246.20000                
G22  23564578.87600 123832697.79700      2927.67100                
G23  20787616.33300 109239661.13900     -1261.44300                
G27  21213348.96100 111476901.19800      1797.92500                
G28  24274712.01800 127564472.64400     -3094.02400                
E01        30.24400       158.93500         0.92300                
E02        24.13200       126.81600        -2.97300                
E03        11.62700        61.10300        -7.68000                
E04         4.50800        23.69200        -1.60400                
E05        10.89300        57.24400         8.48300                
E06        23.78700       125.00300         4.62300                
> 2025 04 22 14 04  0.0000000  0 15
G03  24393698.97500 128189753.32500      1541.47800                
G09  24304226.49100 127719572.24700      -568.32500                
G14  20705408.96600 108807658.50600      -372.82000                
G18  21837799.21200 114758409.41600      2502.49100                
G19  21707625.44700 114074341.66000     -2243.52200                
G22  23564022.15300 123829772.19700      2923.50500                
G23  20787856.27100 109240922.02000     -1260.31000                
G27  21213006.74500 111475102.84000      1798.72000                
G28  24275300.52600 127567565.27500     -3091.19300                
E01        29.70500       156.10200         4.71400                
E02        24.37800       128.10700         0.34900                
E03        12.94700        68.03700        -6.27100                
E04         5.39000        28.32400        -7.30100                
E05         9.11900        47.92200        10.10900                
E06        22.57900       118.65400         8.05500                
> 2025 04 22 14 04  1.0000000  0 15
G03  24393405.28600 128188209.97500      1545.17600                
G09  24304334.95400 127720142.22100      -571.50200                
G14  20705480.19700 108808032.82700      -375.79800                
G18  21837323.24700 114755908.20200      2500.01100                
G19  21708052.14800 114076583.99100     -2241.22500                
G22  23563466.22100 123826850.75600      2919.39600                
G23  20788095.99000 109242181.74900     -1259.15500                
G27  21212664.41800 111473303.90100      1799.07300                
G28  24275888.47000 127570654.93800     -3088.12200                
E01        28.46800       149.59800         8.23000                
E02        24.02400       126.24600         3.28900                
E03        14.05500        73.85800        -5.49500                
E04         7.15200        37.58300       -10.93800                
E05         7.09900        37.30700        10.85100                
E06        20.73700       108.97200        11.24900                
> 2025 04 22 14 04  2.0000000  0 15
G03  24393110.92500 128186663.10000      1548.48700                
G09  24304443.94600 127720714.98200      -573.87700                
G14  20705551.97600 108808410.03000      -378.56000                
G18  21836847.70300 114753409.19900      2498.09300                
G19  21708478.46200 114078824.28600     -2239.47300                
G22  23562911.04700 123823933.29500      2915.58500                
G23  20788335.49400 109243440.35200     -1258.07200                
G27  21212322.07100 111471504.85600      1798.92600                
G28  24276475.82200 127573741.49700     -3085.02100                
E01        26.60400       139.80300        11.26500                
E02        23.16400       121.73000         5.62800                
E03        15.08700        79.28400        -5.48200                
E04         9.47600        49.79900       -13.34700                
E05         5.19300        27.28800         8.25000                
E06        18.32800        96.31600        13.96300                
> 2025 04 22 14 04  3.0000000  0 15
G03  24392815.99000 128185113.20700      1551.17400                
G09  24304553.30600 127721289.67200      -575.34400                
G14  20705624.25000 108808789.83300      -380.98100                
G18  21836372.46100 114750911.78600      2496.84300                
G19  21708904.50500 114081063.15600     -2238.39600                
G22  23562356.55100 123821019.40000      2912.29900                
G23  20788574.80600 109244697.94600     -1257.15200                
G27  21211979.80300 111469706.22200      1798.25100                
G28  24277062.59900 127576825.02900     -3082.10300                
E01        24.22200       127.28500        13.65100                
E02        21.93100       115.24900         7.19500                
E03        16.18200        85.03900        -6.11000                
E04        12.18400        64.02900       -14.99500                
E05         4.49000        23.59400        -2.19100                
E06        15.46800        81.28500        15.95700                
> 2025 04 22 14 04  4.0000000  0 15
G03  24392520.62000 128183561.02500      1553.03700                
G09  24304662.85400 127721865.34900      -575.85000                
G14  20705696.94400 108809171.84100      -382.95400                
G18  21835897.38800 114748415.26100      2496.32300                
G19  21709330.41400 114083301.32600     -2238.08200                
G22  23561802.61500 123818108.44600      2909.73000                
G23  20788813.96500 109245954.73400     -1256.47300                
G27  21211637.71200 111467908.52500      1797.05300                
G28  24277648.85400 127579905.81900     -3079.56900                
E01        21.45700       112.75900        15.26500                
E02        20.48100       107.62700         7.90500                
E03        17.43100        91.60000        -7.02200                
E04        15.13800        79.55100       -15.92500                
E05         6.00900        31.57700       -12.55100                
E06        12.31800        64.73100        16.95700                
> 2025 04 22 14 04  5.0000000  0 15
G03  24392224.98500 128182007.45400      1553.93000                
G09  24304772.40700 127722441.05400      -575.40500                
G14  20705769.96400 108809555.56600      -384.40200                
G18  21835422.34300 114745918.88200      2496.55200                
G19  21709756.34100 114085539.58400     -2238.57400                
G22  23561249.08800 123815199.64000      2908.02500                
G23  20789053.02300 109247210.99400     -1256.10200                
G27  21211295.89700 111466112.27400      1795.37100                
G28  24278234.67700 127582984.34200     -3077.59600                
E01        18.46500        97.03600        16.04000                
E02        18.97500        99.71300         7.80100                
E03        18.84400        99.02500        -7.76000                
E04        18.19500        95.61600       -16.06800                
E05         8.83100        46.40500       -16.33000                
E06         9.10700        47.85600        16.47600                
> 2025 04 22 14 04  6.0000000  0 15
G03  24391929.28000 128180453.51500      1553.76500                
G09  24304881.78900 127723015.86200      -574.07400                
G14  20705843.20600 108809940.45600      -385.28100                
G18  21834947.18400 114743421.90900      2497.50100                
G19  21710182.43700 114087778.73300     -2239.86100                
G22  23560695.79500 123812292.06600      2907.27800                
G23  20789292.04300 109248467.05500     -1256.08400                
G27  21210954.44300 111464317.91900      1793.27200                
G28  24278820.19000 127586061.23400     -3076.32700                
E01        15.40700        80.96200        15.97000                
E02        17.55000        92.22600         7.10000                
E03        20.34800       106.92800        -7.92700                
E04        21.20000       111.40500       -15.36900                
E05        12.03200        63.23000       -16.98600                
E06         6.22500        32.71200        13.09800                
> 2025 04 22 14 04  7.0000000  0 15
G03  24391633.71000 128178900.28200      1552.51900                
G09  24304990.84400 127723588.94700      -571.98200                
G14  20705916.56000 108810325.93300      -385.57900                
G18  21834471.78300 114740923.65500      2499.09700                
G19  21710608.84900 114090019.54600     -2241.88500                
G22  23560142.55000 123809384.74300      2907.52300                
G23  20789531.09600 109249723.28600     -1256.44300                
G27  21210613.42000 111462525.83200      1790.85100                
G28  24279405.53700 127589137.25200     -3075.86100                
E01        12.43800        65.36100        15.10600                
E02        16.28600        85.58400         6.18500                
E03        21.80900       114.61000        -7.29300                
E04        23.99100       126.07200       -13.82700                
E05        15.19900        79.87000       -16.09100                
E06         4.53700        23.84100         3.35800                
> 2025 04 22 14 04  8.0000000  0 15
G03  24391338.47600 128177348.81900      1550.23800                
G09  24305099.44100 127724159.62700      -569.29600                
G14  20705989.91800 108810711.42900      -385.32400                
G18  21833996.02400 114738423.52900      2501.22500                
G19  21711035.70900 114092262.70900     -2244.54200                
G22  23559589.16500 123806476.68700      2908.73400                
G23  20789770.25300 109250980.06500     -1257.17900                
G27  21210272.88000 111460736.28100      1788.22200                
G28  24279990.87600 127592213.22800     -3076.24600                
E01         9.70300        50.98900        13.52100                
E02        15.18000        79.77300         5.51500                
E03        23.06900       121.22600        -5.80000                
E04        26.41300       138.79900       -11.50500                
E05        18.09200        95.07400       -14.17200                
E06         5.05900        26.58400        -7.68600                
> 2025 04 22 14 04  9.0000000  0 15
G03  24391043.76700 128175800.11200      1547.03200                
G09  24305207.48600 127724727.41000      -566.22500                
G14  20706063.17900 108811096.41800      -384.57700                
G18  21833519.82200 114735921.06800      2503.74000                
G19  21711463.12300 114094508.78700     -2247.68700                
G22  23559035.46500 123803566.97100      2910.82200                
G23  20790009.58500 109252237.76000     -1258.26900                
G27  21209932.85000 111458949.41200      1785.51000                
G28  24280576.36900 127595290.01500     -3077.47800                
E01         7.33900        38.56400        11.18800                
E02        14.14700        74.34500         5.46200                
E03        23.96700       125.94800        -3.52400                
E04        28.32700       148.86000        -8.52100                
E05        20.54600       107.96800       -11.51300                
E06         6.91700        36.35100       -10.81500                
> 2025 04 22 14 04 10.0000000  0 15
G03  24390749.74300 128174255.00500      1543.06800                
G09  24305314.92900 127725292.02500      -562.99800                
G14  20706136.25700 108811480.44800      -383.42700                
G18  21833043.11700 114733415.96900      2506.47000                
G19  21711891.16900 114096758.18300     -2251.14700                
G22  23558481.29400 123800654.78600      2913.64600                
G23  20790249.15400 109253496.70400     -1259.66900                
G27  21209593.33300 111457165.24000      1782.84900                
G28  24281162.17300 127598368.43700     -3079.50000                
E01         5.51700        28.99000         7.69700                
E02        13.05200        68.59000         6.17300                
E03        24.37000       128.06600        -0.62800                
E04        29.62400       155.67400        -5.04000                
E05        22.44200       117.93200        -8.35100                
E06         8.94900        47.02600       -10.23000                
> 2025 04 22 14 04 11.0000000  0 15
G03  24390456.52900 128172714.15400      1538.56000                
G09  24305421.76100 127725853.43400      -559.85600                
G14  20706209.08800 108811863.17700      -381.99300                
G18  21832565.88800 114730908.11000      2509.23100                
G19  21712319.88800 114099011.11500     -2254.72800                
G22  23557926.53100 123797739.48600      2917.01800                
G23  20790489.01400 109254757.17700     -1261.31300                
G27  21209254.30800 111455383.65100      1780.36600                
G28  24281748.42900 127601449.23300     -3082.20700                
E01         4.54100        23.86300         2.18600                
E02        11.75600        61.77900         7.53800                
E03        24.18000       127.06900         2.67000                
E04        30.22600       158.84100        -1.26400                
E05        23.70700       124.58400        -4.93000                
E06        10.75000        56.48900        -8.63500                
> 2025 04 22 14 04 12.0000000  0 15
G03  24390164.20500 128171177.98000      1533.75600                
G09  24305528.02300 127726411.84200      -557.03300                
G14  20706281.62900 108812244.38300      -380.40600                
G18  21832088.14400 114728397.55100      2511.83800                
G19  21712749.28400 114101267.60500     -2258.22800                
G22  23557371.09100 123794820.63200      2920.71500                
G23  20790729.20400 109256019.38300     -1263.12300                
G27  21208915.72900 111453604.40600      1778.17900                
G28  24282335.25400 127604533.01800     -3085.45000                
E01         4.75700        24.99600        -4.33900                
E02        10.16300        53.40500         9.22300                
E03        23.34400       122.67500         6.12500                
E04        30.10000       158.17600         2.58700                
E05        24.31700       127.78900        -1.50100                
E06        12.23400        64.29000        -7.00900                
> 2025 04 22 14 04 13.0000000  0 15
G03  24389872.80200 128169646.64800      1528.92300                
G09  24305633.79500 127726967.67800      -554.74500                
G14  20706353.86500 108812623.98600      -378.81200                
G18  21831609.93300 114725884.53600      2514.11400                
G19  21713179.32200 114103527.47200     -2261.45000                
G22  23556814.93600 123791898.01700      2924.49700                
G23  20790969.74700 109257283.44500     -1265.00800                
G27  21208577.53000 111451827.15700      1776.38800                
G28  24282922.73200 127607620.24000     -3089.04700                
E01         6.06900        31.89500        -9.08700                
E02         8.26300        43.42100        10.62400                
E03        21.85600       114.85200         9.48400                
E04        29.25200       153.71800         6.28500                
E05        24.29400       127.66700         1.68400                
E06        13.44700        70.66400        -5.84300                
> 2025 04 22 14 04 14.0000000  0 15
G03  24389582.30000 128168120.05200      1524.32800                
G09  24305739.19700 127727521.57200      -553.17400                
G14  20706425.80900 108813002.05200      -377.35300                
G18  21831131.33400 114723369.47800      2515.90300                
G19  21713609.93300 114105790.34600     -2264.21600                
G22  23556258.07300 123788971.68100      2928.11500                
G23  20791210.64800 109258549.39000     -1266.87300                
G27  21208239.62800 111450051.46900      1775.06700                
G28  24283510.91300 127610711.15100     -3092.79500                
E01         8.10400        42.58700       -12.09100                
E02         6.21800        32.67500        10.39500                
E03        19.75700       103.82100        12.49900                
E04        27.73100       145.72900         9.61600                
E05        23.70700       124.58100         4.38900                
E06        14.50400        76.21900        -5.39600                
> 2025 04 22 14 04 15.0000000  0 15
G03  24389292.63000 128166597.82500      1520.22500                
G09  24305844.38000 127728074.31200      -552.45700                
G14  20706497.49800 108813378.78300      -376.16500                
G18  21830652.45000 114720852.92600      2517.08000                
G19  21714041.01400 114108055.69500     -2266.37500                
G22  23555700.55600 123786041.90900      2931.33300                
G23  20791451.89500 109259817.15200     -1268.62600                
G27  21207901.92800 111448276.84600      1774.26200                
G28  24284099.80500 127613805.79700     -3096.48000                
E01        10.61200        55.76800       -14.14700                
E02         4.64400        24.40300         4.74900                
E03        17.13500        90.04800        14.93100                
E04        25.62700       134.67300        12.38800                
E05        22.66700       119.11800         6.41000                
E06        15.54800        81.70700        -5.69200                
> 2025 04 22 14 04 16.0000000  0 15
G03  24389003.67600 128165079.36000      1516.83700                
G09  24305949.51500 127728626.80000      -552.67900                
G14  20706568.99700 108813754.51200      -375.36700                
G18  21830173.40800 114718335.54200      2517.55800                
G19  21714472.43900 114110322.85000     -2267.81400                
G22  23555142.48200 123783109.21000      2933.93700                
G23  20791693.45800 109261086.57300     -1270.17900                
G27  21207564.33200 111446502.76400      1773.98500                
G28  24284689.37500 127616904.00800     -3099.89300                
E01        13.44300        70.64500       -15.48900                
E02         4.90000        25.74900        -7.58800                
E03        14.12600        74.23500        16.53400                
E04        23.06200       121.18900        14.45200                
E05        21.32000       112.03600         7.60900                
E06        16.70300        87.77500        -6.49700                
> 2025 04 22 14 04 17.0000000  0 15
G03  24388715.28400 128163563.85000      1514.34100                
G09  24306054.78400 127729179.99200      -553.86600                
G14  20706640.38900 108814129.67700      -375.05200                
G18  21829694.34500 114715818.05000      2517.29300                
G19  21714904.06400 114112591.05300     -2268.46400                
G22  23554583.98500 123780174.28700      2935.75500                
G23  20791935.29100 109262357.41600     -1271.45800                
G27  21207226.73900 111444728.70100      1774.21900                
G28  24285279.55300 127620005.41600     -3102.84200                
E01        16.46000        86.49900       -16.08700                
E02         7.14400        37.54100       -14.77100                
E03        10.91600        57.36300        16.97800                
E04        20.17900       106.04000        15.70600                
E05        19.82600       104.18700         7.95200                
E06        18.02600        94.73000        -7.38900                
> 2025 04 22 14 04 18.0000000  0 15
G03  24388427.27200 128162050.33500      1512.86200                
G09  24306160.36900 127729734.84200      -555.98300                
G14  20706711.77200 108814504.79900      -375.28600                
G18  21829215.40300 114713301.19500      2516.28700                
G19  21715335.73500 114114859.50100     -2268.30600                
G22  23554025.22700 123777237.99300      2936.66100                
G23  20792177.33700 109263629.37700     -1272.40700                
G27  21206889.05700 111442954.17000      1774.91000                
G28  24285870.23500 127623109.47000     -3105.16300                
E01        19.51400       102.54700       -15.86800                
E02        10.20300        53.61800       -16.86300                
E03         7.78200        40.89500        15.52500                
E04        17.13800        90.06000        16.11200                
E05        18.34100        96.38200         7.55200                
E06        19.49200       102.43000        -7.91900                
> 2025 04 22 14 04 19.0000000  0 15
G03  24388139.43900 128160537.76400      1512.45800                
G09  24306266.43800 127730292.23900      -558.94000                
G14  20706783.25500 108814880.44300      -376.09900                
G18  21828736.72000 114710785.69800      2514.58900                
G19  21715767.30200 114117127.39900     -2267.37100                
G22  23553466.38900 123774301.28100      2936.58600                
G23  20792419.52900 109264902.10500     -1272.98700                
G27  21206551.20500 111441178.75100      1775.98000                
G28  24286461.28900 127626215.47800     -3106.73100                
E01        22.44500       117.95200       -14.80000                
E02        13.42600        70.55200       -16.74600                
E03         5.26800        27.68400         9.84400                
E04        14.09900        74.09300        15.68900                
E05        16.98100        89.23300         6.70400                
E06        20.99600       110.33500        -7.75700                
> 2025 04 22 14 04 20.0000000  0 15
G03  24387851.58100 128159025.06000      1513.12200                
G09  24306373.13800 127730852.95400      -562.59200                
G14  20706854.94700 108815257.18800      -377.48400                
G18  21828258.41900 114708272.21000      2512.29000                
G19  21716198.62200 114119394.00400     -2265.73800                
G22  23552907.66000 123771365.14000      2935.52400                
G23  20792661.79600 109266175.22200     -1273.18600                
G27  21206213.12300 111439402.11400      1777.32600                
G28  24287052.56300 127629322.64300     -3107.47000                
E01        25.09500       131.87300       -12.91000                
E02        16.49700        86.69400       -15.36500                
E03         4.49400        23.61700        -2.26600                
E04        11.21500        58.93600        14.50500                
E05        15.79100        82.98000         5.83900                
E06        22.39000       117.66000        -6.74800                
> 2025 04 22 14 04 21.0000000  0 15
G03  24387563.50000 128157511.18500      1514.78100                
G09  24306480.58500 127731417.59200      -566.75200                
G14  20706926.95400 108815635.59000      -379.40200                
G18  21827780.60300 114705761.26700      2509.52000                
G19  21716629.57500 114121658.67700     -2263.53100                
G22  23552349.22300 123768430.53500      2933.52700                
G23  20792904.06400 109267448.35000     -1273.01300                
G27  21205874.76700 111437624.04300      1778.82800                
G28  24287643.89600 127632430.11900     -3107.35200                
E01        27.31200       143.52500       -10.28300                
E02        19.21700       100.98700       -13.09500                
E03         5.79100        30.43200        -9.81900                
E04         8.62400        45.31700        12.61200                
E05        14.73100        77.41000         5.40300                
E06        23.51100       123.55100        -4.90000                
> 2025 04 22 14 04 22.0000000  0 15
G03  24387275.01900 128155995.20800      1517.29900                
G09  24306588.85500 127731986.55300      -571.20100                
G14  20706999.37100 108816016.14400      -381.77600                
G18  21827303.34600 114703253.26700      2506.43500                
G19  21717060.06600 114123920.92000     -2260.90700                
G22  23551791.24700 123765498.34900      2930.70900                
G23  20793146.26600 109268721.13300     -1272.50100                
G27  21205536.12100 111435844.44600      1780.35500                
G28  24288235.12600 127635537.05800     -3106.40500                
E01        28.97000       152.23900        -7.06100                
E02        21.44100       112.67300       -10.18900                
E03         7.81100        41.04900       -10.79100                
E04         6.46800        33.99000         9.86500                
E05        13.68900        71.93500         5.67800                
E06        24.20900       127.22000        -2.33200                
> 2025 04 22 14 04 23.0000000  0 15
G03  24386985.99200 128154476.36000      1520.48800                
G09  24306697.98000 127732560.01100      -575.70300                
G14  20707072.27600 108816399.26000      -384.50600                
G18  21826826.69200 114700748.43400      2503.21500                
G19  21717490.03200 114126180.40800     -2258.05200                
G22  23551233.87200 123762569.32600      2927.23200                
G23  20793388.34300 109269993.25600     -1271.70500                
G27  21205197.19300 111434063.36500      1781.77600                
G28  24288826.10400 127638642.66600     -3104.70700                
E01        29.97300       157.50800        -3.42600                
E02        23.07000       121.23300        -6.88500                
E03         9.76600        51.32200        -9.58600                
E04         4.96500        26.09300         5.58700                
E05        12.52200        65.80200         6.70000                
E06        24.36500       128.03700         0.76700                
> 2025 04 22 14 04 24.0000000  0 15
G03  24386696.31200 128152954.08200      1524.11700                
G09  24306807.94800 127733137.89700      -580.01800                
G14  20707145.72400 108816785.23200      -387.46500                
G18  21826350.65000 114698246.81300      2500.04400                
G19  21717919.44900 114128437.00600     -2255.16300                
G22  23550677.20600 123759644.02500      2923.30100                
G23  20793630.24700 109271264.47000     -1270.69600                
G27  21204858.01400 111432280.96800      1782.96700                
G28  24289416.69700 127641746.25100     -3102.38400                
E01        30.26100       159.02300         0.41000                
E02        24.05200       126.39200        -3.42900                
E03        11.43100        60.06900        -7.89900                
E04         4.47900        23.53800        -0.71600                
E05        11.10500        58.35500         8.25700                
E06        23.89800       125.58600         4.16300                
> 2025 04 22 14 04 25.0000000  0 15
G03  24386405.92000 128151428.06200      1527.92800                
G09  24306918.70100 127733719.90800      -583.91700                
G14  20707219.74600 108817174.22100      -390.51600                
G18  21825875.19100 114695748.26100      2497.10600                
G19  21718348.32800 114130690.78400     -2252.44300                
G22  23550121.31300 123756722.78700      2919.14800                
G23  20793871.94500 109272534.60200     -1269.55900                
G27  21204518.63900 111430497.54100      1783.81600                
G28  24290006.80100 127644847.26800     -3099.60000                
E01        29.81800       156.69500         4.22200                
E02        24.38100       128.12500        -0.07500                
E03        12.78700        67.19400        -6.42700                
E04         5.21300        27.39600        -6.67500                
E05         9.37200        49.25200         9.91600                
E06        22.77700       119.69400         7.60800                
> 2025 04 22 14 04 26.0000000  0 15
G03  24386114.80700 128149898.25100      1531.65300                
G09  24307030.14100 127734305.52400      -587.19800                
G14  20707294.34600 108817566.24600      -393.51300                
G18  21825400.25600 114693252.46000      2494.56900                
G19  21718776.72100 114132942.00500     -2250.08100                
G22  23549566.21100 123753805.71100      2915.01900                
G23  20794113.42300 109273803.57300     -1268.38700                
G27  21204179.14200 111428713.47400      1784.23600                
G28  24290596.34600 127647945.35000     -3096.54700                
E01        28.67000       150.66100         7.78600                
E02        24.10200       126.65900         2.92900                
E03        13.91500        73.12500        -5.55400                
E04         6.88100        36.15700       -10.54400                
E05         7.37400        38.74800        10.86200                
E06        21.01600       110.43900        10.84800                
> 2025 04 22 14 04 27.0000000  0 15
G03  24385823.01400 128148364.87000      1535.02800                
G09  24307142.13200 127734894.04300      -589.69700                
G14  20707369.50000 108817961.18300      -396.31600                
G18  21824925.75400 114690758.93400      2492.57600                
G19  21719204.71300 114135191.11500     -2248.24600                
G22  23549011.87400 123750892.64900      2911.15900                
G23  20794354.68100 109275071.39500     -1267.27600                
G27  21203839.61200 111426929.23100      1784.16200                
G28  24291185.30100 127651040.33100     -3093.43500                
E01        26.88400       141.27400        10.89600                
E02        23.30300       122.45900         5.35900                
E03        14.94900        78.55900        -5.44200                
E04         9.14300        48.04500       -13.07500                
E05         5.41000        28.43200         8.96500                
E06        18.67700        98.14800        13.63900                
> 2025 04 22 14 04 28.0000000  0 15
G03  24385530.63200 128146828.39100      1537.81000                
G09  24307254.51500 127735484.61800      -591.29800                
G14  20707445.15800 108818358.77000      -398.79500                
G18  21824451.57000 114688267.08200      2491.23700                
G19  21719632.41600 114137438.71100     -2247.07300                
G22  23548458.22800 123747983.21600      2907.79600                
G23  20794595.74100 109276338.17400     -1266.31700                
G27  21203500.14500 111425145.32200      1783.56300                
G28  24291773.67600 127654132.25900     -3090.47700                
E01        24.56300       129.07900        13.37700                
E02        22.11100       116.19300         7.03500                
E03        16.02900        84.23500        -6.00100                
E04        11.80800        62.05000       -14.81700                
E05         4.45700        23.42000        -0.43400                
E06        15.86900        83.39000        15.74300                
> 2025 04 22 14 04 29.0000000  0 15
G03  24385237.79300 128145289.51300      1539.79500                
G09  24307367.11100 127736076.31800      -591.94100                
G14  20707521.24800 108818758.62700      -400.84000                
G18  21823977.57300 114685776.21200      2490.62000                
G19  21720059.96700 114139685.50800     -2246.65800                
G22  23547905.15800 123745076.81500      2905.12600                
G23  20794836.64000 109277604.10600     -1265.59300                
G27  21203160.84300 111423362.27600      1782.44000                
G28  24292361.51800 127657221.39300     -3087.87700                
E01        21.84100       114.77500        15.09800                
E02        20.68000       108.67400         7.86000                
E03        17.25500        90.67600        -6.90100                
E04        14.73700        77.44200       -15.84500                
E05         5.70300        29.97100       -11.62200                
E06        12.74500        66.97800        16.89500                
> 2025 04 22 14 04 30.0000000  0 15
G03  24384944.66600 128143749.11700      1540.82600                
G09  24307479.73900 127736668.17900      -591.62500                
G14  20707597.68000 108819160.27800      -402.37000                
G18  21823503.62200 114683285.58400      2490.75000                
G19  21720487.51600 114141932.28900     -2247.04600                
G22  23547352.51700 123742172.67000      2903.30400                
G23  20795077.42900 109278869.45900     -1265.17100                
G27  21202821.80200 111421580.60200      1780.82600                
G28  24292948.91400 127660308.18100     -3085.81500                
E01        18.87000        99.16200        15.98600                
E02        19.17200       100.75200         7.85600                
E03        18.64900        97.99900        -7.68700                
E04        17.78900        93.48100       -16.09700                
E05         8.42100        44.25400       -16.06700                
E06         9.52500        50.05600        16.65800                
