     3.05           OBSERVATION DATA    M                   RINEX VERSION / TYPE
GSPF V1.7.0                             20250903 143845 UTC PGM / RUN BY / DATE
V101                                                        MARKER NAME
NON_GEODETIC                                                MARKER TYPE
                                                            OBSERVER / AGENCY
                                                            REC # / TYPE / VERS
                                                            ANT # / TYPE
  4181974.0519   860791.0227  4723076.5110                  APPROX POSITION XYZ
        0.0000        0.0000        0.0000                  ANTENNA: DELTA H/E/N
G    4 C1C L1C D1C S1C                                      SYS / # / OBS TYPES
E    4 C1B L1B D1B S1B                                      SYS / # / OBS TYPES
  2025     4    22    14     0    1.0000000     GPS         TIME OF FIRST OBS
G L1C  0.00000   0                                          SYS / PHASE SHIFT
E L1B  0.00000   0                                          SYS / PHASE SHIFT
 C1C    0.000 C1P    0.000 C2C    0.000 C2P    0.000        GLONASS COD/PHS/BIS
                                                            END OF HEADER
> 2025 04 22 14 00  1.0000000  0 16
G03  24466452.83500 128572077.43800      1656.14000                
G09  24282368.88200 127604709.73600      -387.37300                
G14  20692449.66300 108739556.91200      -196.19300                
G15  24879093.65300 130740519.57000     -4077.62700                
G18  21953157.98600 115364623.86500      2573.24300                
G19  21607163.02400 113546408.06700     -2176.45700                
G22  23698097.84800 124534344.73100      2971.83500                
G23  20732532.27100 108950192.43600     -1171.73300                
G27  21297647.76800 111919894.41700      1918.83600                
G28  24136642.28500 126838911.29800     -3003.20000                
E01         5.75400        30.23900       -12.42200                
E02        11.70700        61.51900        16.02200                
E03        31.26900       164.31900        12.55400                
E04        41.40700       217.59700         8.17600                
E05        33.17500       174.33600         2.39700                
E06        16.12100        84.71600        -7.78400                
> 2025 04 22 14 00  2.0000000  0 16
G03  24466138.55700 128570425.89500      1647.07200                
G09  24282442.14600 127605094.74300      -382.92800                
G14  20692486.62700 108739751.16000      -192.38100                
G15  24879869.68300 130744597.63600     -4078.26200                
G18  21952667.85400 115362048.20400      2577.86700                
G19  21607577.75000 113548587.46500     -2182.16300                
G22  23697531.57800 124531368.95800      2979.61300                
G23  20732755.54800 108951365.76600     -1174.91400                
G27  21297282.88100 111917976.92300      1916.33500                
G28  24137214.44900 126841918.04400     -3010.32700                
E01         8.83600        46.43200       -19.38500                
E02         8.29800        43.60700        19.25800                
E03        28.19900       148.18400        19.55700                
E04        39.12400       205.60000        15.64500                
E05        32.09200       168.64200         8.75700                
E06        17.42300        91.56000        -6.35000                
> 2025 04 22 14 00  3.0000000  0 16
G03  24465825.90600 128568782.90600      1639.15500                
G09  24282514.74200 127605476.23400      -380.40300                
G14  20692522.92300 108739941.89300      -189.22400                
G15  24880645.68300 130748675.54500     -4077.31600                
G18  21952176.97100 115359468.59600      2581.07500                
G19  21607993.44300 113550771.94700     -2186.55300                
G22  23696963.89900 124528385.78600      2986.51700                
G23  20732979.41300 108952542.18600     -1177.87000                
G27  21296918.35800 111916061.34400      1915.02700                
G28  24137787.96500 126844931.88900     -3017.29700                
E01        12.99700        68.29900       -24.08900                
E02         4.96000        26.06700        12.19000                
E03        23.90900       125.64100        25.25600                
E04        35.53900       186.75600        21.77100                
E05        29.95400       157.40900        13.35900                
E06        18.71400        98.34400        -7.65300                
> 2025 04 22 14 00  4.0000000  0 16
G03  24465514.59900 128567146.97700      1633.04900                
G09  24282587.06300 127605856.28700      -380.08300                
G14  20692558.70800 108740129.94300      -187.06900                
G15  24881421.35900 130752751.74900     -4074.87700                
G18  21951685.63800 115356886.62000      2582.56300                
G19  21608409.81600 113552960.00500     -2189.26800                
G22  23696395.04100 124525396.41700      2991.91300                
G23  20733203.80100 108953721.35100     -1180.36900                
G27  21296553.96500 111914146.44400      1914.97600                
G28  24138362.74500 126847952.37700     -3023.51800                
E01        17.90300        94.08400       -27.19000                
E02         5.58900        29.36900       -18.63600                
E03        18.71100        98.32800        28.98700                
E04        30.95600       162.67700        26.04600                
E05        27.15800       142.71500        15.59900                
E06        20.46100       107.52500       -10.89300                
> 2025 04 22 14 00  5.0000000  0 16
G03  24465204.24100 128565516.03100      1629.25700                
G09  24282659.54200 127606237.16500      -382.05200                
G14  20692594.19900 108740316.45200      -186.17300                
G15  24882196.44500 130756824.85200     -4071.16300                
G18  21951194.19800 115354304.08700      2582.17800                
G19  21608826.52900 113555149.84500     -2190.09400                
G22  23695825.34000 124522402.61900      2995.30300                
G23  20733428.60500 108954902.70600     -1182.22100                
G27  21296189.46500 111912230.98100      1916.13700                
G28  24138938.59500 126850978.48800     -3028.46500                
E01        23.22200       122.03400       -28.35900                
E02        10.39500        54.62400       -28.95600                
E03        13.05000        68.57700        29.95700                
E04        25.76400       135.39000        28.15300                
E05        24.18500       127.09500        15.20600                
E06        22.86200       120.14200       -14.17900                
> 2025 04 22 14 00  6.0000000  0 16
G03  24464894.35800 128563887.58900      1628.07100                
G09  24282732.60600 127606621.11800      -386.19600                
G14  20692629.65200 108740502.75800      -186.67900                
G15  24882970.72800 130760893.73900     -4066.50800                
G18  21950703.01000 115351722.87700      2579.93600                
G19  21609243.21500 113557339.54200     -2188.99000                
G22  23695255.21200 124519406.57600      2996.36800                
G23  20733653.69000 108956085.53200     -1183.29500                
G27  21295824.63900 111910313.81200      1918.35500                
G28  24139515.23100 126854008.73200     -3031.72700                
E01        28.55600       150.06200       -27.32000                
E02        16.06300        84.41400       -29.85700                
E03         7.62300        40.05700        25.69800                
E04        20.38500       107.12600        28.00600                
E05        21.51500       113.06400        12.56500                
E06        25.74600       135.29500       -15.73700                
> 2025 04 22 14 00  7.0000000  0 16
G03  24464584.44700 128562258.99200      1629.55500                
G09  24282806.64200 127607010.17900      -392.20000                
G14  20692665.33700 108740690.28500      -188.60800                
G15  24883744.06900 130764957.67300     -4061.33000                
G18  21950212.41200 115349144.76700      2576.01900                
G19  21609659.51500 113559527.21600     -2186.08300                
G22  23694685.11300 124516410.68800      2994.99400                
G23  20733878.89800 108957269.01200     -1183.52500                
G27  21295459.31100 111908393.99800      1921.38000                
G28  24140092.30500 126857041.27900     -3033.04200                
E01        33.47700       175.92500       -24.04200                
E02        21.54400       113.21700       -27.30100                
E03         4.46200        23.45000         2.36700                
E04        15.23800        80.07700        25.77000                
E05        19.46100       102.26700         9.04400                
E06        28.68800       150.75400       -14.73700                
> 2025 04 22 14 00  8.0000000  0 16
G03  24464274.01100 128560627.64300      1633.52900                
G09  24282881.96000 127607405.98100      -399.58900                
G14  20692701.51700 108740880.41300      -191.85100                
G15  24884516.41100 130769016.35900     -4056.09300                
G18  21949722.69400 115346571.28000      2570.75800                
G19  21610075.11300 113561711.19700     -2181.66600                
G22  23694115.50100 124513417.35600      2991.28900                
G23  20734104.07100 108958452.30300     -1182.92600                
G27  21295093.35500 111906470.88600      1924.89100                
G28  24140669.43700 126860074.12500     -3032.32500                
E01        37.57700       197.46900       -18.73700                
E02        26.30900       138.25400       -22.45000                
E03         6.57900        34.57100       -18.56100                
E04        10.68700        56.16200        21.80000                
E05        18.00100        94.59700         6.63900                
E06        31.19200       163.91400       -11.18900                
> 2025 04 22 14 00  9.0000000  0 16
G03  24463962.61300 128558991.23100      1639.59700                
G09  24282958.77000 127607809.61800      -407.76000                
G14  20692738.42200 108741074.35100      -196.18300                
G15  24885287.78900 130773069.97500     -4051.26600                
G18  21949234.06900 115344003.54200      2564.60300                
G19  21610489.75900 113563890.17800     -2176.16300                
G22  23693546.79300 124510428.77300      2985.56700                
G23  20734329.05700 108959634.61300     -1181.58200                
G27  21294726.71300 111904544.17100      1928.52300                
G28  24141246.24400 126863105.26900     -3029.67000                
E01        40.50700       212.86400       -11.83000                
E02        29.98600       157.57500       -15.97700                
E03        10.17800        53.48300       -17.94400                
E04         7.04400        37.01700        16.14400                
E05        16.77000        88.12500         6.77400                
E06        32.81400       172.44000        -5.57200                
> 2025 04 22 14 00 10.0000000  0 16
G03  24463649.90500 128557347.94300      1647.17000                
G09  24283037.15600 127608221.53800      -416.04100                
G14  20692776.23100 108741273.03600      -201.28300                
G15  24886058.32100 130777119.15200     -4047.28200                
G18  21948746.65900 115341442.18600      2558.08600                
G19  21610903.29600 113566063.32800     -2170.09700                
G22  23692979.32700 124507446.72100      2978.32100                
G23  20734553.72800 108960815.26800     -1179.64700                
G27  21294359.39800 111902613.91900      1931.90300                
G28  24141822.38200 126866132.89400     -3025.34300                
E01        42.01400       220.78700        -3.90200                
E02        32.33000       169.89700        -8.57400                
E03        13.19500        69.33800       -13.59100                
E04         4.77800        25.10900         6.65900                
E05        15.25600        80.17000         9.50800                
E06        33.22500       174.59900         1.42000                
> 2025 04 22 14 00 11.0000000  0 16
G03  24463335.67000 128555696.62500      1655.52900                
G09  24283117.07400 127608641.51000      -423.75200                
G14  20692815.05200 108741477.04300      -206.75900                
G15  24886828.20600 130781164.92000     -4044.49900                
G18  21948260.48000 115338887.29400      2551.77000                
G19  21611315.67000 113568230.36900     -2164.04000                
G22  23692413.33600 124504472.41700      2970.18400                
G23  20734777.99100 108961993.77700     -1177.32700                
G27  21293991.49300 111900680.56400      1934.67600                
G28  24142397.57000 126869155.52600     -3019.76400                
E01        41.97000       220.55600         4.36200                
E02        33.23800       174.66800        -1.00500                
E03        15.35700        80.70000        -9.30100                
E04         4.85300        25.50200        -7.36600                
E05        13.04800        68.56600        13.85200                
E06        32.23700       169.40400         9.00100                
> 2025 04 22 14 00 12.0000000  0 16
G03  24463019.83200 128554036.88400      1663.88200                
G09  24283198.35400 127609068.64100      -430.26200                
G14  20692854.91800 108741686.53900      -212.18800                
G15  24887597.69500 130785208.61500     -4043.16800                
G18  21947775.43900 115336338.38800      2546.20000                
G19  21611726.93800 113570391.59800     -2158.56700                
G22  23691848.92200 124501506.40200      2961.86500                
G23  20735001.79500 108963169.87200     -1174.86200                
G27  21293623.14200 111898744.86600      1936.54400                
G28  24142971.61800 126872172.16800     -3013.45900                
E01        40.37800       212.18900        12.25000                
E02        32.75300       172.11900         5.93000                
E03        16.84200        88.50600        -6.69300                
E04         7.21800        37.93100       -16.52500                
E05         9.98500        52.47000        18.13900                
E06        29.81300       156.66800        16.37100                
> 2025 04 22 14 00 13.0000000  0 16
G03  24462702.46700 128552369.12300      1671.44100                
G09  24283280.71600 127609501.45700      -435.04800                
G14  20692895.77800 108741901.26300      -217.14900                
G15  24888367.08000 130789251.76100     -4043.40800                
G18  21947291.34900 115333794.47700      2541.85400                
G19  21612137.26200 113572547.86500     -2154.19600                
G22  23691286.05100 124498548.49300      2954.09100                
G23  20735225.13600 108964343.53600     -1172.50600                
G27  21293254.54000 111896807.84700      1937.28900                
G28  24143544.44400 126875182.38800     -3007.02300                
E01        37.37500       196.40800        19.08200                
E02        31.07100       163.28200        11.44800                
E03        18.07300        94.97500        -6.71400                
E04        10.92100        57.39000       -22.06300                
E05         6.38200        33.53700        18.25800                
E06        26.06800       136.98700        22.77100                
> 2025 04 22 14 00 14.0000000  0 16
G03  24462383.79800 128550694.50500      1677.48400                
G09  24283363.79400 127609938.03500      -437.73900                
G14  20692937.50800 108742120.55400      -221.26400                
G15  24889136.66000 130793295.93000     -4045.20000                
G18  21946807.93900 115331254.14000      2539.10000                
G19  21612546.89400 113574700.49300     -2151.34900                
G22  23690724.55300 124495597.80000      2947.54000                
G23  20735448.05800 108965515.00100     -1170.50300                
G27  21292885.91200 111894870.69800      1936.79400                
G28  24144116.08000 126878186.36000     -3001.06100                
E01        33.22000       174.57000        24.28300                
E02        28.53000       149.92700        14.86300                
E03        19.55900       102.78300        -9.23000                
E04        15.51400        81.52500       -25.94500                
E05         4.49800        23.63900        -4.41800                
E06        21.25200       111.68000        27.51200                
> 2025 04 22 14 00 15.0000000  0 16
G03  24462064.17100 128549014.85200      1681.43000                
G09  24283447.16900 127610376.17300      -438.15300                
G14  20692979.91600 108742343.40700      -224.23000                
G15  24889906.71700 130797342.60700     -4048.38600                
G18  21946324.88200 115328715.66100      2538.16500                
G19  21612956.15300 113576851.16300     -2150.31300                
G22  23690164.13800 124492652.80300      2942.78000                
G23  20735670.65000 108966684.73000     -1169.06500                
G27  21292517.49900 111892934.67100      1935.05300                
G28  24144686.67300 126881184.84400     -2996.13500                
E01        28.26400       148.52700        27.43900                
E02        25.57900       134.41600        15.71400                
E03        21.65100       113.77700       -12.75400                
E04        20.68400       108.69600       -28.07200                
E05         7.89900        41.51200       -26.21000                
E06        15.74500        82.73900        29.91600                
> 2025 04 22 14 00 16.0000000  0 16
G03  24461744.02500 128547332.47600      1682.88000                
G09  24283530.40600 127610813.58800      -436.31200                
G14  20693022.76100 108742568.56400      -225.84800                
G15  24890677.49100 130801393.05300     -4052.68300                
G18  21945841.82400 115326177.17300      2539.11300                
G19  21613365.39800 113579001.76000     -2151.21100                
G22  23689604.42600 124489711.49300      2940.22000                
G23  20735893.03500 108967853.37300     -1168.35500                
G27  21292149.52800 111891000.97000      1932.16800                
G28  24145256.46500 126884179.12200     -2992.71600                
E01        22.92000       120.44400        28.35000                
E02        22.71300       119.35500        14.02700                
E03        24.34900       127.95300       -15.29500                
E04        26.06400       136.96500       -28.09500                
E05        13.37000        70.25700       -29.99900                
E06        10.08700        53.00700        28.74300                
> 2025 04 22 14 00 17.0000000  0 16
G03  24461423.85700 128545649.98000      1681.66300                
G09  24283613.09500 127611248.11700      -432.43600                
G14  20693065.78000 108742794.62500      -226.03700                
G15  24891449.15900 130805448.19600     -4057.70800                
G18  21945358.41300 115323636.83300      2541.83900                
G19  21613774.99500 113581154.20900     -2153.99500                
G22  23689044.97200 124486771.54600      2940.07100                
G23  20736115.36300 108969021.71300     -1168.46900                
G27  21291782.19900 111889070.64300      1928.34700                
G28  24145825.77800 126887170.88100     -2991.14000                
E01        17.61400        92.56200        27.06400                
E02        20.34700       106.92400        10.69000                
E03        27.32400       143.59000       -15.54300                
E04        31.23300       164.13100       -25.86200                
E05        19.02000        99.94800       -28.84100                
E06         5.39700        28.35900        17.35700                
> 2025 04 22 14 00 18.0000000  0 16
G03  24461104.17100 128543970.01800      1677.84100                
G09  24283694.88200 127611677.91500      -426.93000                
G14  20693108.70000 108743020.17500      -224.84400                
G15  24892221.81800 130809508.54400     -4063.01500                
G18  21944874.33400 115321092.98100      2546.08000                
G19  21614185.28600 113583310.30100     -2158.44700                
G22  23688485.31600 124483830.53500      2942.33000                
G23  20736337.79400 108970190.59400     -1169.43300                
G27  21291415.66300 111887144.48700      1923.88100                
G28  24146394.98100 126890162.06400     -2991.57800                
E01        12.74100        66.95400        23.86600                
E02        18.63400        97.92200         7.51500                
E03        30.09600       158.15400       -13.15800                
E04        35.76900       187.96800       -21.47200                
E05        24.17700       127.04800       -24.98200                
E06         5.09600        26.78100       -13.33200                
> 2025 04 22 14 00 19.0000000  0 16
G03  24460785.43800 128542295.06600      1671.71200                
G09  24283775.51000 127612101.61600      -420.34400                
G14  20693151.27500 108743243.90900      -222.44200                
G15  24892995.47500 130813574.14100     -4068.13000                
G18  21944389.33500 115318544.29100      2551.43800                
G19  21614596.55400 113585471.53200     -2164.20000                
G22  23687925.01700 124480886.14300      2946.77900                
G23  20736560.48500 108971360.84400     -1171.19300                
G27  21291050.01200 111885222.97700      1919.11500                
G28  24146964.46000 126893154.69600     -2994.02100                
E01         8.63000        45.35300        19.07200                
E02        17.35600        91.20700         6.35800                
E03        32.18400       169.12600        -8.44100                
E04        39.28900       206.46500       -15.25700                
E05        28.40500       149.27000       -19.19200                
E06         8.50300        44.68200       -19.19000                
> 2025 04 22 14 00 20.0000000  0 16
G03  24460468.05300 128540627.19400      1663.78000                
G09  24283854.83200 127612518.45700      -413.32200                
G14  20693193.30000 108743464.74800      -219.10800                
G15  24893770.05100 130817644.56700     -4072.59900                
G18  21943903.24900 115315989.89000      2557.41400                
G19  21615009.00400 113587638.96900     -2170.77200                
G22  23687363.69500 124477936.37300      2953.00200                
G23  20736783.57700 108972533.20300     -1173.62600                
G27  21290685.26700 111883306.22700      1914.42400                
G28  24147534.58100 126896150.70200     -2998.28100                
E01         5.62400        29.55600        11.90100                
E02        16.03800        84.27800         7.94000                
E03        33.19900       174.46000        -2.00300                
E04        41.49200       218.04300        -7.73000                
E05        31.40000       165.01100       -12.13700                
E06        11.87600        62.40800       -15.77100                
> 2025 04 22 14 00 21.0000000  0 16
G03  24460152.29600 128538967.88400      1654.70700                
G09  24283932.83100 127612928.34300      -406.54900                
G14  20693234.62900 108743681.93500      -215.20500                
G15  24894545.38400 130821718.96900     -4076.02400                
G18  21943416.01000 115313429.43400      2563.45500                
G19  21615422.73800 113589813.15900     -2177.60700                
G22  23686801.06400 124474979.72600      2960.42800                
G23  20737007.18300 108973708.25700     -1176.54900                
G27  21290321.37700 111881393.97600      1910.17700                
G28  24148105.65900 126899151.73800     -3004.00900                
E01         4.47700        23.52700        -0.83000                
E02        14.19500        74.59700        11.69000                
E03        32.88400       172.80900         5.40100                
E04        42.18800       221.70200         0.46500                
E05        32.99000       173.36500        -4.54800                
E06        14.43900        75.87700       -11.19800                
> 2025 04 22 14 00 22.0000000  0 16
G03  24459838.31500 128537317.90100      1645.26100                
G09  24284009.61800 127613331.86000      -400.68900                
G14  20693275.19400 108743895.10600      -211.14600                
G15  24895321.24500 130825796.14300     -4078.10000                
G18  21942927.66000 115310863.13800      2569.00200                
G19  21615837.75200 113591994.07200     -2184.12500                
G22  23686236.95800 124472015.33200      2968.37500                
G23  20737231.37300 108974886.38600     -1179.73300                
G27  21289958.22800 111879485.61200      1906.70000                
G28  24148677.93000 126902159.03900     -3010.72300                
E01         5.88900        30.94900       -12.92200                
E02        11.53500        60.61400        16.26900                
E03        31.13300       163.60400        12.96900                
E04        41.31800       217.12600         8.61900                
E05        33.14700       174.19100         2.78700                
E06        16.20300        85.14800        -7.63500                
> 2025 04 22 14 00 23.0000000  0 16
G03  24459526.10300 128535677.21700      1636.23900                
G09  24284085.42300 127613730.22000      -396.32200                
G14  20693315.00600 108744104.31700      -207.35700                
G15  24896097.35600 130829874.63700     -4078.64400                
G18  21942438.34300 115308291.75900      2573.54000                
G19  21616253.93300 113594181.11300     -2189.77500                
G22  23685671.34900 124469043.03300      2976.11700                
G23  20737456.17500 108976067.72600     -1182.92900                
G27  21289595.64500 111877580.22800      1904.25200                
G28  24149251.52700 126905173.31300     -3017.85500                
E01         9.04400        47.52700       -19.69200                
E02         8.09200        42.52600        19.30200                
E03        27.98800       147.07800        19.91700                
E04        38.95500       204.71200        16.02900                
E05        31.99600       168.14200         9.06800                
E06        17.49100        91.91600        -6.35100                
> 2025 04 22 14 00 24.0000000  0 16
G03  24459215.50700 128534045.02200      1628.40400                
G09  24284160.57600 127614125.15400      -393.89700                
G14  20693354.15400 108744310.04400      -204.24000                
G15  24896873.42100 130833952.88300     -4077.60900                
G18  21941948.29300 115305716.52800      2576.64600                
G19  21616671.06600 113596373.16700     -2194.08100                
G22  23685104.34200 124466063.39300      2982.94500                
G23  20737681.56500 108977252.16200     -1185.88300                
G27  21289233.41700 111875676.70300      1903.00100                
G28  24149826.47300 126908194.67400     -3024.79700                
E01        13.25500        69.65500       -24.30700                
E02         4.83700        25.41900        10.91000                
E03        23.63800       124.21800        25.52300                
E04        35.30500       185.52800        22.06300                
E05        29.81000       156.65500        13.55100                
E06        18.79700        98.77700        -7.79800                
> 2025 04 22 14 00 25.0000000  0 16
G03  24458906.23600 128532419.79000      1622.41000                
G09  24284235.47600 127614518.75600      -393.68800                
G14  20693392.80200 108744513.13800      -202.14000                
G15  24897649.14400 130838029.33700     -4075.08800                
G18  21941457.81300 115303139.03800      2578.02200                
G19  21617088.86300 113598568.70200     -2196.69100                
G22  23684536.17300 124463077.64700      2988.23300                
G23  20737907.47700 108978439.33300     -1188.36500                
G27  21288871.30600 111873773.80000      1903.00800                
G28  24150402.67400 126911222.63400     -3030.96000                
E01        18.19400        95.61100       -27.31000                
E02         5.79400        30.44700       -19.80600                
E03        18.40100        96.69900        29.12400                
E04        30.67800       161.21200        26.22300                
E05        26.99100       141.83900        15.64700                
E06        20.57900       108.14100       -11.09500                
> 2025 04 22 14 00 26.0000000  0 16
G03  24458597.88900 128530799.41900      1618.74800                
G09  24284310.55500 127614913.29700      -395.77200                
G14  20693431.16700 108744714.74700      -201.30600                
G15  24898424.26400 130842102.61700     -4071.30800                
G18  21940967.24800 115300561.10200      2577.52600                
G19  21617506.97700 113600765.90900     -2197.40200                
G22  23683967.18500 124460087.59500      2991.49000                
G23  20738133.80000 108979628.67000     -1190.18600                
G27  21288509.07800 111871870.28000      1904.21900                
G28  24150979.93300 126914256.14800     -3035.82500                
E01        23.52500       123.62300       -28.36000                
E02        10.70400        56.25200       -29.14600                
E03        12.73100        66.89900        29.90100                
E04        25.46300       133.81000        28.20400                
E05        24.02400       126.24600        15.10900                
E06        23.01400       120.94100       -14.32400                
> 2025 04 22 14 00 27.0000000  0 16
G03  24458289.99400 128529181.41700      1617.70000                
G09  24284386.24000 127615311.02400      -400.02200                
G14  20693469.50600 108744916.22000      -201.87900                
G15  24899198.57000 130846171.62600     -4066.60900                
G18  21940476.95500 115297984.59500      2575.18500                
G19  21617925.04200 113602962.85500     -2196.18100                
G22  23683397.79700 124457095.43700      2992.41000                
G23  20738360.39600 108980819.44000     -1191.21600                
G27  21288146.51700 111869965.00800      1906.47600                
G28  24151557.96000 126917293.70300     -3038.98600                
E01        28.84700       151.59000       -27.19500                
E02        16.38200        86.08600       -29.78900                
E03         7.35100        38.63200        25.13300                
E04        20.08700       105.55800        27.93300                
E05        21.38200       112.36500        12.37400                
E06        25.91400       136.17700       -15.75200                
> 2025 04 22 14 00 28.0000000  0 16
G03  24457982.04300 128527563.12600      1619.31500                
G09  24284462.91600 127615713.95700      -406.11500                
G14  20693508.08900 108745118.97900      -203.87100                
G15  24899971.92800 130850235.64800     -4061.41200                
G18  21939987.26900 115295411.27700      2571.18900                
G19  21618342.70100 113605157.66500     -2193.16800                
G22  23682828.46500 124454103.57800      2990.89400                
G23  20738587.10700 108982010.81600     -1191.39600                
G27  21287783.44600 111868057.05800      1909.52600                
G28  24152136.40600 126920333.45600     -3040.19400                
E01        33.73300       177.26600       -23.79500                
E02        21.83400       114.74100       -27.08300                
E03         4.44800        23.37500         0.32100                
E04        14.96400        78.63800        25.59000                
E05        19.36500       101.76500         8.86100                
E06        28.84400       151.57600       -14.60200                
> 2025 04 22 14 00 29.0000000  0 16
G03  24457673.54500 128525941.95800      1623.40400                
G09  24284540.88900 127616123.70800      -413.56700                
G14  20693547.17900 108745324.39800      -207.16900                
G15  24900744.28600 130854294.41800     -4056.18300                
G18  21939498.47500 115292842.64900      2565.87500                
G19  21618759.63800 113607348.68500     -2188.66200                
G22  23682259.64600 124451114.41300      2987.05900                
G23  20738813.77300 108983201.95100     -1190.74100                
G27  21287419.74500 111866145.79400      1913.04500                
G28  24152714.88800 126923373.39900     -3039.36900                
E01        37.77500       198.50900       -18.38800                
E02        26.54700       139.50400       -22.12400                
E03         6.77800        35.61900       -18.80400                
E04        10.45600        54.94800        21.53200                
E05        17.93100        94.22700         6.57300                
E06        31.31000       164.53400       -10.92300                
> 2025 04 22 14 00 30.0000000  0 16
G03  24457364.06400 128524315.62400      1629.55800                
G09  24284620.36200 127616541.34100      -421.76900                
G14  20693587.00400 108745533.67600      -211.54300                
G15  24901515.68400 130858348.13900     -4051.38900                
G18  21939010.78200 115290279.80700      2559.69900                
G19  21619175.60900 113609534.62900     -2183.09700                
G22  23681691.75200 124448130.11400      2981.23300                
G23  20739040.24100 108984392.04900     -1189.34500                
G27  21287055.35800 111864230.92800      1916.66900                
G28  24153293.02700 126926411.53700     -3036.61500                
E01        40.63100       213.51500       -11.40600                
E02        30.15400       158.46000       -15.58000                
E03        10.36800        54.48300       -17.74000                
E04         6.87400        36.12300        15.75300                
E05        16.69700        87.74300         6.86500                
E06        32.87200       172.74300        -5.20900                
> 2025 04 22 14 00 31.0000000  0 16
G03  24457053.26200 128522682.34700      1637.18200                
G09  24284701.41400 127616967.27200      -430.04800                
G14  20693627.73800 108745747.73500      -216.66800                
G15  24902286.24500 130862397.46500     -4047.46200                
G18  21938524.30500 115287723.35200      2553.19500                
G19  21619590.46200 113611714.69600     -2177.00200                
G22  23681125.11900 124445152.43400      2973.91800                
G23  20739266.38400 108985580.44300     -1187.36300                
G27  21286690.30100 111862312.54200      1920.02200                
G28  24153870.47800 126929446.06600     -3032.21100                
E01        42.05400       220.99300        -3.44100                
E02        32.42000       170.36600        -8.14700                
E03        13.33800        70.09200       -13.33000                
E04         4.71100        24.75600         5.92800                
E05        15.15300        79.63100         9.72200                
E06        33.20800       174.50800         1.83700                
> 2025 04 22 14 00 32.0000000  0 16
G03  24456740.92500 128521041.00700      1645.55200                
G09  24284783.99400 127617401.23500      -437.72300                
G14  20693669.48700 108745967.13100      -222.15000                
G15  24903056.17000 130866443.44900     -4044.75300                
G18  21938039.05200 115285173.33200      2546.92300                
G19  21620004.15000 113613888.64100     -2170.95100                
G22  23680559.96900 124442182.55000      2965.75300                
G23  20739492.11200 108986766.64700     -1185.00600                
G27  21286324.66100 111860391.08700      1922.75300                
G28  24154446.96700 126932475.53600     -3026.57700                
E01        41.92100       220.29800         4.82100                
E02        33.24700       174.71300        -0.59200                
E03        15.45500        81.21600        -9.09800                
E04         4.93500        25.93400        -8.05200                
E05        12.89900        67.78300        14.11300                
E06        32.13800       168.88800         9.42700                
> 2025 04 22 14 00 33.0000000  0 16
G03  24456426.98800 128519391.25500      1653.87500                
G09  24284867.92700 127617842.30500      -444.16500                
G14  20693712.28100 108746192.01100      -227.56400                
G15  24903825.71600 130870487.43900     -4043.50600                
G18  21937554.92800 115282629.24000      2541.42500                
G19  21620416.73700 113616056.79900     -2165.51800                
G22  23679996.39700 124439220.96300      2957.44800                
G23  20739717.37400 108987950.40900     -1182.51700                
G27  21285958.58300 111858467.33700      1924.56900                
G28  24155022.30900 126935498.97800     -3020.25000                
E01        40.24500       211.49000        12.66700                
E02        32.68800       171.77700         6.28400                
E03        16.91300        88.87900        -6.62000                
E04         7.39600        38.86800       -16.89500                
E05         9.79000        51.44800        18.32400                
E06        29.63600       155.74000        16.76200                
> 2025 04 22 14 00 34.0000000  0 16
G03  24456111.53400 128517733.53300      1661.36400                
G09  24284952.92600 127618288.98000      -448.85800                
G14  20693756.06400 108746422.09700      -232.49300                
G15  24904595.17300 130874530.96700     -4043.83400                
G18  21937071.73800 115280090.05800      2537.17200                
G19  21620828.39000 113618220.05000     -2161.21700                
G22  23679434.36200 124436267.44700      2949.73100                
G23  20739942.17000 108989131.72200     -1180.15300                
G27  21285592.26500 111856542.32300      1925.25500                
G28  24155596.42700 126938515.99100     -3013.82200                
E01        37.17000       195.32900        19.42100                
E02        30.94800       162.63300        11.70100                
E03        18.14500        95.35300        -6.79700                
E04        11.15800        58.63400       -22.32100                
E05         6.18900        32.52400        17.88700                
E06        25.82300       135.70200        23.08600                
> 2025 04 22 14 00 35.0000000  0 16
G03  24455794.79100 128516069.04100      1667.30500                
G09  24285038.62200 127618739.31600      -451.44100                
G14  20693800.71000 108746656.70900      -236.56000                
G15  24905364.84200 130878575.60400     -4045.70900                
G18  21936589.20900 115277554.35100      2534.52500                
G19  21621239.36600 113620379.74500     -2158.46600                
G22  23678873.68500 124433321.07000      2943.27300                
G23  20740166.54900 108990310.83600     -1178.15800                
G27  21285225.93400 111854617.23800      1924.70000                
G28  24156169.36200 126941526.78000     -3007.90000                
E01        32.95900       173.20200        24.51700                
E02        28.37100       149.09000        14.98100                
E03        19.65800       103.30500        -9.42000                
E04        15.79100        82.98400       -26.11400                
E05         4.55600        23.94300        -6.44100                
E06        20.95800       110.13300        27.71500                
> 2025 04 22 14 00 36.0000000  0 16
G03  24455477.11300 128514399.62900      1671.12400                
G09  24285124.59400 127619191.09800      -451.73900                
G14  20693846.02200 108746894.82900      -239.46700                
G15  24906135.00300 130882622.82500     -4048.96500                
G18  21936107.01200 115275020.39100      2533.69900                
G19  21621649.99000 113622537.58600     -2157.54100                
G22  23678314.07100 124430380.28200      2938.63400                
G23  20740390.59900 108991488.23000     -1176.74300                
G27  21284859.82700 111852693.33400      1922.90100                
G28  24156741.26200 126944532.13500     -3003.04100                
E01        27.97100       146.98600        27.55000                
E02        25.41100       133.53600        15.68300                
E03        21.78800       114.49700       -12.93900                
E04        20.98400       110.27100       -28.13100                
E05         8.18100        42.99400       -26.67300                
E06        15.42500        81.06100        29.96300                
> 2025 04 22 14 00 37.0000000  0 16
G03  24455158.94200 128512727.62900      1672.43500                
G09  24285210.40500 127619642.04100      -449.78500                
G14  20693891.76200 108747135.19000      -241.01900                
G15  24906905.89200 130886673.87700     -4053.31300                
G18  21935624.79400 115272486.31700      2534.75000                
G19  21622060.62100 113624695.46900     -2158.55600                
G22  23677755.13500 124427443.04900      2936.21300                
G23  20740614.44900 108992664.56800     -1176.06900                
G27  21284494.17300 111850771.81000      1919.96900                
G28  24157312.37600 126947533.36200     -2999.71100                
E01        22.61700       118.85500        28.33500                
E02        22.56400       118.57300        13.87000                
E03        24.51200       128.81300       -15.37600                
E04        26.36300       138.53800       -28.03000                
E05        13.69000        71.94000       -30.02700                
E06         9.78200        51.40300        28.50500                
> 2025 04 22 14 00 38.0000000  0 16
G03  24454840.77400 128511055.64800      1671.07800                
G09  24285295.64700 127620089.99200      -445.81000                
G14  20693937.66000 108747376.38900      -241.14300                
G15  24907677.68300 130890729.66500     -4058.36500                
G18  21935142.20500 115269950.29400      2537.56300                
G19  21622471.62700 113626855.32000     -2161.45200                
G22  23677196.43000 124424507.03700      2936.20800                
G23  20740838.24900 108993840.64500     -1176.23000                
G27  21284129.16900 111848853.70000      1916.11300                
G28  24157883.03000 126950532.16600     -2998.23700                
E01        17.32600        91.04900        26.93200                
E02        20.23400       106.33000        10.48800                
E03        27.49000       144.45900       -15.47800                
E04        31.50800       165.57600       -25.67100                
E05        19.32600       101.56100       -28.68700                
E06         5.21900        27.42500        15.96000                
> 2025 04 22 14 00 39.0000000  0 16
G03  24454523.11500 128509386.33700      1667.12800                
G09  24285379.97200 127620533.12200      -440.22600                
G14  20693983.45000 108747617.01500      -239.89100                
G15  24908450.46700 130894790.67300     -4063.67300                
G18  21934658.93300 115267410.68300      2541.86800                
G19  21622883.34700 113629018.91900     -2166.00100                
G22  23676637.49600 124421569.81900      2938.60300                
G23  20741062.16100 108995017.31200     -1177.24500                
G27  21283764.96400 111846939.78900      1911.62700                
G28  24158453.59300 126953530.49800     -2998.78000                
E01        12.48800        65.62300        23.63800                
E02        18.55500        97.50500         7.38300                
E03        30.23500       158.88600       -12.95100                
E04        35.99600       189.16300       -21.16800                
E05        24.44100       128.44100       -24.70300                
E06         5.24400        27.55700       -14.34200                
> 2025 04 22 14 00 40.0000000  0 16
G03  24454206.43100 128507722.15200      1660.89500                
G09  24285463.12500 127620970.09300      -433.59100                
G14  20694028.88300 108747855.77000      -237.44000                
G15  24909224.24800 130898856.91800     -4068.76300                
G18  21934174.73100 115264866.18600      2547.25900                
G19  21623296.06000 113631187.74400     -2171.82900                
G22  23676077.89500 124418629.09500      2943.16800                
G23  20741286.34400 108996195.40100     -1179.05800                
G27  21283401.64500 111845030.53600      1906.85900                
G28  24159024.45200 126956530.38200     -3001.32200                
E01         8.42900        44.29300        18.75300                
E02        17.28800        90.85000         6.37400                
E03        32.27200       169.59000        -8.11900                
E04        39.45000       207.30900       -14.86400                
E05        28.60800       150.33500       -18.82400                
E06         8.70700        45.75500       -19.10100                
> 2025 04 22 14 00 41.0000000  0 16
G03  24453891.11200 128506065.13600      1652.88900                
G09  24285544.96600 127621400.17000      -426.55400                
G14  20694073.75800 108748091.58800      -234.07300                
G15  24909998.94000 130902927.95300     -4073.18200                
G18  21933689.43900 115262315.96100      2553.23600                
G19  21623709.96600 113633362.83400     -2178.44500                
G22  23675517.25100 124415682.89000      2949.47600                
G23  20741510.93800 108997375.65000     -1181.54000                
G27  21283039.23000 111843126.03500      1902.18500                
G28  24159595.97100 126959533.73400     -3005.66700                
E01         5.50000        28.90400        11.36200                
E02        15.95200        83.82900         8.10300                
E03        33.21800       174.56200        -1.60600                
E04        41.57200       218.46300        -7.28200                
E05        31.52800       165.67900       -11.71900                
E06        12.04300        63.28500       -15.51700                
> 2025 04 22 14 00 42.0000000  0 16
G03  24453577.43200 128504416.73700      1643.78300                
G09  24285625.48400 127621823.29400      -419.80000                
G14  20694117.93400 108748323.73100      -230.15500                
G15  24910774.37800 130907002.90500     -4076.53600                
G18  21933202.99800 115259759.69500      2559.24500                
G19  21624125.16200 113635544.70400     -2185.29000                
G22  23674955.28500 124412729.74200      2956.94900                
G23  20741736.05300 108998558.63900     -1184.50300                
G27  21282677.66700 111841226.00900      1897.96900                
G28  24160168.46100 126962542.18800     -3011.45700                
E01         4.49000        23.59700        -1.65500                
E02        14.06900        73.93500        11.94000                
E03        32.82500       172.49400         5.82800                
E04        42.18100       221.66200         0.93000                
E05        33.03700       173.60800        -4.12200                
E06        14.55700        76.49800       -10.95800                
> 2025 04 22 14 00 43.0000000  0 16
G03  24453265.52900 128502777.67800      1634.34400                
G09  24285704.79700 127622240.08600      -413.99200                
G14  20694161.34300 108748551.85200      -226.10000                
G15  24911550.32800 130911080.55000     -4078.52900                
G18  21932715.45500 115257197.63600      2564.73000                
G19  21624541.63600 113637733.29100     -2191.78300                
G22  23674391.84100 124409768.82100      2964.90100                
G23  20741961.76000 108999744.73700     -1187.71600                
G27  21282316.83700 111839329.83100      1894.53600                
G28  24160742.15200 126965556.95700     -3018.20500                
E01         6.03000        31.68700       -13.40500                
E02        11.36000        59.69600        16.51300                
E03        30.99200       162.86600        13.38200                
E04        41.22300       216.63100         9.06100                
E05        33.11600       174.02300         3.17500                
E06        16.28400        85.57200        -7.49400                
> 2025 04 22 14 00 44.0000000  0 16
G03  24452955.39100 128501147.89100      1625.37100                
G09  24285783.14100 127622651.78700      -409.70500                
G14  20694204.00300 108748776.02800      -222.33500                
G15  24912326.51200 130915159.42600     -4078.98100                
G18  21932226.95800 115254630.57100      2569.18200                
G19  21624959.26900 113639927.96300     -2197.37400                
G22  23673826.89500 124406800.01200      2972.60400                
G23  20742188.08200 109000934.06800     -1190.92500                
G27  21281956.56400 111837436.58400      1892.14300                
G28  24161317.17400 126968578.71600     -3025.33900                
E01         9.25600        48.63900       -19.99300                
E02         7.88600        41.44400        19.32000                
E03        27.77400       145.95200        20.27300                
E04        38.78200       203.80300        16.40900                
E05        31.89800       167.62600         9.37400                
E06        17.55900        92.27200        -6.36200                
> 2025 04 22 14 00 45.0000000  0 16
G03  24452646.85500 128499526.52500      1617.61900                
G09  24285860.85000 127623060.15200      -407.38100                
G14  20694246.00500 108748996.75300      -219.26000                
G15  24913102.63200 130919237.96500     -4077.85600                
G18  21931737.74700 115252059.74800      2572.18400                
G19  21625377.84100 113642127.57500     -2201.59600                
G22  23673260.56400 124403823.92000      2979.35400                
G23  20742414.99400 109002126.49900     -1193.87700                
G27  21281596.63400 111835545.14000      1890.94900                
G28  24161893.54200 126971607.54900     -3032.25100                
E01        13.51500        71.02400       -24.52100                
E02         4.72800        24.84600         9.48900                
E03        23.36400       122.78000        25.78400                
E04        35.06800       184.28300        22.35000                
E05        29.66500       155.89000        13.73600                
E06        18.88100        99.21800        -7.94800                
> 2025 04 22 14 00 46.0000000  0 16
G03  24452339.62600 128497912.02400      1611.73800                
G09  24285938.32600 127623467.29300      -407.28400                
G14  20694287.51600 108749214.89100      -217.21300                
G15  24913878.39500 130923314.62400     -4075.25500                
G18  21931248.12700 115249486.77500      2573.44800                
G19  21625797.05800 113644330.57400     -2204.10000                
G22  23672693.08900 124400841.81800      2984.53100                
G23  20742642.42500 109003321.65700     -1196.34100                
G27  21281236.81200 111833654.26100      1891.01200                
G28  24162471.15700 126974642.93700     -3038.35600                
E01        18.48600        97.14500       -27.42400                
E02         6.01100        31.58700       -20.87000                
E03        18.09000        95.06300        29.25200                
E04        30.39700       159.73800        26.39400                
E05        26.82400       140.96100        15.68600                
E06        20.69800       108.76900       -11.29700                
> 2025 04 22 14 00 47.0000000  0 16
G03  24452033.29800 128496302.26100      1608.20600                
G09  24286016.00300 127623875.48800      -409.48300                
G14  20694328.75500 108749431.60500      -216.44300                
G15  24914653.53900 130927388.03700     -4071.41000                
G18  21930758.44300 115246913.46900      2572.84300                
G19  21626216.57100 113646535.13100     -2204.69500                
G22  23672124.81800 124397855.53300      2987.65600                
G23  20742870.26300 109004518.95300     -1198.12900                
G27  21280876.86200 111831762.71000      1892.27300                
G28  24163049.81500 126977683.80600     -3043.13700                
E01        23.82700       125.21300       -28.35500                
E02        11.01600        57.89100       -29.31400                
E03        12.41200        65.22500        29.83000                
E04        25.16200       132.22800        28.24800                
E05        23.86300       125.40200        15.00600                
E06        23.16800       121.74800       -14.46400                
> 2025 04 22 14 00 48.0000000  0 16
G03  24451727.39600 128494694.73300      1607.29500                
G09  24286094.30700 127624286.97900      -413.83700                
G14  20694369.98100 108749648.24700      -217.08100                
G15  24915427.86100 130931457.12400     -4066.66800                
G18  21930269.05000 115244341.69400      2570.40400                
G19  21626636.01200 113648739.31000     -2203.35700                
G22  23671556.17200 124394867.28100      2988.43100                
G23  20743098.36700 109005717.64400     -1199.11400                
G27  21280516.57000 111829869.36400      1894.56900                
G28  24163629.22400 126980728.62400     -3046.19800                
E01        29.13600       153.11100       -27.06200                
E02        16.69900        87.75300       -29.71000                
E03         7.08700        37.24000        24.50900                
E04        19.79000       103.99500        27.85300                
E05        21.25100       111.67700        12.18000                
E06        26.08200       137.06000       -15.75800                
> 2025 04 22 14 00 49.0000000  0 16
G03  24451421.41200 128493086.77900      1609.04100                
G09  24286173.62100 127624703.77300      -420.01800                
G14  20694411.46300 108749866.24100      -219.13600                
G15  24916201.22800 130935521.19400     -4061.45400                
G18  21929780.28200 115241773.19900      2566.33000                
G19  21627055.02600 113650941.24200     -2200.23700                
G22  23670987.61100 124391879.47300      2986.77200                
G23  20743326.57600 109006916.89400     -1199.24200                
G27  21280155.76200 111827973.30700      1897.64400                
G28  24164209.03200 126983775.53500     -3047.29700                
E01        33.98500       178.59200       -23.54200                
E02        22.12200       116.25200       -26.85800                
E03         4.45500        23.41300        -1.68900                
E04        14.69200        77.20900        25.40400                
E05        19.27200       101.27400         8.68200                
E06        28.99900       152.39100       -14.46000                
> 2025 04 22 14 00 50.0000000  0 16
G03  24451114.85800 128491475.82600      1613.24400                
G09  24286254.24600 127625127.46100      -427.53100                
G14  20694453.46400 108750086.95400      -222.48900                
G15  24916973.59400 130939580.00800     -4056.23300                
G18  21929292.41800 115239209.45700      2560.96600                
G19  21627473.30000 113653139.28600     -2195.64400                
G22  23670419.58900 124388894.49600      2982.81000                
G23  20743554.72900 109008115.84700     -1198.53300                
G27  21279794.32100 111826073.92000      1901.17000                
G28  24164788.85600 126986822.52700     -3046.36400                
E01        37.96900       199.53000       -18.03300                
E02        26.78100       140.73400       -21.79300                
E03         6.98000        36.67800       -18.99400                
E04        10.22800        53.74900        21.25900                
E05        17.86100        93.86000         6.51500                
E06        31.42500       165.13900       -10.65100                
> 2025 04 22 14 00 51.0000000  0 16
G03  24450807.30200 128489859.60800      1619.48300                
G09  24286336.38000 127625559.07600      -435.76400                
G14  20694496.20700 108750311.57400      -226.90400                
G15  24917745.00400 130943633.79500     -4051.47500                
G18  21928805.66200 115236651.53700      2554.77100                
G19  21627890.59300 113655332.17900     -2190.02000                
G22  23669852.51500 124385914.50100      2976.88100                
G23  20743782.67500 109009313.70900     -1197.08300                
G27  21279432.19400 111824170.93300      1904.78300                
G28  24165368.31600 126989867.61100     -3043.51400                
E01        40.75000       214.14200       -10.98000                
E02        30.31800       159.32200       -15.18000                
E03        10.55600        55.47200       -17.52800                
E04         6.70800        35.25100        15.35000                
E05        16.62300        87.35500         6.96300                
E06        32.92500       173.02400        -4.84300                
> 2025 04 22 14 00 52.0000000  0 16
G03  24450498.41200 128488236.37700      1627.15600                
G09  24286420.09500 127625999.00300      -444.03900                
G14  20694539.86700 108750541.00800      -232.05300                
G15  24918515.58700 130947683.23500     -4047.60500                
G18  21928320.12200 115234100.00600      2548.28100                
G19  21628306.76100 113657519.15200     -2183.89700                
G22  23669286.71600 124382941.20900      2969.50000                
G23  20744010.28700 109010509.81700     -1195.05400                
G27  21279069.40200 111822264.44500      1908.10900                
G28  24165947.07300 126992908.99800     -3039.03200                
E01        42.08800       221.17300        -2.98000                
E02        32.50400       170.81100        -7.72000                
E03        13.47900        70.83200       -13.07000                
E04         4.65200        24.44500         5.17700                
E05        15.04900        79.08000         9.94000                
E06        33.18600       174.39300         2.25500                
> 2025 04 22 14 00 53.0000000  0 16
G03  24450187.98200 128486605.05700      1635.53400                
G09  24286505.33400 127626446.94000      -451.67500                
G14  20694584.54500 108750775.79300      -237.54000                
G15  24919285.54600 130951729.39800     -4044.97100                
G18  21927835.80000 115231554.87900      2542.05500                
G19  21628721.76100 113659699.99400     -2177.85500                
G22  23668722.41000 124379975.76100      2961.30800                
G23  20744237.47400 109011703.69300     -1192.66000                
G27  21278706.03200 111820354.92300      1910.79900                
G28  24166524.85400 126995945.26000     -3033.34700                
E01        41.86700       220.01500         5.27800                
E02        33.25100       174.73400        -0.18100                
E03        15.55100        81.72000        -8.90100                
E04         5.02400        26.40400        -8.71400                
E05        12.74700        66.98400        14.37400                
E06        32.03500       168.34700         9.85200                
> 2025 04 22 14 00 54.0000000  0 16
G03  24449875.95300 128484965.33500      1643.82400                
G09  24286591.91600 127626901.93100      -458.04900                
G14  20694630.26600 108751016.05800      -242.94000                
G15  24920055.14200 130955773.64800     -4043.80900                
G18  21927352.59500 115229015.62000      2536.63000                
G19  21629135.66500 113661875.07200     -2172.46300                
G22  23668159.68400 124377018.61300      2953.02100                
G23  20744464.19000 109012895.09600     -1190.14900                
G27  21278342.23400 111818443.15300      1912.56200                
G28  24167101.48100 126998975.45700     -3026.99700                
E01        40.10800       210.76900        13.08000                
E02        32.61900       171.41500         6.63300                
E03        16.98300        89.24800        -6.55500                
E04         7.57800        39.82500       -17.25600                
E05         9.59400        50.41600        18.49800                
E06        29.45500       154.78900        17.15000                
> 2025 04 22 14 00 55.0000000  0 16
G03  24449562.41800 128483317.69600      1651.24200                
G09  24286679.54900 127627362.44500      -462.64800                
G14  20694676.97300 108751261.50400      -247.83500                
G15  24920824.66500 130959817.52200     -4044.22500                
G18  21926870.30900 115226481.18700      2532.47200                
G19  21629548.64600 113664045.30300     -2168.23500                
G22  23667598.48600 124374069.49800      2945.36200                
G23  20744690.43800 109014084.03700     -1187.77800                
G27  21277978.20600 111816530.17400      1913.18900                
G28  24167676.88400 127001999.22100     -3020.58000                
E01        36.96100       194.23100        19.75500                
E02        30.82200       161.97000        11.94700                
E03        18.21800        95.73700        -6.88900                
E04        11.39700        59.89300       -22.57500                
E05         6.00100        31.53300        17.44100                
E06        25.57500       134.39900        23.39700                
> 2025 04 22 14 00 56.0000000  0 16
G03  24449247.61100 128481663.37700      1657.07900                
G09  24286767.85900 127627826.51600      -465.12100                
G14  20694724.53300 108751511.43500      -251.85300                
G15  24921594.41700 130963862.59200     -4046.18200                
G18  21926388.66400 115223950.12700      2529.93100                
G19  21629960.96700 113666212.06300     -2165.58000                
G22  23667038.63100 124371127.44400      2938.99900                
G23  20744916.26800 109015270.77900     -1185.79200                
G27  21277614.17700 111814617.18500      1912.57400                
G28  24168251.10800 127005016.78600     -3014.70000                
E01        32.69700       171.82200        24.74400                
E02        28.21100       148.24800        15.09100                
E03        19.76000       103.83900        -9.61200                
E04        16.07100        84.45300       -26.27800                
E05         4.63600        24.36000        -8.40800                
E06        20.66100       108.57400        27.91100                
> 2025 04 22 14 00 57.0000000  0 16
G03  24448931.89000 128480004.25200      1660.77100                
G09  24286856.42300 127628291.92100      -465.30300                
G14  20694772.75100 108751764.81900      -254.70100                
G15  24922364.67400 130967910.32200     -4049.50700                
G18  21925907.33100 115221420.70700      2529.21500                
G19  21630372.95400 113668377.07300     -2164.76700                
G22  23666479.82000 124368190.87000      2934.48300                
G23  20745141.77300 109016455.81700     -1184.40100                
G27  21277250.38300 111812705.43700      1910.71900                
G28  24168824.30800 127008028.97200     -3009.91000                
E01        27.67600       145.43900        27.65400                
E02        25.24400       132.65800        15.64300                
E03        21.92700       115.22700       -13.12000                
E04        21.28400       111.85000       -28.18400                
E05         8.46800        44.50100       -27.09200                
E06        15.10600        79.38000        30.00000                
> 2025 04 22 14 00 58.0000000  0 16
G03  24448615.70300 128478342.67400      1661.94300                
G09  24286944.80400 127628756.37100      -463.23600                
G14  20694821.38300 108752020.38200      -256.18800                
G15  24923135.67200 130971961.94300     -4053.90500                
G18  21925425.95600 115218891.06500      2530.36800                
G19  21630784.97200 113670542.24100     -2165.89900                
G22  23665921.66000 124365257.72000      2932.20200                
G23  20745367.08300 109017639.83200     -1183.76500                
G27  21276887.05200 111810796.12000      1907.73900                
G28  24169396.73800 127011037.11100     -3006.66900                
E01        22.31500       117.26700        28.31200                
E02        22.41700       117.80000        13.70900                
E03        24.67700       129.67700       -15.45000                
E04        26.66200       140.10700       -27.95700                
E05        14.01000        73.62300       -30.04200                
E06         9.47900        49.81200        28.24000                
> 2025 04 22 14 00 59.0000000  0 16
G03  24448299.54500 128476681.25600      1660.44600                
G09  24287032.59700 127629217.72200      -459.16200                
G14  20694870.16200 108752276.71800      -256.24600                
G15  24923907.57800 130976018.33800     -4058.98300                
G18  21924944.19300 115216359.37900      2533.26700                
G19  21631197.38600 113672709.49200     -2168.90700                
G22  23665363.70500 124362325.64700      2932.34100                
G23  20745592.35200 109018823.62800     -1183.97300                
G27  21276524.37900 111808890.25900      1903.84900                
G28  24169968.72500 127014042.92300     -3005.29600                
E01        17.04000        89.54300        26.79300                
E02        20.12300       105.74800        10.28700                
E03        27.65400       145.32500       -15.40500                
E04        31.78100       167.00900       -25.47300                
E05        19.63100       103.16400       -28.52600                
E06         5.05700        26.57200        14.44400                
> 2025 04 22 14 01  0.0000000  0 16
G03  24447983.92100 128475022.64100      1656.37000                
G09  24287119.45500 127629674.16500      -453.50300                
G14  20694918.82000 108752532.41700      -254.93500                
G15  24924680.48000 130980079.96600     -4064.29000                
G18  21924461.73200 115213824.03200      2537.63300                
G19  21631610.53400 113674880.59700     -2173.55300                
G22  23664805.49400 124359392.22800      2934.87100                
G23  20745817.74300 109020008.06300     -1185.04000                
G27  21276162.51000 111806988.62300      1899.34400                
G28  24170540.64200 127017048.36700     -3005.94400                
E01        12.23700        64.30400        23.40600                
E02        18.47600        97.09500         7.25800                
E03        30.37200       159.60600       -12.73600                
E04        36.22100       190.34000       -20.85800                
E05        24.70300       129.81700       -24.41700                
E06         5.40200        28.38600       -15.22800                
> 2025 04 22 14 01  1.0000000  0 16
G03  24447669.29500 128473369.26900      1650.03300                
G09  24287205.12900 127630124.38500      -446.82000                
G14  20694967.11100 108752786.19100      -252.43600                
G15  24925454.37600 130984146.81700     -4069.35300                
G18  21923978.33300 115211283.75300      2543.05600                
G19  21632024.69200 113677057.01200     -2179.45300                
G22  23664246.59200 124356455.17600      2939.54900                
G23  20746043.41400 109021193.97300     -1186.90600                
G27  21275801.52900 111805091.65500      1894.57500                
G28  24171112.87400 127020055.46600     -3008.58600                
E01         8.23000        43.25100        18.42700                
E02        17.22000        90.49200         6.40000                
E03        32.35700       170.03600        -7.79100                
E04        39.60600       208.13100       -14.46700                
E05        28.80700       151.38000       -18.45200                
E06         8.91000        46.82300       -18.99200                
> 2025 04 22 14 01  2.0000000  0 16
G03  24447356.05000 128471723.15400      1641.95700                
G09  24287289.48600 127630567.68200      -439.76900                
G14  20695014.83600 108753036.98800      -249.03600                
G15  24926229.17600 130988218.41800     -4073.72100                
G18  21923493.84100 115208737.72800      2549.03200                
G19  21632440.05300 113679239.75000     -2186.11100                
G22  23663686.62800 124353512.54500      2945.94100                
G23  20746269.50600 109022382.09500     -1189.43600                
G27  21275441.45000 111803199.43100      1889.91700                
G28  24171685.78300 127023066.12500     -3013.01500                
E01         5.38200        28.28300        10.80100                
E02        15.86500        83.37000         8.27200                
E03        33.23300       174.64000        -1.20600                
E04        41.64700       218.85900        -6.83200                
E05        31.65000       166.32400       -11.29900                
E06        12.20700        64.14700       -15.26200                
> 2025 04 22 14 01  3.0000000  0 16
G03  24447044.45400 128470085.70700      1632.81900                
G09  24287372.52000 127631004.03000      -433.03700                
G14  20695061.85800 108753284.08600      -245.10400                
G15  24927004.71000 130992293.87500     -4077.00400                
G18  21923008.20200 115206185.68100      2555.00700                
G19  21632856.70900 113681429.29300     -2192.96400                
G22  23663125.33000 124350562.90600      2953.45800                
G23  20746496.12800 109023573.00200     -1192.43900                
G27  21275082.21900 111801311.65800      1885.73300                
G28  24172259.67700 127026081.96000     -3018.86500                
E01         4.51200        23.71300        -2.47400                
E02        13.94100        73.25800        12.19200                
E03        32.76000       172.15500         6.25600                
E04        42.16900       221.59700         1.39400                
E05        33.07800       173.82700        -3.69800                
E06        14.67300        77.10500       -10.72000                
> 2025 04 22 14 01  4.0000000  0 16
G03  24446734.63700 128468457.61100      1623.38900                
G09  24287454.35600 127631434.08200      -427.28200                
G14  20695108.11300 108753527.15700      -241.05500                
G15  24927780.74100 130996371.94600     -4078.91100                
G18  21922521.47100 115203627.89100      2560.42900                
G19  21633274.64200 113683625.54300     -2199.43000                
G22  23662562.54900 124347605.47200      2961.41200                
G23  20746723.34800 109024767.05200     -1195.68000                
G27  21274723.71300 111799427.69400      1882.34600                
G28  24172834.78200 127029104.15500     -3025.64600                
E01         6.17500        32.45200       -13.87000                
E02        11.18200        58.76300        16.75200                
E03        30.84700       162.10400        13.79300                
E04        41.12400       216.11100         9.50000                
E05        33.08000       173.83500         3.55800                
E06        16.36300        85.98800        -7.36100                
> 2025 04 22 14 01  5.0000000  0 16
G03  24446426.58000 128466838.75600      1614.46600                
G09  24287535.23600 127631859.11100      -423.07600                
G14  20695153.62000 108753766.29900      -237.31400                
G15  24928556.98900 131000451.16000     -4079.27300                
G18  21922033.80100 115201065.16900      2564.79300                
G19  21633693.72400 113685827.83500     -2204.96100                
G22  23661998.27000 124344640.16800      2969.07500                
G23  20746951.18700 109025964.35400     -1198.90200                
G27  21274365.75400 111797546.61000      1880.00600                
G28  24173411.22000 127032133.35800     -3032.78000                
E01         9.47100        49.76800       -20.28800                
E02         7.68000        40.36100        19.30800                
E03        27.55600       144.80500        20.62500                
E04        38.60500       202.87200        16.78500                
E05        31.79700       167.09200         9.67300                
E06        17.62700        92.62900        -6.38100                
> 2025 04 22 14 01  6.0000000  0 16
G03  24446120.11200 128465228.25500      1606.80000                
G09  24287615.50000 127632280.89700      -420.85300                
G14  20695198.47600 108754002.02300      -234.28100                
G15  24929333.15600 131004529.94400     -4078.05800                
G18  21921545.43500 115198498.78800      2567.69000                
G19  21634113.73200 113688034.99300     -2209.09500                
G22  23661432.61800 124341667.64300      2975.74500                
G23  20747179.61700 109027164.76300     -1201.85000                
G27  21274008.12800 111795667.27400      1878.87100                
G28  24173989.00100 127035169.61900     -3039.66100                
E01        13.77800        72.40400       -24.72900                
E02         4.63500        24.35800         7.93000                
E03        23.08800       121.32700        26.03900                
E04        34.82800       183.02300        22.63000                
E05        29.51700       155.11500        13.91400                
E06        18.96600        99.66800        -8.10500                
> 2025 04 22 14 01  7.0000000  0 16
G03  24445814.93100 128463624.51800      1601.03200                
G09  24287695.55000 127632701.56600      -420.87000                
G14  20695242.85000 108754235.20900      -232.28900                
G15  24930108.95000 131008606.76600     -4075.37700                
G18  21921056.68100 115195930.36500      2568.84300                
G19  21634534.36600 113690245.43900     -2211.49300                
G22  23660865.84000 124338689.20400      2980.81000                
G23  20747408.56400 109028367.88400     -1204.29400                
G27  21273650.59900 111793788.44500      1878.99000                
G28  24174568.02100 127038212.38900     -3045.70500                
E01        18.77900        98.68500       -27.53200                
E02         6.23900        32.78400       -21.83600                
E03        17.77700        93.42000        29.37200                
E04        30.11500       158.25400        26.55700                
E05        26.65600       140.08100        15.71700                
E06        20.82000       109.40800       -11.49900                
> 2025 04 22 14 01  8.0000000  0 16
G03  24445510.62800 128462025.39600      1597.63200                
G09  24287775.82300 127633123.40400      -423.18300                
G14  20695286.96400 108754467.03100      -231.58200                
G15  24930884.11100 131012680.26700     -4071.46900                
G18  21920567.88300 115193361.71800      2568.12900                
G19  21634955.27500 113692457.33100     -2211.97100                
G22  23660298.28900 124335706.70600      2983.79900                
G23  20747637.91200 109029573.11900     -1206.04900                
G27  21273292.93200 111791908.89200      1880.30000                
G28  24175148.07000 127041260.56700     -3050.40200                
E01        24.13000       126.80200       -28.34300                
E02        11.33000        59.53800       -29.46100                
E03        12.09400        63.55600        29.74300                
E04        24.86100       130.64400        28.28500                
E05        23.70400       124.56400        14.89500                
E06        23.32300       122.56300       -14.59700                
> 2025 04 22 14 01  9.0000000  0 16
G03  24445206.72400 128460428.37300      1596.85800                
G09  24287856.74500 127633548.64900      -427.64300                
G14  20695331.07700 108754698.84500      -232.28700                
G15  24931658.44000 131016749.39000     -4066.68600                
G18  21920079.39800 115190794.70800      2565.59300                
G19  21635376.09000 113694668.72900     -2210.51600                
G22  23659730.39100 124332722.38300      2984.43000                
G23  20747867.51900 109030779.70800     -1206.98900                
G27  21272934.91500 111790027.49800      1882.63500                
G28  24175728.85300 127044312.60000     -3053.36200                
E01        29.42400       154.62400       -26.92300                
E02        17.01500        89.41600       -29.62200                
E03         6.82900        35.88600        23.82000                
E04        19.49300       102.43600        27.76700                
E05        21.12300       111.00000        11.98300                
E06        26.25000       137.94300       -15.75600                
> 2025 04 22 14 01 10.0000000  0 16
G03  24444902.71500 128458830.79200      1598.73400                
G09  24287938.69400 127633979.29400      -433.91000                
G14  20695375.46000 108754932.07600      -234.40400                
G15  24932431.80800 131020813.46800     -4061.45500                
G18  21919591.55200 115188231.06400      2561.44300                
G19  21635796.45600 113696877.76600     -2207.29100                
G22  23659162.60500 124329738.64800      2982.62900                
G23  20748097.22200 109031986.80600     -1207.06400                
G27  21272576.37600 111788143.36300      1885.73200                
G28  24176310.01400 127047366.62000     -3054.35100                
E01        34.23500       179.90400       -23.28300                
E02        22.40700       117.75100       -26.62700                
E03         4.48400        23.56300        -3.63500                
E04        14.42200        75.79000        25.21300                
E05        19.18000       100.79200         8.50800                
E06        29.15200       153.19700       -14.30900                
> 2025 04 22 14 01 11.0000000  0 16
G03  24444598.11100 128457230.08700      1603.04800                
G09  24288021.96800 127634416.90600      -441.48300                
G14  20695420.37100 108755168.08500      -237.81100                
G15  24933204.17500 131024872.28600     -4056.24500                
G18  21919104.62400 115185672.23600      2556.03000                
G19  21636216.06300 113699082.81800     -2202.61200                
G22  23658595.38400 124326757.87800      2978.54000                
G23  20748326.85800 109033193.55400     -1206.29900                
G27  21272217.20000 111786255.88300      1889.26600                
G28  24176891.16900 127050420.61300     -3053.31200                
E01        38.16000       200.53100       -17.67400                
E02        27.01200       141.94600       -21.45700                
E03         7.18300        37.74700       -19.13500                
E04        10.00300        52.56500        20.98200                
E05        17.79200        93.49600         6.46500                
E06        31.53700       165.72800       -10.37200                
> 2025 04 22 14 01 12.0000000  0 16
G03  24444292.48600 128455624.02000      1609.37100                
G09  24288106.76000 127634862.49000      -449.74400                
G14  20695466.03400 108755408.04900      -242.26700                
G15  24933975.59000 131028926.10100     -4051.52400                
G18  21918618.80900 115183119.26300      2549.81900                
G19  21636634.67700 113701282.64800     -2196.93000                
G22  23658029.13200 124323782.20400      2972.51200                
G23  20748556.27700 109034399.15600     -1204.79600                
G27  21271857.34000 111784364.80400      1892.86800                
G28  24177471.94200 127053472.59400     -3050.36600                
E01        40.86500       214.74600       -10.55000                
E02        30.47800       160.16100       -14.77700                
E03        10.74200        56.44800       -17.30900                
E04         6.54700        34.40300        14.93400                
E05        16.54800        86.96200         7.07000                
E06        32.97500       173.28500        -4.47200                
> 2025 04 22 14 01 13.0000000  0 16
G03  24443985.51500 128454010.87500      1617.09100                
G09  24288193.13600 127635316.39700      -458.01300                
G14  20695512.62000 108755652.85800      -247.43900                
G15  24934746.18800 131032975.61700     -4047.71300                
G18  21918134.21000 115180572.67800      2543.34400                
G19  21637052.15600 113703476.51700     -2190.78300                
G22  23657464.17100 124320813.31700      2965.06600                
G23  20748785.35200 109035602.95200     -1202.72000                
G27  21271496.81700 111782470.24500      1896.16500                
G28  24178051.99500 127056520.79300     -3045.80700                
E01        42.11700       221.32700        -2.51700                
E02        32.58400       171.23100        -7.29200                
E03        13.61700        71.55800       -12.81200                
E04         4.60100        24.17600         4.40600                
E05        14.94100        78.51700        10.16300                
E06        33.16000       174.25500         2.67500                
> 2025 04 22 14 01 14.0000000  0 16
G03  24443676.99900 128452389.61300      1625.47600                
G09  24288281.03100 127635778.29100      -465.60900                
G14  20695560.22700 108755903.03400      -252.93000                
G15  24935516.17400 131037021.92400     -4045.15400                
G18  21917650.82400 115178032.46600      2537.16600                
G19  21637468.46700 113705664.24600     -2184.75000                
G22  23656900.71200 124317852.31900      2956.85000                
G23  20749013.99400 109036804.47600     -1200.29100                
G27  21271135.72400 111780572.68600      1898.81300                
G28  24178631.06000 127059563.80300     -3040.07100                
E01        41.80900       219.70700         5.73400                
E02        33.25100       174.73300         0.22700                
E03        15.64500        82.21400        -8.71000                
E04         5.12100        26.91000        -9.35200                
E05        12.59200        66.17100        14.63500                
E06        31.92800       167.78300        10.27600                
> 2025 04 22 14 01 15.0000000  0 16
G03  24443366.88700 128450759.96400      1633.73100                
G09  24288370.25900 127636247.18300      -471.91300                
G14  20695608.87500 108756158.68200      -258.31400                
G15  24936285.81200 131041066.39900     -4044.07700                
G18  21917168.54200 115175498.06100      2531.81600                
G19  21637883.68700 113707846.24000     -2179.40300                
G22  23656338.83300 124314899.62300      2948.58300                
G23  20749242.16000 109038003.49800     -1197.75800                
G27  21270774.21200 111778672.92800      1900.52300                
G28  24179208.96500 127062600.71200     -3033.70200                
E01        39.96600       210.02400        13.49000                
E02        32.54700       171.03400         6.97700                
E03        17.05300        89.61400        -6.49900                
E04         7.76400        40.80200       -17.60800                
E05         9.39600        49.37500        18.65900                
E06        29.27000       153.81700        17.53400                
> 2025 04 22 14 01 16.0000000  0 16
G03  24443055.27900 128449122.45200      1641.07500                
G09  24288460.52100 127636721.51500      -476.41800                
G14  20695658.50400 108756419.48700      -263.17500                
G15  24937055.39500 131045110.58500     -4044.58000                
G18  21916687.16300 115172968.39600      2527.75300                
G19  21638297.99500 113710023.44500     -2175.25000                
G22  23655778.47400 124311954.91800      2940.98600                
G23  20749469.85500 109039200.04300     -1195.38100                
G27  21270412.48100 111776772.01800      1901.09100                
G28  24179785.64400 127065631.18300     -3027.29700                
E01        36.74900       193.11500        20.08400                
E02        30.69300       161.29400        12.18600                
E03        18.29200        96.12600        -6.98800                
E04        11.63900        61.16500       -22.82400                
E05         5.81700        30.57000        16.91100                
E06        25.32400       133.07900        23.70200                
> 2025 04 22 14 01 17.0000000  0 16
G03  24442742.41700 128447478.35000      1646.80700                
G09  24288551.44100 127637199.30100      -478.78000                
G14  20695708.97900 108756684.73400      -267.14500                
G15  24937825.22200 131049156.05200     -4046.61900                
G18  21916206.40600 115170442.00300      2525.31900                
G19  21638711.66000 113712197.26700     -2172.69300                
G22  23655219.44400 124309017.19600      2934.72000                
G23  20749697.13200 109040394.39200     -1193.40500                
G27  21270050.75900 111774871.15700      1900.41500                
G28  24180361.15000 127068655.48500     -3021.46000                
E01        32.43200       170.42900        24.96500                
E02        28.04900       147.39900        15.19200                
E03        19.86300       104.38300        -9.80700                
E04        16.35200        85.93000       -26.43600                
E05         4.73500        24.88400       -10.29700                
E06        20.36200       107.00400        28.10000                
> 2025 04 22 14 01 18.0000000  0 16
G03  24442428.66300 128445829.56000      1650.37100                
G09  24288642.59200 127637678.30600      -478.84500                
G14  20695760.10100 108756953.38100      -269.93200                
G15  24938595.57000 131053204.25500     -4050.01200                
G18  21915725.94100 115167917.13900      2524.71200                
G19  21639125.01200 113714369.44500     -2171.99200                
G22  23654661.43600 124306084.84100      2930.32800                
G23  20749924.08800 109041587.05500     -1192.04000                
G27  21269689.28500 111772971.59600      1898.50400                
G28  24180935.64200 127071674.46400     -3016.73900                
E01        27.38100       143.88600        27.75100                
E02        25.07700       131.78300        15.59600                
E03        22.06800       115.96700       -13.29800                
E04        21.58500       113.43100       -28.23000                
E05         8.75900        46.03000       -27.47000                
E06        14.78500        77.69800        30.02600                
> 2025 04 22 14 01 19.0000000  0 16
G03  24442114.46700 128444178.45100      1651.40300                
G09  24288733.54000 127638156.24100      -476.66600                
G14  20695811.62500 108757224.14200      -271.35400                
G15  24939366.66900 131057256.40700     -4054.45800                
G18  21915245.41300 115165391.94900      2525.96600                
G19  21639538.41500 113716541.89700     -2173.24100                
G22  23654104.05300 124303155.77600      2928.18600                
G23  20750150.85600 109042778.72700     -1191.44200                
G27  21269328.28200 111771074.51700      1895.47800                
G28  24181509.38000 127074689.47700     -3013.58900                
E01        22.01300       115.68100        28.28300                
E02        22.27100       117.03700        13.54200                
E03        24.84200       130.54500       -15.51700                
E04        26.95900       141.67200       -27.87800                
E05        14.33000        75.30700       -30.04500                
E06         9.17900        48.23700        27.94400                
> 2025 04 22 14 01 20.0000000  0 16
G03  24441800.32900 128442527.64300      1649.76800                
G09  24288823.87900 127638630.97200      -472.49400                
G14  20695863.28400 108757495.61100      -271.34700                
G15  24940138.68300 131061313.37000     -4059.56200                
G18  21914764.47900 115162864.62200      2528.94900                
G19  21639952.23800 113718716.54600     -2176.36000                
G22  23653546.84900 124300227.64700      2928.46900                
G23  20750377.59000 109043970.22300     -1191.69800                
G27  21268967.94600 111769180.93600      1891.55400                
G28  24182082.69400 127077702.25900     -3012.31800                
E01        16.75400        88.04500        26.64900                
E02        20.01500       105.17700        10.08700                
E03        27.81800       146.18600       -15.32400                
E04        32.05100       168.43100       -25.26800                
E05        19.93500       104.75800       -28.35600                
E06         4.91100        25.80800        12.81000                
> 2025 04 22 14 01 21.0000000  0 16
G03  24441486.74900 128440879.77100      1645.56500                
G09  24288913.26600 127639100.70600      -466.75900                
G14  20695914.81000 108757766.38100      -269.97700                
G15  24940911.69500 131065375.57700     -4064.86700                
G18  21914282.83400 115160333.56100      2533.37400                
G19  21640366.81300 113720895.15400     -2181.10200                
G22  23652989.36100 124297298.03200      2931.13300                
G23  20750604.45600 109045162.41000     -1192.81800                
G27  21268608.41800 111767291.60400      1887.03200                
G28  24182655.95700 127080714.77900     -3013.07200                
E01        11.98800        62.99900        23.16800                
E02        18.40000        96.69100         7.14100                
E03        30.50700       160.31300       -12.51400                
E04        36.44100       191.50100       -20.54300                
E05        24.96200       131.17800       -24.12600                
E06         5.56800        29.26200       -15.99800                
> 2025 04 22 14 01 22.0000000  0 16
G03  24441174.18900 128439237.25600      1639.12700                
G09  24289001.45800 127639564.15800      -460.03100                
G14  20695965.95900 108758035.17200      -267.43000                
G15  24941685.69900 131069442.99300     -4069.90100                
G18  21913800.24200 115157797.52200      2538.82700                
G19  21640782.41400 113723079.15500     -2187.07300                
G22  23652431.15900 124294364.65900      2935.92400                
G23  20750831.61200 109046356.12500     -1194.73700                
G27  21268249.78000 111765406.95000      1882.26300                
G28  24183229.55500 127083729.05500     -3015.81200                
E01         8.03600        42.22800        18.09400                
E02        17.15200        90.13300         6.43400                
E03        32.43800       170.46300        -7.45900                
E04        39.75800       208.93100       -14.06700                
E05        29.00100       152.40300       -18.07600                
E06         9.11200        47.88400       -18.86600                
> 2025 04 22 14 01 23.0000000  0 16
G03  24440863.02600 128437602.08400      1630.98300                
G09  24289088.32700 127640020.65600      -452.96800                
G14  20696016.53400 108758300.94600      -263.99900                
G15  24942460.59800 131073515.11800     -4074.21600                
G18  21913316.55400 115155255.72600      2544.80000                
G19  21641199.23000 113725269.53700     -2193.77100                
G22  23651871.87700 124291425.60900      2942.39700                
G23  20751059.19900 109047552.10200     -1197.31600                
G27  21267892.04400 111763527.03100      1877.62200                
G28  24183803.84700 127086746.98300     -3020.32300                
E01         5.27000        27.69400        10.21800                
E02        15.77600        82.90100         8.44800                
E03        33.24400       174.69700        -0.80400                
E04        41.71800       219.22900        -6.38000                
E05        31.76900       166.94600       -10.87700                
E06        12.36800        64.99600       -15.00400                
> 2025 04 22 14 01 24.0000000  0 16
G03  24440553.52200 128435975.63000      1621.81500                
G09  24289173.87400 127640470.21100      -446.25800                
G14  20696066.40100 108758562.99800      -260.05400                
G15  24943236.22000 131077591.03500     -4077.42700                
G18  21912831.72400 115152707.92600      2550.73900                
G19  21641617.34500 113727466.74600     -2200.63000                
G22  23651311.24900 124288479.48900      2949.95600                
G23  20751287.32500 109048750.91000     -1200.35900                
G27  21267535.14900 111761651.53700      1873.47100                
G28  24184379.13900 127089770.15800     -3026.23400                
E01         4.54300        23.87400        -3.28200                
E02        13.80900        72.56800        12.44700                
E03        32.69100       171.79300         6.68400                
E04        42.15100       221.50600         1.85800                
E05        33.11500       174.02300        -3.27400                
E06        14.78600        77.69900       -10.48700                
> 2025 04 22 14 01 25.0000000  0 16
G03  24440245.79900 128434358.53500      1612.39700                
G09  24289258.23100 127640913.51000      -440.55800                
G14  20696115.50100 108758821.02100      -256.01100                
G15  24944012.32300 131081669.48800     -4079.24900                
G18  21912345.81100 115150154.43400      2556.09600                
G19  21642036.73400 113729670.64900     -2207.06600                
G22  23650749.13300 124285525.55400      2957.90900                
G23  20751516.05400 109049952.89300     -1203.62600                
G27  21267178.97200 111759779.81400      1870.13000                
G28  24184955.64900 127092799.74000     -3033.04400                
E01         6.32600        33.24200       -14.32000                
E02        11.00200        57.81800        16.98600                
E03        30.69800       161.31900        14.20100                
E04        41.02100       215.56600         9.93600                
E05        33.04000       173.62500         3.93900                
E06        16.44100        86.39700        -7.23500                
> 2025 04 22 14 01 26.0000000  0 16
G03  24439939.82900 128432750.65100      1603.52500                
G09  24289341.64500 127641351.85500      -436.43500                
G14  20696163.85600 108759075.12900      -252.29600                
G15  24944788.62800 131085748.99400     -4079.52000                
G18  21911858.97300 115147596.08700      2560.37100                
G19  21642457.26400 113731880.54800     -2212.53600                
G22  23650185.52500 124282563.77100      2965.52900                
G23  20751745.40700 109051158.14900     -1206.85900                
G27  21266823.33300 111757910.92100      1867.84400                
G28  24185533.49500 127095836.34300     -3040.17800                
E01         9.68900        50.91400       -20.57800                
E02         7.47500        39.28000        19.26400                
E03        27.33400       143.64000        20.97200                
E04        38.42400       201.92100        17.15600                
E05        31.69200       166.54100         9.96700                
E06        17.69500        92.98700        -6.40900                
> 2025 04 22 14 01 27.0000000  0 16
G03  24439635.43500 128431151.04900      1595.94700                
G09  24289424.46000 127641787.05000      -434.31500                
G14  20696211.56800 108759325.85400      -249.30400                
G15  24945564.83300 131089827.97900     -4078.21600                
G18  21911371.45800 115145034.17900      2563.16400                
G19  21642878.70500 113734095.23800     -2216.58100                
G22  23649620.55400 124279594.83000      2972.11600                
G23  20751975.35100 109052366.51300     -1209.80300                
G27  21266468.01700 111756043.71800      1866.76600                
G28  24186112.68100 127098879.98800     -3047.02600                
E01        14.04300        73.79600       -24.93200                
E02         4.55900        23.96000         6.23900                
E03        22.80900       119.86100        26.28700                
E04        34.58500       181.74600        22.90500                
E05        29.36800       154.33000        14.08300                
E06        19.05300       100.12700        -8.26700                
> 2025 04 22 14 01 28.0000000  0 16
G03  24439332.30900 128429558.11000      1590.29400                
G09  24289507.08300 127642221.23800      -434.44500                
G14  20696258.80600 108759574.09000      -247.36800                
G15  24946340.64800 131093904.91700     -4075.45500                
G18  21910883.57500 115142470.33700      2564.20500                
G19  21643300.75400 113736313.11700     -2218.87100                
G22  23649054.47700 124276620.07500      2977.06700                
G23  20752205.80900 109053577.57900     -1212.22600                
G27  21266112.78500 111754176.96600      1866.94000                
G28  24186693.09700 127101930.09300     -3053.00800                
E01        19.07300       100.23100       -27.63300                
E02         6.47600        34.03300       -22.71300                
E03        17.46300        91.77100        29.48200                
E04        29.83100       156.76100        26.71400                
E05        26.48900       139.19900        15.74000                
E06        20.94300       110.05800       -11.69900                
> 2025 04 22 14 01 29.0000000  0 16
G03  24439030.03700 128427969.66100      1587.02500                
G09  24289589.95100 127642656.70900      -436.87200                
G14  20696305.79500 108759821.02100      -246.72400                
G15  24947115.81800 131097978.46500     -4071.48500                
G18  21910395.67100 115139906.38400      2563.38300                
G19  21643723.05500 113738532.32800     -2219.23100                
G22  23648487.65100 124273641.38600      2979.92200                
G23  20752436.66400 109054790.72900     -1213.94600                
G27  21265757.40600 111752309.43700      1868.30000                
G28  24187274.52800 127104985.53300     -3057.61900                
E01        24.43200       128.39000       -28.32300                
E02        11.64500        61.19300       -29.59000                
E03        11.77800        61.89200        29.64000                
E04        24.55900       129.05800        28.31400                
E05        23.54500       123.73200        14.77700                
E06        23.47900       123.38400       -14.72400                
> 2025 04 22 14 01 30.0000000  0 16
G03  24438728.13900 128426383.17700      1586.38800                
G09  24289673.48700 127643095.69700      -441.43700                
G14  20696352.79600 108760068.01100      -247.49500                
G15  24947890.14600 131102047.58100     -4066.66100                
G18  21909908.09800 115137344.16800      2560.75200                
G19  21644145.24100 113740750.92700     -2217.66000                
G22  23647920.50500 124270661.01200      2980.40800                
G23  20752667.76900 109056005.19300     -1214.84000                
G27  21265401.66900 111750440.02400      1870.67200                
G28  24187856.67500 127108044.73400     -3060.47800                
E01        29.71000       156.12900       -26.77600                
E02        17.33100        91.07400       -29.52500                
E03         6.57900        34.57200        23.05800                
E04        19.19700       100.88200        27.67500                
E05        20.99600       110.33300        11.78500                
E06        26.41800       138.82600       -15.74500                
> 2025 04 22 14 01 31.0000000  0 16
G03  24438426.10900 128424795.99900      1588.39400                
G09  24289758.07000 127643540.18000      -447.79000                
G14  20696400.07800 108760316.48200      -249.67500                
G15  24948663.50700 131106111.62500     -4061.41600                
G18  21909421.18100 115134785.40400      2556.52800                
G19  21644566.95600 113742967.05500     -2214.33000                
G22  23647353.49800 124267681.37100      2978.46500                
G23  20752898.96100 109057220.11600     -1214.86200                
G27  21265045.40400 111748567.83900      1873.79200                
G28  24188439.17900 127111105.81600     -3061.35800                
E01        34.48200       181.20200       -23.01700                
E02        22.69000       119.23700       -26.38800                
E03         4.53300        23.81900        -5.49000                
E04        14.15500        74.38200        25.01700                
E05        19.09000       100.32000         8.33800                
E06        29.30400       153.99500       -14.15100                
> 2025 04 22 14 01 32.0000000  0 16
G03  24438123.46200 128423205.57700      1592.81900                
G09  24289843.99200 127643991.70300      -455.42200                
G14  20696447.90000 108760567.78900      -253.13500                
G15  24949435.86800 131110170.40800     -4056.21900                
G18  21908935.19300 115132231.51700      2551.06800                
G19  21644987.89400 113745179.10200     -2209.56700                
G22  23646787.08100 124264704.83000      2974.25100                
G23  20753130.07600 109058434.63300     -1214.04100                
G27  21264688.50000 111746692.29500      1877.33100                
G28  24189021.65800 127114166.76100     -3060.21100                
E01        38.34600       201.51100       -17.31000                
E02        27.23900       143.14000       -21.11600                
E03         7.38800        38.82200       -19.23300                
E04         9.78000        51.39700        20.69900                
E05        17.72300        93.13500         6.42500                
E06        31.64600       166.30100       -10.08700                
> 2025 04 22 14 01 33.0000000  0 16
G03  24437819.77600 128421609.69700      1599.22200                
G09  24289931.43900 127644451.24200      -463.70900                
G14  20696496.48400 108760823.09800      -257.63100                
G15  24950207.28200 131114224.21400     -4051.53500                
G18  21908450.32400 115129683.51500      2544.84200                
G19  21645407.82600 113747385.85700     -2203.82900                
G22  23646221.65500 124261733.49700      2968.12500                
G23  20753360.96300 109059647.95000     -1212.48400                
G27  21264330.91100 111744813.15500      1880.92100                
G28  24189603.73400 127117225.59300     -3057.17000                
E01        40.97500       215.32500       -10.11800                
E02        30.63300       160.97800       -14.37200                
E03        10.92500        57.41200       -17.08300                
E04         6.39000        33.57700        14.50500                
E05        16.47200        86.56300         7.18400                
E06        33.02100       173.52500        -4.09700                
> 2025 04 22 14 01 34.0000000  0 16
G03  24437514.73100 128420006.67500      1606.98700                
G09  24290020.47200 127644919.11300      -471.97000                
G14  20696545.99600 108761083.28400      -262.82500                
G15  24950977.88700 131118273.77000     -4047.78400                
G18  21907966.67100 115127141.90200      2538.38600                
G19  21645826.61500 113749586.60900     -2197.65800                
G22  23645657.53600 124258769.03200      2960.61600                
G23  20753591.49600 109060859.41100     -1210.36200                
G27  21263972.66500 111742930.55500      1884.19100                
G28  24190185.07400 127120280.55700     -3052.53600                
E01        42.14200       221.45500        -2.05300                
E02        32.66000       171.62800        -6.86400                
E03        13.75200        72.26800       -12.55500                
E04         4.55800        23.95100         3.61800                
E05        14.83200        77.94100        10.39000                
E06        33.12900       174.09300         3.09700                
> 2025 04 22 14 01 35.0000000  0 16
G03  24437208.13700 128418395.51000      1615.37600                
G09  24290111.02000 127645394.94600      -479.52500                
G14  20696596.53100 108761348.84800      -268.31900                
G15  24951747.89400 131122320.18500     -4045.30100                
G18  21907484.22400 115124606.62700      2532.25700                
G19  21646244.23500 113751781.21700     -2191.63800                
G22  23645094.92700 124255812.49700      2952.38000                
G23  20753821.58900 109062068.55900     -1207.89800                
G27  21263613.85400 111741044.99100      1886.79600                
G28  24190765.41500 127123330.26800     -3046.75100                
E01        41.74500       219.37200         6.18900                
E02        33.24600       174.70900         0.63300                
E03        15.73700        82.69700        -8.52500                
E04         5.22400        27.45200        -9.96700                
E05        12.43400        65.34400        14.89500                
E06        31.81600       167.19600        10.69900                
> 2025 04 22 14 01 36.0000000  0 16
G03  24436899.94900 128416775.97600      1623.59400                
G09  24290202.88900 127645877.72000      -485.75600                
G14  20696648.10600 108761619.87900      -273.68600                
G15  24952517.56800 131126364.85000     -4044.31000                
G18  21907002.87000 115122077.09400      2526.98300                
G19  21646660.76900 113753970.11900     -2186.33700                
G22  23644533.89600 124252864.26300      2944.13500                
G23  20754051.20100 109063275.17600     -1205.34400                
G27  21263254.63300 111739157.27600      1888.45200                
G28  24191344.58900 127126373.84500     -3040.36400                
E01        39.82000       209.25700        13.89600                
E02        32.47000       170.63300         7.31700                
E03        17.12200        89.97700        -6.45200                
E04         7.95400        41.79900       -17.95200                
E05         9.19600        48.32400        18.80700                
E06        29.08100       152.82400        17.91600                
> 2025 04 22 14 01 37.0000000  0 16
G03  24436590.27700 128415148.63600      1630.86300                
G09  24290295.77700 127646365.84900      -490.16500                
G14  20696700.65800 108761896.04100      -278.51300                
G15  24953287.20400 131130409.31300     -4044.90000                
G18  21906522.40200 115119552.21600      2523.01500                
G19  21647076.40400 113756154.29500     -2182.26000                
G22  23643974.37900 124249923.97800      2936.60100                
G23  20754280.33800 109064479.30300     -1202.96200                
G27  21262895.20500 111737268.46600      1888.96100                
G28  24191922.53700 127129410.98300     -3033.97300                
E01        36.53300       191.98000        20.40700                
E02        30.56200       160.60400        12.41800                
E03        18.36700        96.52000        -7.09500                
E04        11.88400        62.45100       -23.06800                
E05         5.64000        29.63900        16.28900                
E06        25.07000       131.74200        24.00100                
> 2025 04 22 14 01 38.0000000  0 16
G03  24436279.36700 128413514.79600      1636.48800                
G09  24290389.30200 127646857.32900      -492.41600                
G14  20696754.04700 108762176.60300      -282.43300                
G15  24954057.09900 131134455.14200     -4047.02000                
G18  21906042.53700 115117030.50800      2520.68800                
G19  21647491.41200 113758335.17600     -2179.80300                
G22  23643416.17400 124246990.59300      2930.43400                
G23  20754509.05900 109065681.23700     -1200.99700                
G27  21262535.79700 111735379.76500      1888.22500                
G28  24192499.31600 127132441.98000     -3028.18000                
E01        32.16400       169.02400        25.17900                
E02        27.88700       146.54500        15.28600                
E03        19.96900       104.93800       -10.00500                
E04        16.63500        87.41600       -26.58800                
E05         4.85500        25.51200       -12.08900                
E06        20.06100       105.42400        28.28100                
> 2025 04 22 14 01 39.0000000  0 16
G03  24435967.58900 128411876.38800      1639.92300                
G09  24290483.03800 127647349.91100      -492.36500                
G14  20696808.07300 108762460.50800      -285.16000                
G15  24954827.53000 131138503.78100     -4050.48100                
G18  21905562.94200 115114510.22100      2520.18900                
G19  21647906.12700 113760514.51900     -2179.21500                
G22  23642858.97000 124244062.46300      2926.16800                
G23  20754737.46200 109066881.50500     -1199.65900                
G27  21262176.64700 111733492.42100      1886.25900                
G28  24193075.09400 127135467.71400     -3023.53100                
E01        27.08400       142.32800        27.84100                
E02        24.91100       130.91000        15.54100                
E03        22.21100       116.71800       -13.47100                
E04        21.88600       115.01400       -28.26900                
E05         9.05400        47.57900       -27.81200                
E06        14.46500        76.01500        30.04100                
> 2025 04 22 14 01 40.0000000  0 16
G03  24435655.39500 128410235.79600      1640.81600                
G09  24290576.54700 127647841.30900      -490.07400                
G14  20696862.48800 108762746.46500      -286.51700                
G15  24955598.72300 131142556.42700     -4054.97400                
G18  21905083.26500 115111989.50200      2521.54300                
G19  21648320.91700 113762694.25300     -2180.58200                
G22  23642302.36500 124241137.48900      2924.16700                
G23  20754965.68300 109068080.81500     -1199.10100                
G27  21261817.98000 111731607.61200      1883.18600                
G28  24193650.13300 127138489.56200     -3020.47100                
E01        21.71200       114.09700        28.24600                
E02        22.12800       116.28200        13.37000                
E03        25.00800       131.41600       -15.57500                
E04        27.25600       143.23200       -27.79100                
E05        14.65100        76.99100       -30.03500                
E06         8.88300        46.68000        27.61700                
> 2025 04 22 14 01 41.0000000  0 16
G03  24435343.28400 128408595.64400      1639.04300                
G09  24290669.42800 127648329.39700      -485.80400                
G14  20696917.02600 108763033.06400      -286.44500                
G15  24956370.83800 131146613.92000     -4060.10100                
G18  21904603.16500 115109466.55500      2524.60900                
G19  21648736.14700 113764876.30000     -2183.81200                
G22  23641745.91200 124238213.30700      2924.59300                
G23  20755193.87900 109069279.99300     -1199.40500                
G27  21261459.98600 111729726.34000      1879.23000                
G28  24194224.76600 127141509.27800     -3019.30400                
E01        16.47100        86.55600        26.49900                
E02        19.90800       104.61700         9.88900                
E03        27.98100       147.04200       -15.23400                
E04        32.32000       169.84100       -25.05700                
E05        20.23600       106.34300       -28.17800                
E06         4.78400        25.13800        11.06300                
> 2025 04 22 14 01 42.0000000  0 16
G03  24435031.75700 128406958.56100      1634.71600                
G09  24290761.34000 127648812.40300      -479.99600                
G14  20696971.41900 108763318.90100      -285.01600                
G15  24957143.95300 131150676.66600     -4065.40200                
G18  21904122.34000 115106939.80300      2529.09200                
G19  21649152.14900 113767062.40800     -2188.64800                
G22  23641189.15000 124235287.50000      2927.39000                
G23  20755422.21700 109070479.91400     -1200.57900                
G27  21261102.80500 111727849.34300      1874.69000                
G28  24194799.36800 127144528.83500     -3020.16200                
E01        11.74300        61.70700        22.92600                
E02        18.32400        96.29400         7.03100                
E03        30.63900       161.00800       -12.28500                
E04        36.65900       192.64300       -20.22200                
E05        25.21800       132.52200       -23.82900                
E06         5.74300        30.17700       -16.66200                
> 2025 04 22 14 01 43.0000000  0 16
G03  24434721.27200 128405326.94800      1628.17800                
G09  24290852.04600 127649289.06600      -473.22300                
G14  20697025.42600 108763602.70700      -282.42300                
G15  24957918.05600 131154744.60500     -4070.40700                
G18  21903640.55900 115104408.02900      2534.57200                
G19  21649569.19400 113769253.99200     -2194.68800                
G22  23640631.64800 124232357.81200      2932.29200                
G23  20755650.85500 109071681.41600     -1202.55100                
G27  21260746.51600 111725977.03100      1869.92200                
G28  24195374.32500 127147550.25200     -3023.00000                
E01         7.84400        41.22300        17.75300                
E02        17.08300        89.77100         6.47800                
E03        32.51600       170.87200        -7.12100                
E04        39.90600       209.70800       -13.66200                
E05        29.19200       153.40600       -17.69600                
E06         9.31300        48.93800       -18.72400                
> 2025 04 22 14 01 44.0000000  0 16
G03  24434412.19900 128403702.76200      1619.96700                
G09  24290941.42400 127649758.74900      -466.15000                
G14  20697078.85100 108763883.45600      -278.96000                
G15  24958693.04700 131158817.21000     -4074.66800                
G18  21903157.68100 115101870.48700      2540.54000                
G19  21649987.46300 113771452.01200     -2201.42500                
G22  23640073.04900 124229422.35300      2938.84400                
G23  20755879.93400 109072885.23300     -1205.17900                
G27  21260391.12700 111724109.44600      1865.30000                
G28  24195949.99300 127150575.41100     -3027.59300                
E01         5.16400        27.13800         9.61300                
E02        15.68500        82.42300         8.63100                
E03        33.25000       174.73000        -0.39900                
E04        41.78400       219.57400        -5.92600                
E05        31.88200       167.54400       -10.45500                
E06        12.52700        65.82900       -14.74500                
> 2025 04 22 14 01 45.0000000  0 16
G03  24434104.79500 128402087.34100      1610.77100                
G09  24291029.48200 127650221.49500      -459.46400                
G14  20697131.56300 108764160.46200      -275.00200                
G15  24959468.74700 131162893.54400     -4077.80600                
G18  21902673.66400 115099326.96300      2546.44200                
G19  21650407.03500 113773656.87800     -2208.28700                
G22  23639513.09300 124226479.76300      2946.44300                
G23  20756109.55900 109074091.92400     -1208.26000                
G27  21260036.57400 111722246.25900      1861.18200                
G28  24196526.67400 127153605.88700     -3033.56200                
E01         4.58200        24.08100        -4.07600                
E02        13.67500        71.86300        12.70300                
E03        32.61700       171.40600         7.11200                
E04        42.12900       221.38900         2.32200                
E05        33.14800       174.19400        -2.85200                
E06        14.89600        78.28100       -10.25800                
> 2025 04 22 14 01 46.0000000  0 16
G03  24433799.17300 128400481.28600      1601.36700                
G09  24291116.35700 127650678.02600      -453.82100                
G14  20697183.50800 108764433.43500      -270.96700                
G15  24960244.91500 131166972.33200     -4079.54200                
G18  21902188.57500 115096777.79900      2551.73200                
G19  21650827.87900 113775868.42600     -2214.69100                
G22  23638951.64600 124223529.33900      2954.39200                
G23  20756339.79500 109075301.82300     -1211.55300                
G27  21259682.73100 111720386.80200      1857.88700                
G28  24197104.58200 127156642.81400     -3040.40100                
E01         6.48100        34.05700       -14.75500                
E02        10.82000        56.85900        17.21500                
E03        30.54400       160.51200        14.60800                
E04        40.91300       214.99700        10.36900                
E05        32.99600       173.39300         4.31500                
E06        16.51700        86.79900        -7.11600                
> 2025 04 22 14 01 47.0000000  0 16
G03  24433495.29700 128398884.40700      1592.54900                
G09  24291202.30300 127651129.67400      -449.78200                
G14  20697234.71200 108764702.51100      -267.27800                
G15  24961021.26600 131171052.08600     -4079.72100                
G18  21901702.57600 115094223.85900      2555.91800                
G19  21651249.85400 113778085.92100     -2220.09700                
G22  23638388.71000 124220571.09300      2961.96600                
G23  20756570.65800 109076515.01200     -1214.79800                
G27  21259329.41700 111718530.12500      1855.65500                
G28  24197683.82800 127159686.77600     -3047.53200                
E01         9.91000        52.07500       -20.86300                
E02         7.27000        38.20200        19.18200                
E03        27.10800       142.45500        21.31500                
E04        38.23900       200.94900        17.52200                
E05        31.58400       165.97500        10.25400                
E06        17.76300        93.34800        -6.44600                
> 2025 04 22 14 01 48.0000000  0 16
G03  24433192.98400 128397295.74000      1585.06000                
G09  24291287.66700 127651578.26700      -447.76600                
G14  20697285.27800 108764968.23800      -264.32900                
G15  24961797.50100 131175131.22800     -4078.32800                
G18  21901215.91800 115091666.45600      2558.60500                
G19  21651672.72600 113780308.12900     -2224.05200                
G22  23637824.42500 124217605.75400      2968.46900                
G23  20756802.11200 109077731.31400     -1217.73500                
G27  21258976.41400 111716675.08300      1854.63400                
G28  24198264.41100 127162737.76000     -3054.34600                
E01        14.31000        75.19900       -25.13000                
E02         4.50200        23.66000         4.42900                
E03        22.52700       118.38100        26.52800                
E04        34.33900       180.45500        23.17300                
E05        29.21700       153.53700        14.24500                
E06        19.14300       100.59500        -8.43500                
> 2025 04 22 14 01 49.0000000  0 16
G03  24432891.91900 128395713.63200      1579.52300                
G09  24291372.86000 127652025.96200      -448.01000                
G14  20697335.38000 108765231.52600      -262.44900                
G15  24962573.33000 131179208.23700     -4075.48900                
G18  21900728.91300 115089107.22700      2559.53600                
G19  21652096.18600 113782533.42500     -2226.23300                
G22  23637259.05300 124214634.70300      2973.30400                
G23  20757034.07800 109078950.30200     -1220.13700                
G27  21258623.48600 111714820.43400      1854.86400                
G28  24198846.21400 127165795.15600     -3060.26400                
E01        19.36900       101.78200       -27.72800                
E02         6.72300        35.32900       -23.50700                
E03        17.14800        90.11600        29.58400                
E04        29.54500       155.25900        26.86300                
E05        26.32100       138.31600        15.75400                
E06        21.06900       110.71900       -11.89900                
> 2025 04 22 14 01 50.0000000  0 16
G03  24432591.68400 128394135.88900      1576.38600                
G09  24291458.32000 127652475.05500      -450.55100                
G14  20697385.24500 108765493.57000      -261.86800                
G15  24963348.50100 131183281.78700     -4071.45800                
G18  21900241.90800 115086547.99800      2558.60600                
G19  21652519.87700 113784759.94000     -2226.47500                
G22  23636692.95600 124211659.84300      2976.02200                
G23  20757266.43500 109080171.34500     -1221.82000                
G27  21258270.40100 111712964.95600      1856.27200                
G28  24199429.01800 127168857.81100     -3064.78900                
E01        24.73400       129.97600       -28.29600                
E02        11.96100        62.85500       -29.70000                
E03        11.46200        60.23400        29.51900                
E04        24.25700       127.47000        28.33700                
E05        23.38900       122.90700        14.65300                
E06        23.63700       124.21300       -14.84500                
> 2025 04 22 14 01 51.0000000  0 16
G03  24432291.79800 128392559.97500      1575.88600                
G09  24291544.47000 127652927.77500      -455.21900                
G14  20697435.13400 108765755.73700      -262.70500                
G15  24964122.81900 131187350.85500     -4066.59600                
G18  21899755.25300 115083990.60700      2555.88100                
G19  21652943.43000 113786985.72400     -2224.78800                
G22  23636126.56500 124208683.44100      2976.36400                
G23  20757499.03400 109081393.66100     -1222.66800                
G27  21257916.94800 111711107.55000      1858.68100                
G28  24200012.52000 127171924.13100     -3067.54500                
E01        29.99500       157.62500       -26.62300                
E02        17.64500        92.72500       -29.41800                
E03         6.33700        33.30200        22.21700                
E04        18.90300        99.33400        27.57600                
E05        20.87100       109.67900        11.58500                
E06        26.58600       139.70800       -15.72600                
> 2025 04 22 14 01 52.0000000  0 16
G03  24431991.75400 128390983.23400      1578.02000                
G09  24291631.68300 127653386.08500      -461.65700                
G14  20697485.31700 108766019.44900      -264.94700                
G15  24964896.16700 131191414.82400     -4061.33800                
G18  21899269.27100 115081436.75300      2551.58400                
G19  21653366.49100 113789208.92600     -2221.35300                
G22  23635560.34200 124205707.91500      2974.28100                
G23  20757731.71000 109082616.38500     -1222.63500                
G27  21257562.96300 111709247.34400      1861.82400                
G28  24200596.35900 127174992.22500     -3068.31600                
E01        34.72600       182.48400       -22.74500                
E02        22.97000       120.70900       -26.14300                
E03         4.60100        24.17600        -7.23300                
E04        13.88900        72.98600        24.81600                
E05        19.00200        99.85700         8.17400                
E06        29.45400       154.78300       -13.98500                
> 2025 04 22 14 01 53.0000000  0 16
G03  24431691.07000 128389403.12900      1582.55400                
G09  24291720.25000 127653851.50700      -469.34600                
G14  20697536.05000 108766286.05600      -268.46000                
G15  24965668.51300 131195473.53400     -4056.15400                
G18  21898784.22800 115078887.83400      2546.08000                
G19  21653788.75800 113791427.95300     -2216.50800                
G22  23634994.73300 124202735.62300      2969.94200                
G23  20757964.29900 109083838.64800     -1221.75800                
G27  21257208.33500 111707383.76400      1865.36800                
G28  24201180.15100 127178060.07500     -3067.06300                
E01        38.52900       202.47100       -16.94100                
E02        27.46200       144.31300       -20.77100                
E03         7.59300        39.90200       -19.29300                
E04         9.56100        50.24500        20.41100                
E05        17.65500        92.77600         6.39300                
E06        31.75200       166.85800        -9.79600                
> 2025 04 22 14 01 54.0000000  0 16
G03  24431389.32900 128387817.47100      1589.03700                
G09  24291810.35000 127654324.98600      -477.65900                
G14  20697587.55400 108766556.71200      -272.99500                
G15  24966439.91800 131199527.29100     -4051.50900                
G18  21898300.31000 115076344.83000      2539.84100                
G19  21654210.00500 113793641.61900     -2210.71500                
G22  23634430.13700 124199768.64900      2963.72000                
G23  20758196.64900 109085059.65500     -1220.14800                
G27  21256853.02400 111705516.59300      1868.94500                
G28  24201763.52200 127181125.71000     -3063.92700                
E01        41.08100       215.88000        -9.68300                
E02        30.78400       161.77200       -13.96400                
E03        11.10600        58.36300       -16.85100                
E04         6.23700        32.77700        14.06200                
E05        16.39500        86.15700         7.30700                
E06        33.06200       173.74400        -3.71800                
> 2025 04 22 14 01 55.0000000  0 16
G03  24431086.21800 128386224.60900      1596.84500                
G09  24291902.03700 127654806.80400      -485.91000                
G14  20697639.99200 108766832.27400      -278.21100                
G15  24967210.52300 131203576.85000     -4047.81900                
G18  21897817.60700 115073808.21000      2533.40500                
G19  21654630.10200 113795849.24500     -2204.52400                
G22  23633866.86200 124196808.62200      2956.15200                
G23  20758428.63600 109086278.75600     -1217.98000                
G27  21256497.05900 111703645.98200      1872.18500                
G28  24202346.14100 127184187.39100     -3059.21900                
E01        42.16100       221.55700        -1.59000                
E02        32.73100       172.00100        -6.43600                
E03        13.88500        72.96500       -12.29900                
E04         4.52300        23.77100         2.81500                
E05        14.72000        77.35200        10.62200                
E06        33.09400       173.90800         3.52000                
> 2025 04 22 14 01 56.0000000  0 16
G03  24430781.55200 128384623.58300      1605.23600                
G09  24291995.23400 127655296.55900      -493.42100                
G14  20697693.45600 108767113.22700      -283.70700                
G15  24967980.54400 131207623.33800     -4045.41300                
G18  21897336.10400 115071277.89300      2527.32700                
G19  21655049.03000 113798050.72400     -2198.51900                
G22  23633305.10500 124193856.56400      2947.89700                
G23  20758660.17600 109087495.50300     -1215.48100                
G27  21256140.53700 111701772.44500      1874.74700                
G28  24202927.74800 127187243.76000     -3053.38700                
E01        41.67700       219.01300         6.64100                
E02        33.23700       174.66200         1.03700                
E03        15.82700        83.16900        -8.34600                
E04         5.33300        28.02700       -10.55900                
E05        12.27400        64.50200        15.15300                
E06        31.70000       166.58400        11.12100                
> 2025 04 22 14 01 57.0000000  0 16
G03  24430475.29800 128383014.20500      1613.41500                
G09  24292089.74100 127655793.19400      -499.57900                
G14  20697747.95800 108767399.63900      -289.05700                
G15  24968750.24800 131211668.15800     -4044.50800                
G18  21896855.68100 115068753.25400      2522.13000                
G19  21655466.87700 113800246.52800     -2193.26600                
G22  23632744.92600 124190912.80500      2939.67700                
G23  20758891.22800 109088709.69100     -1212.90700                
G27  21255783.61400 111699896.80400      1876.35000                
G28  24203508.18200 127190293.96200     -3046.98300                
E01        39.67000       208.46600        14.29800                
E02        32.39100       170.21400         7.65100                
E03        17.19100        90.33700        -6.41400                
E04         8.14700        42.81400       -18.28800                
E05         8.99500        47.26700        18.94000                
E06        28.88800       151.80900        18.29300                
> 2025 04 22 14 01 58.0000000  0 16
G03  24430167.56900 128381397.08000      1620.60700                
G09  24292185.25000 127656295.10000      -503.89100                
G14  20697803.43200 108767691.15500      -293.84900                
G15  24969519.93000 131215712.86300     -4045.18600                
G18  21896376.12700 115066233.18200      2518.25900                
G19  21655883.83700 113802437.66900     -2189.26700                
G22  23632186.25100 124187976.94800      2932.20900                
G23  20759121.80400 109089921.37800     -1210.52100                
G27  21255426.49400 111698020.12600      1876.80000                
G28  24204087.39100 127193337.72400     -3040.60800                
E01        36.31300       190.82700        20.72500                
E02        30.42800       159.90200        12.64300                
E03        18.44300        96.92100        -7.20900                
E04        12.13100        63.75100       -23.30700                
E05         5.47000        28.74600        15.56500                
E06        24.81200       130.38900        24.29500                
> 2025 04 22 14 01 59.0000000  0 16
G03  24429858.62100 128379773.54800      1626.12400                
G09  24292281.37700 127656800.25000      -506.03000                
G14  20697859.73500 108767987.02800      -297.71800                
G15  24970289.88700 131219759.01700     -4047.38600                
G18  21895897.15700 115063716.17700      2516.03800                
G19  21656300.18800 113804625.60600     -2186.91000                
G22  23631628.87300 124185047.90700      2926.14300                
G23  20759351.96400 109091130.87700     -1208.56900                
G27  21255069.40600 111696143.61700      1876.00400                
G28  24204665.43700 127196375.37700     -3034.86100                
E01        31.89400       167.60600        25.38600                
E02        27.72300       145.68600        15.37000                
E03        20.07700       105.50500       -10.20400                
E04        16.91900        88.91000       -26.73500                
E05         4.99300        26.23800       -13.77200                
E06        19.75900       103.83400        28.45400                
> 2025 04 22 14 02  0.0000000  0 16
G03  24429548.82700 128378145.56700      1629.43000                
G09  24292377.69200 127657306.38800      -505.86200                
G14  20697916.66300 108768286.18900      -300.38500                
G15  24971060.39400 131223808.05800     -4050.91300                
G18  21895418.43700 115061200.48500      2515.64700                
G19  21656716.26700 113806812.11400     -2186.43700                
G22  23631072.47300 124182124.00700      2922.00300                
G23  20759581.81100 109092338.72900     -1207.25900                
G27  21254712.58800 111694268.52300      1873.98300                
G28  24205242.49300 127199407.82600     -3030.28400                
E01        26.78700       140.76500        27.92300                
E02        24.74600       130.04100        15.47800                
E03        22.35500       117.47700       -13.64000                
E04        22.18800       116.59900       -28.30200                
E05         9.35200        49.14700       -28.12000                
E06        14.14500        74.33100        30.04300                
> 2025 04 22 14 02  1.0000000  0 16
G03  24429238.64300 128376515.53900      1630.18300                
G09  24292473.76000 127657811.22600      -503.45900                
G14  20697973.97000 108768587.33800      -301.67600                
G15  24971831.67400 131227861.16100     -4055.45200                
G18  21894939.61500 115058684.25700      2517.10000                
G19  21657132.44200 113808999.12900     -2187.92200                
G22  23630516.64800 124179203.12700      2920.14400                
G23  20759811.48200 109093545.65800     -1206.74100                
G27  21254356.26100 111692396.01300      1870.86500                
G28  24205818.82500 127202436.47100     -3027.31600                
E01        21.41100       112.51500        28.20300                
E02        21.98600       115.53800        13.19400                
E03        25.17400       132.29000       -15.62600                
E04        27.55200       144.78700       -27.69700                
E05        14.97100        78.67400       -30.01400                
E06         8.59000        45.14200        27.25400                
> 2025 04 22 14 02  2.0000000  0 16
G03  24428928.56900 128374886.09000      1628.27100                
G09  24292569.17700 127658312.64900      -499.09300                
G14  20698031.38600 108768889.06400      -301.53900                
G15  24972603.88200 131231919.14500     -4060.60000                
G18  21894460.35100 115056165.71100      2520.24700                
G19  21657549.07900 113811188.57200     -2191.26200                
G22  23629960.94700 124176282.89600      2920.71200                
G23  20760041.13600 109094752.50100     -1207.09500                
G27  21254000.61500 111690527.08000      1866.87600                
G28  24206394.77000 127205463.08300     -3026.25200                
E01        16.18900        85.07500        26.34400                
E02        19.80400       104.06800         9.69300                
E03        28.14300       147.89300       -15.13600                
E04        32.58600       171.24000       -24.83900                
E05        20.53600       107.91700       -27.99300                
E06         4.67500        24.57000         9.21300                
> 2025 04 22 14 02  3.0000000  0 16
G03  24428619.10400 128373259.84100      1623.82100                
G09  24292663.61200 127658808.90500      -493.21200                
G14  20698088.64600 108769189.96500      -300.05300                
G15  24973377.09200 131235982.39000     -4065.89700                
G18  21893980.35100 115053643.29000      2524.78600                
G19  21657966.50800 113813382.17800     -2196.19100                
G22  23629404.91000 124173360.90300      2923.64200                
G23  20760270.94200 109095960.13800     -1208.32300                
G27  21253645.78700 111688662.44700      1862.32100                
G28  24206970.70500 127208489.64200     -3027.21600                
E01        11.49900        60.42900        22.67900                
E02        18.25000        95.90300         6.92800                
E03        30.76900       161.69000       -12.04900                
E04        36.87300       193.76700       -19.89500                
E05        25.47100       133.84900       -23.52700                
E06         5.92300        31.12800       -17.23000                
> 2025 04 22 14 02  4.0000000  0 16
G03  24428310.70200 128371639.17500      1617.18500                
G09  24292756.82800 127659298.76000      -486.39700                
G14  20698145.50900 108769488.78300      -297.41300                
G15  24974151.28700 131240050.80900     -4070.87000                
G18  21893499.38700 115051115.80800      2530.29200                
G19  21658384.99500 113815581.34100     -2202.29900                
G22  23628848.11100 124170434.90600      2928.65300                
G23  20760501.05900 109097169.41100     -1210.34800                
G27  21253291.85200 111686802.50500      1857.55400                
G28  24207547.01300 127211518.16200     -3030.15100                
E01         7.65700        40.23800        17.40400                
E02        17.01300        89.40600         6.53000                
E03        32.59000       171.26100        -6.77900                
E04        40.05000       210.46300       -13.25400                
E05        29.37900       154.38700       -17.31300                
E06         9.51100        49.98300       -18.56800                
> 2025 04 22 14 02  5.0000000  0 16
G03  24428003.72800 128370026.01700      1608.90900                
G09  24292848.71100 127659781.61000      -479.31500                
G14  20698201.78300 108769784.50600      -293.92000                
G15  24974926.36100 131244123.85300     -4075.07600                
G18  21893017.32300 115048582.54700      2536.25300                
G19  21658804.71600 113817786.99100     -2209.07100                
G22  23628290.19700 124167503.04500      2935.28100                
G23  20760731.62600 109098381.05000     -1213.02400                
G27  21252938.81400 111684947.28000      1852.95000                
G28  24208124.05100 127214550.51300     -3034.82400                
E01         5.06500        26.61700         8.98500                
E02        15.59100        81.93400         8.81900                
E03        33.25200       174.74100         0.00900                
E04        41.84400       219.89300        -5.47100                
E05        31.99200       168.11800       -10.03100                
E06        12.68300        66.64800       -14.48400                
> 2025 04 22 14 02  6.0000000  0 16
G03  24427698.43100 128368421.66900      1599.68800                
G09  24292939.27600 127660257.53100      -472.65600                
G14  20698257.34100 108770076.46400      -289.95000                
G15  24975702.13200 131248200.55800     -4078.14000                
G18  21892534.12600 115046043.32700      2542.11600                
G19  21659225.74400 113819999.50800     -2215.93400                
G22  23627730.91400 124164563.99600      2942.91700                
G23  20760962.74900 109099595.60600     -1216.14400                
G27  21252586.60900 111683096.42700      1848.86700                
G28  24208702.11300 127217588.25100     -3040.84900                
E01         4.63000        24.33100        -4.85500                
E02        13.53800        71.14400        12.96200                
E03        32.53900       170.99500         7.54000                
E04        42.10200       221.24600         2.78500                
E05        33.17600       174.34300        -2.43200                
E06        15.00500        78.84900       -10.03300                
> 2025 04 22 14 02  7.0000000  0 16
G03  24427394.91700 128366826.69300      1590.30000                
G09  24293028.66600 127660727.28000      -467.07100                
G14  20698312.13100 108770364.38700      -285.92300                
G15  24976478.35600 131252279.63800     -4079.78900                
G18  21892049.86500 115043498.52100      2547.33800                
G19  21659648.04000 113822218.68900     -2222.30500                
G22  23627170.13800 124161617.09700      2950.86100                
G23  20761194.48800 109100813.40300     -1219.46300                
G27  21252235.10500 111681249.26300      1845.61800                
G28  24209281.41100 127220632.48100     -3047.71700                
E01         6.64000        34.89500       -15.17600                
E02        10.63500        55.88800        17.43700                
E03        30.38600       159.68200        15.01100                
E04        40.80000       214.40400        10.80000                
E05        32.94800       173.14100         4.68800                
E06        16.59300        87.19500        -7.00600                
> 2025 04 22 14 02  8.0000000  0 16
G03  24427093.14200 128365240.85600      1581.53900                
G09  24293117.14100 127661192.21800      -463.11700                
G14  20698366.18300 108770648.43100      -282.26000                
G15  24977254.74500 131256359.59400     -4079.87700                
G18  21891564.71100 115040949.02000      2551.43300                
G19  21660071.45900 113824443.76800     -2227.64500                
G22  23626607.87900 124158662.40400      2958.38600                
G23  20761426.85600 109102034.50800     -1222.71600                
G27  21251884.12100 111679404.82900      1843.44000                
G28  24209862.04900 127223683.75900     -3054.84300                
E01        10.13400        53.25200       -21.14200                
E02         7.06600        37.13000        19.06000                
E03        26.87900       141.25000        21.65300                
E04        38.05100       199.95700        17.88400                
E05        31.47300       165.39200        10.53500                
E06        17.83200        93.71000        -6.49200                
> 2025 04 22 14 02  9.0000000  0 16
G03  24426792.91600 128363663.15700      1574.14000                
G09  24293205.05300 127661654.19700      -461.20500                
G14  20698419.60400 108770929.16100      -279.35500                
G15  24978031.00100 131260438.84700     -4078.39600                
G18  21891078.91700 115038396.15300      2554.01500                
G19  21660495.75900 113826673.48000     -2231.50800                
G22  23626044.28200 124155700.68600      2964.80200                
G23  20761659.81700 109103258.72600     -1225.64700                
G27  21251533.43700 111677561.97300      1842.47700                
G28  24210444.02100 127226742.03800     -3061.62000                
E01        14.57900        76.61300       -25.32300                
E02         4.46500        23.46500         2.51900                
E03        22.24300       116.88700        26.76300                
E04        34.09100       179.14900        23.43500                
E05        29.06400       152.73400        14.39900                
E06        19.23300       101.07200        -8.60700                
> 2025 04 22 14 02 10.0000000  0 16
G03  24426493.91800 128362091.91200      1568.71900                
G09  24293292.81400 127662115.38800      -461.56400                
G14  20698472.57000 108771207.50300      -277.53100                
G15  24978806.83600 131264515.88400     -4075.47900                
G18  21890592.79600 115035841.57100      2554.83400                
G19  21660920.62700 113828906.17900     -2233.57900                
G22  23625479.61800 124152733.35600      2969.52100                
G23  20761893.28700 109104485.61600     -1228.02600                
G27  21251182.81700 111675719.45400      1842.76200                
G28  24211027.20200 127229806.67900     -3067.47400                
E01        19.66500       103.33900       -27.81700                
E02         6.97700        36.66700       -24.22600                
E03        16.83200        88.45500        29.67600                
E04        29.25800       153.75000        27.00600                
E05        26.15300       137.43300        15.75900                
E06        21.19700       111.39200       -12.09600                
> 2025 04 22 14 02 11.0000000  0 16
G03  24426195.72700 128360524.90800      1565.71500                
G09  24293380.86400 127662578.09200      -464.21900                
G14  20698525.31200 108771484.66000      -277.01500                
G15  24979581.99800 131268589.39100     -4071.38800                
G18  21890106.69600 115033287.09700      2553.79800                
G19  21661345.70600 113831139.98100     -2233.70300                
G22  23624914.25400 124149762.34800      2972.10200                
G23  20762127.14100 109105714.53000     -1229.67200                
G27  21250832.03000 111673876.05300      1844.21800                
G28  24211611.37000 127232876.50200     -3071.91100                
E01        25.03500       131.56100       -28.26300                
E02        12.27800        64.52200       -29.79400                
E03        11.14800        58.58300        29.38000                
E04        23.95400       125.88100        28.35200                
E05        23.23300       122.09000        14.52200                
E06        23.79600       125.04800       -14.95800                
> 2025 04 22 14 02 12.0000000  0 16
G03  24425897.85800 128358959.59600      1565.35100                
G09  24293469.62500 127663044.53300      -468.99100                
G14  20698578.08900 108771762.00700      -277.91700                
G15  24980356.29900 131272658.36900     -4066.48800                
G18  21889620.96400 115030734.56200      2550.98000                
G19  21661770.62300 113833372.93400     -2231.90000                
G22  23624348.62400 124146789.93900      2972.29800                
G23  20762361.23000 109106944.67500     -1230.47100                
G27  21250480.86700 111672030.68200      1846.66300                
G28  24212196.21700 127235949.89400     -3074.56400                
E01        30.27800       159.11300       -26.46200                
E02        17.95800        94.37100       -29.30200                
E03         6.10500        32.08300        21.28900                
E04        18.60900        97.79100        27.47100                
E05        20.74900       109.03500        11.38400                
E06        26.75300       140.58900       -15.69900                
> 2025 04 22 14 02 13.0000000  0 16
G03  24425599.80700 128357393.32400      1567.61300                
G09  24293559.46700 127663516.65800      -475.51100                
G14  20698631.17300 108772040.96300      -280.22100                
G15  24981129.62500 131276722.22400     -4061.21900                
G18  21889135.92200 115028185.64600      2546.61300                
G19  21662195.02700 113835603.19500     -2228.36200                
G22  23623783.18700 124143818.55000      2970.07500                
G23  20762595.38600 109108175.17500     -1230.38400                
G27  21250129.16700 111670182.48200      1849.82700                
G28  24212781.38100 127239024.95200     -3075.22600                
E01        34.96700       183.75200       -22.46700                
E02        23.24800       122.16700       -25.89100                
E03         4.68600        24.62700        -8.84800                
E04        13.62500        71.60100        24.61000                
E05        18.91600        99.40400         8.01500                
E06        29.60300       155.56200       -13.81100                
> 2025 04 22 14 02 14.0000000  0 16
G03  24425301.09200 128355823.57100      1572.25500                
G09  24293650.67600 127663995.96500      -483.25700                
G14  20698684.81800 108772322.87100      -283.78700                
G15  24981901.95000 131280780.82000     -4056.05100                
G18  21888651.82900 115025641.72200      2541.06600                
G19  21662618.62000 113837829.18800     -2223.43500                
G22  23623218.39100 124140850.52600      2965.61400                
G23  20762829.44400 109109405.15800     -1229.45100                
G27  21249776.82200 111668330.89600      1853.37500                
G28  24213366.47800 127242099.65800     -3073.86700                
E01        38.70800       203.41000       -16.56700                
E02        27.68200       145.46800       -20.42100                
E03         7.79900        40.98400       -19.31800                
E04         9.34500        49.10900        20.11800                
E05        17.58700        92.41800         6.37000                
E06        31.85500       167.39900        -9.50000                
> 2025 04 22 14 02 15.0000000  0 16
G03  24425001.30400 128354248.17000      1578.81600                
G09  24293743.42600 127664483.36900      -491.59300                
G14  20698739.24200 108772608.87300      -288.36000                
G15  24982673.33800 131284834.49300     -4051.44700                
G18  21888168.86800 115023103.74100      2534.81600                
G19  21663041.17900 113840049.75200     -2217.59000                
G22  23622654.62800 124137887.93000      2959.29800                
G23  20763063.25300 109110633.83000     -1227.78700                
G27  21249423.79400 111666475.72300      1856.93900                
G28  24213951.13500 127245172.04900     -3070.63700                
E01        41.18100       216.41000        -9.24500                
E02        30.93100       162.54300       -13.55500                
E03        11.28500        59.30100       -16.61300                
E04         6.09000        32.00100        13.60300                
E05        16.31600        85.74400         7.43700                
E06        33.10000       173.94200        -3.33600                
> 2025 04 22 14 02 16.0000000  0 16
G03  24424700.13300 128352665.50600      1586.66400                
G09  24293837.76400 127664979.11800      -499.83300                
G14  20698794.60600 108772899.81200      -293.59600                
G15  24983443.93700 131288884.01800     -4047.81800                
G18  21887687.11900 115020572.13800      2528.40200                
G19  21663462.58200 113842264.24100     -2211.38100                
G22  23622092.20100 124134932.35700      2951.67200                
G23  20763296.68900 109111860.54700     -1225.57400                
G27  21249070.11600 111664617.13200      1860.14900                
G28  24214535.02300 127248240.40200     -3065.85600                
E01        42.17500       221.63300        -1.12500                
E02        32.79700       172.35000        -6.00800                
E03        14.01500        73.64700       -12.04600                
E04         4.49800        23.63600         2.00100                
E05        14.60500        76.75000        10.85700                
E06        33.05400       173.69900         3.94400                
> 2025 04 22 14 02 17.0000000  0 16
G03  24424397.40400 128351074.65700      1595.05500                
G09  24293933.60700 127665482.77500      -507.29900                
G14  20698850.99800 108773196.15300      -299.09400                
G15  24984213.96600 131292930.54400     -4045.49000                
G18  21887206.56400 115018046.80000      2522.37600                
G19  21663882.81500 113844472.58200     -2205.39200                
G22  23621531.29700 124131984.79000      2943.40200                
G23  20763529.67000 109113084.86900     -1223.04100                
G27  21248715.88800 111662755.65100      1862.66700                
G28  24215117.88900 127251303.38300     -3059.97900                
E01        41.60400       218.62800         7.09200                
E02        33.22400       174.59300         1.43800                
E03        15.91500        83.63200        -8.17400                
E04         5.44900        28.63500       -11.12900                
E05        12.11100        63.64500        15.41000                
E06        31.57900       165.94900        11.54200                
> 2025 04 22 14 02 18.0000000  0 16
G03  24424093.09000 128349475.47800      1603.19300                
G09  24294030.74800 127665993.25300      -513.38100                
G14  20698908.42700 108773497.94400      -304.42600                
G15  24984983.69200 131296975.48300     -4044.67200                
G18  21886727.07600 115015527.07400      2517.25800                
G19  21664301.97500 113846675.28200     -2200.19000                
G22  23620971.97200 124129045.51600      2935.21000                
G23  20763762.15900 109114306.60600     -1220.44800                
G27  21248361.26900 111660892.11700      1864.21700                
G28  24215699.57600 127254360.16600     -3053.56000                
E01        39.51500       207.65400        14.69700                
E02        32.30700       169.77500         7.98100                
E03        17.25900        90.69600        -6.38500                
E04         8.34400        43.84900       -18.61700                
E05         8.79200        46.20200        19.05600                
E06        28.69100       150.77300        18.66700                
> 2025 04 22 14 02 19.0000000  0 16
G03  24423787.31400 128347868.61100      1610.30600                
G09  24294128.87400 127666508.91300      -517.59500                
G14  20698966.82200 108773804.81200      -309.18100                
G15  24985753.41300 131301020.39500     -4045.43600                
G18  21886248.44000 115013011.82700      2513.48300                
G19  21664720.26000 113848873.38400     -2196.27100                
G22  23620414.14100 124126114.09500      2927.81000                
G23  20763994.17000 109115525.83100     -1218.05900                
G27  21248006.46300 111659027.60100      1864.60700                
G28  24216280.03700 127257410.51100     -3047.20200                
E01        36.09100       189.65700        21.03700                
E02        30.29200       159.18700        12.86100                
E03        18.52100        97.32800        -7.33100                
E04        12.38100        65.06400       -23.54200                
E05         5.30900        27.89700        14.72900                
E06        24.55100       129.01900        24.58200                
> 2025 04 22 14 02 20.0000000  0 16
G03  24423480.33600 128346255.43200      1615.71400                
G09  24294227.59800 127667027.71100      -519.62100                
G14  20699026.03800 108774115.99400      -313.00000                
G15  24986523.42600 131305066.84000     -4047.71600                
G18  21885770.36900 115010499.54400      2511.37000                
G19  21665137.95300 113851068.37400     -2194.01600                
G22  23619857.59100 124123189.40500      2921.84600                
G23  20764225.76500 109116742.87200     -1216.12000                
G27  21247651.70100 111657163.31500      1863.75200                
G28  24216859.34200 127260454.77800     -3041.50200                
E01        31.62300       166.17800        25.58700                
E02        27.55900       144.82200        15.44700                
E03        20.18700       106.08200       -10.40500                
E04        17.20500        90.41300       -26.87600                
E05         5.14800        27.05400       -15.33800                
E06        19.45500       102.23400        28.61900                
> 2025 04 22 14 02 21.0000000  0 16
G03  24423172.53500 128344637.92600      1618.88900                
G09  24294326.48800 127667547.38200      -519.33600                
G14  20699085.86900 108774430.40600      -315.60600                
G15  24987294.00200 131309116.24500     -4051.30800                
G18  21885292.52700 115007988.46700      2511.08600                
G19  21665555.39500 113853262.04500     -2193.65800                
G22  23619301.99700 124120269.73900      2917.83400                
G23  20764457.05100 109117958.29000     -1214.83900                
G27  21247297.22000 111655300.50100      1861.67600                
G28  24217437.66800 127263493.90300     -3036.99900                
E01        26.48900       139.19800        27.99900                
E02        24.58100       129.17500        15.40700                
E03        22.50200       118.24700       -13.80400                
E04        22.49000       118.18700       -28.32700                
E05         9.65400        50.73100       -28.39800                
E06        13.82400        72.64700        30.03300                
> 2025 04 22 14 02 22.0000000  0 16
G03  24422864.37000 128343018.50700      1619.50300                
G09  24294425.10900 127668065.63700      -516.82100                
G14  20699146.06600 108774746.74400      -316.83100                
G15  24988065.36200 131313169.76800     -4055.89200                
G18  21884814.56300 115005476.75100      2512.63700                
G19  21665972.95500 113855456.33900     -2195.26000                
G22  23618746.95300 124117352.95900      2916.11600                
G23  20764688.16800 109119172.81800     -1214.36300                
G27  21246943.23900 111653440.32200      1858.51300                
G28  24218015.28600 127266529.30900     -3034.12400                
E01        21.11000       110.93600        28.15300                
E02        21.84600       114.80300        13.01400                
E03        25.34100       133.16700       -15.66900                
E04        27.84700       146.33700       -27.59600                
E05        15.29100        80.35500       -29.98200                
E06         8.30200        43.62600        26.85300                
> 2025 04 22 14 02 23.0000000  0 16
G03  24422556.34100 128341399.80700      1617.45400                
G09  24294523.06000 127668580.37400      -512.36000                
G14  20699206.36000 108775063.59100      -316.63000                
G15  24988837.65700 131317228.20300     -4061.06000                
G18  21884336.14100 115002962.62600      2515.86300                
G19  21666390.99900 113857653.17600     -2198.71000                
G22  23618192.00400 124114436.68400      2916.82800                
G23  20764919.27800 109120387.30800     -1214.76700                
G27  21246589.94700 111651583.75700      1854.49300                
G28  24218592.53700 127269562.78000     -3033.16300                
E01        15.90900        83.60300        26.18200                
E02        19.70100       103.53100         9.49900                
E03        28.30400       148.73900       -15.02900                
E04        32.85000       172.62600       -24.61400                
E05        20.83300       109.48000       -27.80000                
E06         4.58700        24.10700         7.27600                
> 2025 04 22 14 02 24.0000000  0 16
G03  24422248.94700 128339784.43900      1612.88200                
G09  24294620.01200 127669089.85800      -506.40700                
G14  20699266.48500 108775379.55400      -315.08600                
G15  24989610.95400 131321291.90800     -4066.35000                
G18  21883856.96900 115000444.56000      2520.45600                
G19  21666809.85500 113859854.27700     -2203.73000                
G22  23617636.69300 124111518.50800      2919.88800                
G23  20765150.54900 109121602.64400     -1216.05000                
G27  21246237.47700 111649731.51600      1849.92200                
G28  24219169.79700 127272596.30200     -3034.23200                
E01        11.25900        59.16500        22.42800                
E02        18.17600        95.51700         6.83400                
E03        30.89600       162.35900       -11.80600                
E04        37.08300       194.87300       -19.56400                
E05        25.72000       135.15900       -23.21900                
E06         6.11000        32.10700       -17.71000                
> 2025 04 22 14 02 25.0000000  0 16
G03  24421942.63600 128338174.76300      1606.14900                
G09  24294715.73500 127669592.88600      -499.55200                
G14  20699326.20500 108775693.38100      -312.40000                
G15  24990385.23200 131325360.76500     -4071.29000                
G18  21883376.82600 114997921.39400      2525.98600                
G19  21667229.78300 113862061.01600     -2209.90400                
G22  23617080.59800 124108596.20900      2925.00700                
G23  20765382.14100 109122819.67100     -1218.12900                
G27  21245885.90200 111647883.97400      1845.15800                
G28  24219747.45000 127275631.88800     -3037.26300                
E01         7.47300        39.27200        17.04700                
E02        16.94300        89.03900         6.59100                
E03        32.66000       171.63100        -6.43200                
E04        40.18900       211.19400       -12.84200                
E05        29.56100       155.34700       -16.92600                
E06         9.70900        51.01900       -18.39900                
> 2025 04 22 14 02 26.0000000  0 16
G03  24421637.76900 128336572.67600      1597.81000                
G09  24294810.12000 127670088.88400      -492.46300                
G14  20699385.32800 108776004.07400      -308.87800                
G15  24991160.38100 131329434.20300     -4075.44000                
G18  21882895.58200 114995392.44000      2531.93700                
G19  21667650.95500 113864274.29100     -2216.71100                
G22  23616523.37000 124105667.95400      2931.70900                
G23  20765614.19400 109124039.11600     -1220.85200                
G27  21245535.22100 111646041.13600      1840.57300                
G28  24220325.84800 127278671.39300     -3042.01700                
E01         4.97300        26.13100         8.33300                
E02        15.49600        81.43400         9.01400                
E03        33.25000       174.72900         0.41900                
E04        41.90000       220.18700        -5.01400                
E05        32.09600       168.66800        -9.60600                
E06        12.83600        67.45300       -14.22300                
> 2025 04 22 14 02 27.0000000  0 16
G03  24421334.58600 128334979.44200      1588.56700                
G09  24294903.18900 127670577.96400      -485.83100                
G14  20699443.73000 108776310.98300      -304.89700                
G15  24991936.21500 131333511.23700     -4078.42900                
G18  21882413.21000 114992857.55400      2537.76000                
G19  21668073.43800 113866494.45000     -2223.57300                
G22  23615964.76400 124102732.45700      2939.37900                
G23  20765846.81000 109125261.52000     -1224.01000                
G27  21245185.36800 111644202.64300      1836.52500                
G28  24220905.28500 127281716.35400     -3048.09700                
E01         4.68600        24.62400        -5.61500                
E02        13.39900        70.41000        13.22100                
E03        32.45700       170.56100         7.96700                
E04        42.07000       221.07700         3.24700                
E05        33.20000       174.46700        -2.01200                
E06        15.11000        79.40600        -9.81300                
> 2025 04 22 14 02 28.0000000  0 16
G03  24421033.18800 128333395.58100      1579.19700                
G09  24294995.09200 127671060.91600      -480.30700                
G14  20699501.36500 108776613.85600      -300.87800                
G15  24992712.48500 131337590.56400     -4079.99200                
G18  21881929.78400 114990317.13700      2542.91200                
G19  21668497.18400 113868721.25500     -2229.90800                
G22  23615404.66100 124099789.09700      2947.31400                
G23  20766080.04800 109126487.19600     -1227.35300                
G27  21244836.20800 111642367.79900      1833.32300                
G28  24221485.96500 127284767.84700     -3054.99000                
E01         6.80400        35.75800       -15.58400                
E02        10.44800        54.90500        17.65300                
E03        30.22400       158.82900        15.41200                
E04        40.68200       213.78600        11.22800                
E05        32.89600       172.86800         5.05600                
E06        16.66700        87.58500        -6.90400                
> 2025 04 22 14 02 29.0000000  0 16
G03  24420733.52100 128331820.82200      1570.49300                
G09  24295086.09300 127671539.13100      -476.44000                
G14  20699558.26500 108776912.86800      -297.24400                
G15  24993488.90400 131341670.67600     -4079.98800                
G18  21881445.48100 114987772.10600      2546.91600                
G19  21668922.04400 113870953.90400     -2235.18000                
G22  23614843.08000 124096837.97200      2954.78800                
G23  20766313.91900 109127716.19700     -1230.61500                
G27  21244487.55900 111640535.63300      1831.20000                
G28  24222067.98800 127287826.39800     -3062.11000                
E01        10.36100        54.44500       -21.41700                
E02         6.86300        36.06700        18.89100                
E03        26.64600       140.02700        21.98600                
E04        37.85800       198.94500        18.24000                
E05        31.35900       164.79400        10.81000                
E06        17.90200        94.07500        -6.54600                
> 2025 04 22 14 02 30.0000000  0 16
G03  24420435.38900 128330254.12500      1563.18600                
G09  24295176.55000 127672014.48400      -474.63300                
G14  20699614.54200 108777208.60200      -294.38300                
G15  24994265.17300 131345749.99500     -4078.41900                
G18  21880960.55600 114985223.80800      2549.39200                
G19  21669347.76900 113873191.10600     -2238.94900                
G22  23614280.17600 124093879.89200      2961.11700                
G23  20766548.38300 109128948.31200     -1233.53800                
G27  21244139.19900 111638704.98900      1830.29400                
G28  24222651.33900 127290891.92700     -3068.85000                
E01        14.85000        78.03700       -25.51100                
E02         4.44900        23.38000         0.53200                
E03        21.95600       115.38100        26.99100                
E04        33.84000       177.82800        23.69100                
E05        28.91000       151.92300        14.54500                
E06        19.32600       101.56000        -8.78400                
> 2025 04 22 14 02 31.0000000  0 16
G03  24420138.46400 128328693.77700      1557.88300                
G09  24295266.87800 127672489.16000      -475.10700                
G14  20699670.37300 108777501.99900      -292.61500                
G15  24995041.00400 131349827.01600     -4075.42500                
G18  21880475.32500 114982673.90400      2550.10100                
G19  21669774.04300 113875431.19200     -2240.90900                
G22  23613716.22500 124090916.30500      2965.71600                
G23  20766783.35200 109130183.08100     -1235.89200                
G27  21243790.89200 111636874.62500      1830.63400                
G28  24223235.89000 127293963.76700     -3074.63800                
E01        19.96200       104.90100       -27.89900                
E02         7.23900        38.04300       -24.87700                
E03        16.51500        86.78900        29.75800                
E04        28.96900       152.23200        27.14100                
E05        25.98500       136.55000        15.75700                
E06        21.32700       112.07500       -12.29100                
> 2025 04 22 14 02 32.0000000  0 16
G03  24419842.32300 128327137.54200      1555.01200                
G09  24295357.51500 127672965.46400      -477.87500                
G14  20699725.99100 108777794.27200      -292.16300                
G15  24995816.15100 131353900.43800     -4071.27500                
G18  21879990.13600 114980124.21700      2548.95900                
G19  21670200.50500 113877672.26500     -2240.91500                
G22  23613151.59700 124087949.16900      2968.16000                
G23  20767018.70000 109131419.84500     -1237.50100                
G27  21243442.40800 111635043.32800      1832.13700                
G28  24223821.41300 127297040.71000     -3078.98600                
E01        25.33700       133.14400       -28.22200                
E02        12.59600        66.19400       -29.87100                
E03        10.83500        56.94100        29.22100                
E04        23.65200       124.29200        28.36000                
E05        23.07900       121.28000        14.38500                
E06        23.95600       125.89000       -15.06500                
> 2025 04 22 14 02 33.0000000  0 16
G03  24419546.47700 128325582.86500      1554.78400                
G09  24295448.88500 127673445.61400      -482.75000                
G14  20699781.65700 108778086.79900      -293.13000                
G15  24996590.42600 131357969.28300     -4066.34000                
G18  21879505.33500 114977576.56800      2546.05000                
G19  21670626.78300 113879912.37200     -2238.99600                
G22  23612586.73100 124084980.77500      2968.21100                
G23  20767254.27400 109132657.79400     -1238.25100                
G27  21243093.54100 111633210.02000      1834.61700                
G28  24224407.59700 127300121.12600     -3081.53500                
E01        30.56000       160.59100       -26.29500                
E02        18.27000        96.01000       -29.17700                
E03         5.88300        30.91800        20.26700                
E04        18.31700        96.25400        27.36000                
E05        20.62800       108.40200        11.18200                
E06        26.92000       141.46800       -15.66300                
> 2025 04 22 14 02 34.0000000  0 16
G03  24419250.42400 128324027.09600      1557.17400                
G09  24295541.35400 127673931.54200      -489.35300                
G14  20699837.64200 108778381.00100      -295.49600                
G15  24997363.72300 131362032.98300     -4061.06100                
G18  21879021.23700 114975032.62000      2541.61300                
G19  21671052.52800 113882149.67600     -2235.35600                
G22  23612022.08500 124082013.54300      2965.84900                
G23  20767489.90500 109133896.04600     -1238.10900                
G27  21242744.13000 111631373.85400      1837.80100                
G28  24224994.07700 127303203.10100     -3082.08700                
E01        35.20500       185.00300       -22.18300                
E02        23.52200       123.61100       -25.63300                
E03         4.78900        25.16600       -10.32800                
E04        13.36400        70.22700        24.39900                
E05        18.83100        98.95900         7.86100                
E06        29.74900       156.33100       -13.62900                
> 2025 04 22 14 02 35.0000000  0 16
G03  24418953.68600 128322467.72700      1561.92100                
G09  24295635.20200 127674424.72000      -497.15300                
G14  20699894.19900 108778678.21100      -299.11400                
G15  24998136.01900 131366091.42700     -4055.90900                
G18  21878538.10100 114972493.71900      2536.02600                
G19  21671477.44300 113884382.62000     -2230.34900                
G22  23611458.10500 124079049.80800      2961.26700                
G23  20767725.42800 109135133.72600     -1237.11800                
G27  21242394.07300 111629534.29000      1841.35300                
G28  24225580.46900 127306284.61400     -3080.62200                
E01        38.88200       204.32800       -16.18900                
E02        27.89800       146.60200       -20.06700                
E03         8.00500        42.06700       -19.31200                
E04         9.13200        47.99000        19.82000                
E05        17.51900        92.06200         6.35600                
E06        31.95500       167.92300        -9.19700                
> 2025 04 22 14 02 36.0000000  0 16
G03  24418655.85600 128320902.61900      1568.55800                
G09  24295730.59900 127674926.03300      -505.51000                
G14  20699951.54400 108778979.56000      -303.72400                
G15  24998907.38400 131370144.97700     -4051.34700                
G18  21878056.09900 114969960.78500      2529.76700                
G19  21671901.31300 113886610.07000     -2224.45400                
G22  23610895.17900 124076091.60900      2954.85800                
G23  20767960.69100 109136370.03900     -1235.40100                
G27  21242043.33400 111627691.14400      1844.90300                
G28  24226166.40300 127309363.71300     -3077.30000                
E01        41.27800       216.91600        -8.80500                
E02        31.07300       163.29200       -13.14300                
E03        11.46000        60.22500       -16.37200                
E04         5.94700        31.25200        13.12800                
E05        16.23600        85.32300         7.57500                
E06        33.13400       174.11800        -2.95000                
> 2025 04 22 14 02 37.0000000  0 16
G03  24418356.63300 128319330.19000      1576.44500                
G09  24295827.58500 127675435.69600      -513.73700                
G14  20700009.83400 108779285.87500      -308.98100                
G15  24999677.97000 131374194.43300     -4047.78200                
G18  21877575.31000 114967434.22100      2523.37600                
G19  21672324.02000 113888831.41100     -2218.22800                
G22  23610333.60200 124073140.50500      2947.17800                
G23  20768195.57100 109137604.34600     -1233.14200                
G27  21241691.94900 111625844.60300      1848.08300                
G28  24226751.55100 127312438.69100     -3072.44700                
E01        42.18500       221.68300        -0.66000                
E02        32.85900       172.67400        -5.58100                
E03        14.14200        74.31500       -11.79500                
E04         4.48100        23.54700         1.17800                
E05        14.48800        76.13500        11.09700                
E06        33.00900       173.46600         4.36900                
> 2025 04 22 14 02 38.0000000  0 16
G03  24418055.84900 128317749.55800      1584.83300                
G09  24295926.06900 127675953.23700      -521.15600                
G14  20700069.15300 108779597.60300      -314.47900                
G15  25000447.99800 131378240.95900     -4045.53200                
G18  21877095.70600 114964913.88400      2517.40500                
G19  21672745.55700 113891046.60500     -2212.25800                
G22  23609773.55600 124070197.44300      2938.89500                
G23  20768429.98900 109138836.21900     -1230.57700                
G27  21241340.02100 111623995.21000      1850.55700                
G28  24227335.66700 127315508.23900     -3066.52600                
E01        41.52500       218.21800         7.54100                
E02        33.20600       174.50100         1.83600                
E03        16.00100        84.08600        -8.00800                
E04         5.57100        29.27400       -11.67700                
E05        11.94600        62.77400        15.66400                
E06        31.45400       165.29000        11.96100                
> 2025 04 22 14 02 39.0000000  0 16
G03  24417753.48300 128316160.61900      1592.92800                
G09  24296025.84000 127676477.53600      -527.16200                
G14  20700129.50800 108779914.77100      -319.79200                
G15  25001217.74100 131382285.98400     -4044.80000                
G18  21876617.15700 114962399.09200      2512.36600                
G19  21673166.02800 113893256.19500     -2207.10900                
G22  23609215.08600 124067262.66400      2930.73300                
G23  20768663.91000 109140065.48200     -1227.96500                
G27  21240987.71200 111622143.81200      1852.05200                
G28  24227918.59800 127318571.56000     -3060.09400                
E01        39.35600       206.81900        15.09100                
E02        32.22000       169.31900         8.30500                
E03        17.32700        91.05300        -6.36500                
E04         8.54400        44.90100       -18.93900                
E05         8.58800        45.13100        19.15400                
E06        28.49000       149.71600        19.03700                
> 2025 04 22 14 02 40.0000000  0 16
G03  24417449.66700 128314564.05400      1599.96100                
G09  24296126.58000 127677006.92800      -531.27700                
G14  20700190.82400 108780236.98700      -324.51000                
G15  25001987.49500 131386331.06800     -4045.65100                
G18  21876139.44300 114959888.68900      2508.68900                
G19  21673585.63700 113895461.25500     -2203.27100                
G22  23608658.10100 124064335.68800      2923.40300                
G23  20768897.35100 109141292.22200     -1225.57500                
G27  21240635.22700 111620291.49000      1852.38300                
G28  24228500.30400 127321628.44600     -3053.75500                
E01        35.86500       188.46900        21.34400                
E02        30.15400       158.46000        13.07100                
E03        18.60000        97.74300        -7.45900                
E04        12.63400        66.39000       -23.77200                
E05         5.15600        27.09700        13.77200                
E06        24.28800       127.63300        24.86400                
> 2025 04 22 14 02 41.0000000  0 16
G03  24417144.66900 128312961.27400      1605.25800                
G09  24296227.89700 127677539.35300      -533.18900                
G14  20700252.95200 108780563.47400      -328.27800                
G15  25002757.55600 131390377.77000     -4048.01000                
G18  21875662.27400 114957381.14800      2506.68200                
G19  21674004.67200 113897663.29500     -2201.11900                
G22  23608102.38100 124061415.35600      2917.54400                
G23  20769130.37800 109142516.78500     -1223.65100                
G27  21240282.79600 111618439.45800      1851.46900                
G28  24229080.86000 127324679.28800     -3048.10400                
E01        31.34900       164.73800        25.78100                
E02        27.39400       143.95400        15.51500                
E03        20.29900       106.67100       -10.60600                
E04        17.49200        91.92300       -27.01000                
E05         5.32000        27.95500       -16.78500                
E06        19.14800       100.62600        28.77600                
> 2025 04 22 14 02 42.0000000  0 16
G03  24416838.86900 128311354.28800      1608.30200                
G09  24296329.35800 127678072.53200      -532.78600                
G14  20700315.68500 108780893.13400      -330.82300                
G15  25003528.19400 131394427.50100     -4051.66600                
G18  21875185.31400 114954874.70500      2506.50500                
G19  21674423.47600 113899864.12600     -2200.87700                
G22  23607547.59300 124058499.93000      2913.66100                
G23  20769363.09900 109143739.74700     -1222.40000                
G27  21239930.65700 111616588.95500      1849.33900                
G28  24229660.44900 127327725.05000     -3043.67600                
E01        26.19000       137.62700        28.06700                
E02        24.41700       128.31400        15.32800                
E03        22.65000       119.02500       -13.96300                
E04        22.79200       119.77500       -28.34600                
E05         9.95800        52.33000       -28.64800                
E06        13.50400        70.96400        30.01100                
> 2025 04 22 14 02 43.0000000  0 16
G03  24416532.73200 128309745.52600      1608.77600                
G09  24296430.52800 127678604.18200      -530.16100                
G14  20700378.77100 108781224.65600      -331.98200                
G15  25004299.62700 131398481.40700     -4056.29400                
G18  21874708.21200 114952367.51900      2508.15200                
G19  21674842.42100 113902065.69800     -2202.59600                
G22  23606993.32900 124055587.25200      2912.08500                
G23  20769595.65900 109144961.85700     -1221.96600                
G27  21239579.02900 111614741.13600      1846.13100                
G28  24230239.34700 127330767.17900     -3040.89500                
E01        20.81000       109.35900        28.09600                
E02        21.70900       114.07900        12.83100                
E03        25.50800       134.04700       -15.70300                
E04        28.14100       147.88100       -27.48800                
E05        15.61100        82.03400       -29.93800                
E06         8.01800        42.13300        26.40900                
> 2025 04 22 14 02 44.0000000  0 16
G03  24416226.75800 128308137.62200      1606.59100                
G09  24296531.00800 127679132.20900      -525.60500                
G14  20700441.94200 108781556.62200      -331.71600                
G15  25005072.00000 131402540.25600     -4061.48000                
G18  21874230.63600 114949857.83800      2511.45700                
G19  21675261.87200 113904269.92700     -2206.15500                
G22  23606439.13400 124052674.93700      2912.93800                
G23  20769828.22100 109146183.97600     -1222.42200                
G27  21239228.09600 111612896.97000      1842.08000                
G28  24230817.89500 127333807.47100     -3040.03800                
E01        15.63100        82.14000        26.01600                
E02        19.60100       103.00400         9.30800                
E03        28.46400       149.57800       -14.91500                
E04        33.11100       173.99900       -24.38300                
E05        21.12900       111.03300       -27.59900                
E06         4.52000        23.75500         5.27300                
> 2025 04 22 14 02 45.0000000  0 16
G03  24415921.44300 128306533.17900      1601.89800                
G09  24296630.47300 127679654.90100      -519.58200                
G14  20700504.93300 108781887.64200      -330.11500                
G15  25005845.37700 131406604.37900     -4066.76200                
G18  21873752.29700 114947344.15000      2516.10200                
G19  21675682.15300 113906478.52100     -2211.26600                
G22  23605884.55100 124049760.58400      2916.12900                
G23  20770060.95300 109147406.99400     -1223.75900                
G27  21238877.99000 111611057.15000      1837.49600                
G28  24231396.47300 127336847.92100     -3041.21100                
E01        11.02100        57.91500        22.17100                
E02        18.10400        95.13700         6.74700                
E03        31.02000       163.01400       -11.55600                
E04        37.29000       195.96000       -19.22600                
E05        25.96600       136.45200       -22.90500                
E06         6.30100        33.11100       -18.11100                
> 2025 04 22 14 02 46.0000000  0 16
G03  24415617.23100 128304934.53600      1595.07000                
G09  24296728.69800 127680171.08100      -512.68700                
G14  20700567.50800 108782216.47400      -327.38400                
G15  25006619.73100 131410673.63400     -4071.66800                
G18  21873272.98000 114944825.32300      2521.65300                
G19  21676103.52200 113908692.83000     -2217.50500                
G22  23605329.16100 124046841.98900      2921.35300                
G23  20770294.01800 109148631.75800     -1225.89200                
G27  21238528.77900 111609222.03300      1832.73500                
G28  24231975.46400 127339890.53500     -3044.33800                
E01         7.29300        38.32700        16.68100                
E02        16.87300        88.66700         6.66000                
E03        32.72700       171.98200        -6.08000                
E04        40.32400       211.90200       -12.42600                
E05        29.74000       156.28400       -16.53600                
E06         9.90400        52.04500       -18.21900                
> 2025 04 22 14 02 47.0000000  0 16
G03  24415314.47900 128303343.56100      1586.67100                
G09  24296825.58200 127680680.20900      -505.59300                
G14  20700629.47900 108782542.13600      -323.83300                
G15  25007394.94700 131414747.42200     -4075.76100                
G18  21872792.56100 114942300.70600      2527.59400                
G19  21676526.14500 113910913.72500     -2224.34300                
G22  23604772.62100 124043917.34800      2928.12700                
G23  20770527.55300 109149858.99000     -1228.66400                
G27  21238180.46100 111607391.61100      1828.17000                
G28  24232555.21600 127342937.15600     -3049.17000                
E01         4.88700        25.68300         7.65700                
E02        15.39900        80.92300         9.21400                
E03        33.24300       174.69400         0.83100                
E04        41.95100       220.45500        -4.55600                
E05        32.19700       169.19400        -9.18000                
E06        12.98600        68.24300       -13.96200                
> 2025 04 22 14 02 48.0000000  0 16
G03  24415013.41900 128301761.48100      1577.40600                
G09  24296921.15200 127681182.43200      -498.99100                
G14  20700690.72700 108782863.99300      -319.84300                
G15  25008170.83500 131418824.74000     -4078.67400                
G18  21872311.01800 114939770.18200      2533.37300                
G19  21676950.07900 113913141.51800     -2231.20200                
G22  23604214.69200 124040985.41300      2935.82900                
G23  20770761.65900 109151089.22500     -1231.85900                
G27  21237832.96500 111605565.50500      1824.15700                
G28  24233136.02000 127345989.29800     -3055.30400                
E01         4.75000        24.96000        -6.35400                
E02        13.25600        69.66200        13.48100                
E03        32.36900       170.10200         8.39500                
E04        42.03200       220.88200         3.70900                
E05        33.21900       174.56800        -1.59500                
E06        15.21400        79.95000        -9.59700                
> 2025 04 22 14 02 49.0000000  0 16
G03  24414714.14200 128300188.77400      1568.05700                
G09  24297015.56400 127681678.57200      -493.52800                
G14  20700751.20600 108783181.81500      -315.83300                
G15  25008947.14300 131422904.26900     -4080.14900                
G18  21871828.43400 114937234.18400      2538.45600                
G19  21677375.27500 113915375.93500     -2237.49900                
G22  23603655.26500 124038045.60500      2943.75300                
G23  20770996.39300 109152322.76300     -1235.22500                
G27  21237486.15500 111603743.00500      1821.00200                
G28  24233718.07400 127349048.01400     -3062.22100                
E01         6.97300        36.64200       -15.98000                
E02        10.25900        53.91000        17.86000                
E03        30.05800       157.95400        15.81100                
E04        40.56000       213.14500        11.65300                
E05        32.84000       172.57400         5.42100                
E06        16.74000        87.96900        -6.81100                
> 2025 04 22 14 02 50.0000000  0 16
G03  24414416.59100 128298625.12800      1559.41300                
G09  24297109.09000 127682170.05100      -489.74900                
G14  20700810.95500 108783495.79500      -312.22700                
G15  25009723.58400 131426984.49300     -4080.05400                
G18  21871344.98700 114934693.65400      2542.36600                
G19  21677801.57200 113917616.14300     -2242.70100                
G22  23603094.36700 124035098.06500      2951.17400                
G23  20771231.76300 109153559.64100     -1238.49500                
G27  21237139.84400 111601923.13300      1818.93400                
G28  24234301.47200 127352113.79300     -3069.33300                
E01        10.59000        55.65300       -21.68700                
E02         6.66300        35.01400        18.67100                
E03        26.41000       138.78600        22.31400                
E04        37.66200       197.91300        18.59200                
E05        31.24200       164.18000        11.07900                
E06        17.97200        94.44400        -6.60900                
> 2025 04 22 14 02 51.0000000  0 16
G03  24414120.55800 128297069.46600      1552.19900                
G09  24297202.08900 127682658.76500      -488.04900                
G14  20700870.08600 108783806.53400      -309.41100                
G15  25010499.85700 131431063.83300     -4078.39700                
G18  21870860.93800 114932149.95800      2544.73700                
G19  21678228.72000 113919860.82000     -2246.37500                
G22  23602532.15900 124032143.64200      2957.41200                
G23  20771467.72600 109154799.63200     -1241.40800                
G27  21236793.81300 111600104.72600      1818.08500                
G28  24234886.19500 127355186.53000     -3076.03400                
E01        15.12300        79.47200       -25.69400                
E02         4.45400        23.40700        -1.50300                
E03        21.66700       113.86200        27.21200                
E04        33.58600       176.49300        23.94000                
E05        28.75400       151.10300        14.68200                
E06        19.42100       102.05700        -8.96500                
> 2025 04 22 14 02 52.0000000  0 16
G03  24413825.71300 128295520.04700      1547.01600                
G09  24297294.98100 127683146.91400      -488.63800                
G14  20700928.78300 108784114.98700      -307.70000                
G15  25011275.67600 131435140.79300     -4075.32800                
G18  21870376.60400 114929604.76500      2545.33500                
G19  21678656.39700 113922108.27700     -2248.22300                
G22  23601968.92300 124029183.81800      2961.89200                
G23  20771704.19000 109156042.26100     -1243.73700                
G27  21236447.82400 111598286.54400      1818.47900                
G28  24235472.10700 127358265.52200     -3081.75500                
E01        20.26000       106.46600       -27.97400                
E02         7.50800        39.45400       -25.46600                
E03        16.19800        85.11900        29.83100                
E04        28.67900       150.70700        27.27000                
E05        25.81700       135.66700        15.74600                
E06        21.45900       112.76900       -12.48400                
> 2025 04 22 14 02 53.0000000  0 16
G03  24413531.62700 128293974.61400      1544.27800                
G09  24297388.20400 127683636.80700      -491.52000                
G14  20700987.27700 108784422.37700      -307.31200                
G15  25012050.79800 131439214.08700     -4071.12000                
G18  21869892.33200 114927059.89600      2544.08900                
G19  21679084.24000 113924356.60500     -2248.11000                
G22  23601405.03700 124026220.57500      2964.19600                
G23  20771941.02700 109157286.85000     -1245.30600                
G27  21236101.64900 111596467.37700      1820.02900                
G28  24236058.97600 127361349.53900     -3086.01300                
E01        25.63700       134.72500       -28.17400                
E02        12.91500        67.87000       -29.93400                
E03        10.52500        55.30800        29.04000                
E04        23.34900       122.70200        28.36200                
E05        22.92600       120.47700        14.24200                
E06        24.11700       126.73700       -15.16500                
> 2025 04 22 14 02 54.0000000  0 16
G03  24413237.81200 128292430.60400      1544.18600                
G09  24297482.18000 127684130.65400      -496.49700                
G14  20701045.83200 108784730.08600      -308.34500                
G15  25012825.04100 131443282.75800     -4066.15000                
G18  21869408.46600 114924517.16400      2541.09000                
G19  21679511.87600 113926603.84900     -2246.07600                
G22  23600840.93800 124023256.21700      2964.10300                
G23  20772178.08200 109158532.58100     -1246.00700                
G27  21235755.08200 111594646.15800      1822.54500                
G28  24236646.48700 127364436.93000     -3088.45800                
E01        30.83900       162.06000       -26.12000                
E02        18.58100        97.64200       -29.04400                
E03         5.67300        29.81300        19.14300                
E04        18.02500        94.72400        27.24300                
E05        20.51000       107.78100        10.97900                
E06        27.08700       142.34500       -15.61900                
> 2025 04 22 14 02 55.0000000  0 16
G03  24412943.76300 128290885.36800      1546.70100                
G09  24297577.27300 127684630.37100      -503.18100                
G14  20701104.71800 108785039.53300      -310.77300                
G15  25013598.30000 131447346.26100     -4060.86300                
G18  21868925.31900 114921978.21100      2536.58500                
G19  21679938.95800 113928848.18100     -2242.33500                
G22  23600277.08800 124020293.16300      2961.60200                
G23  20772415.18400 109159778.56200     -1245.80800                
G27  21235407.96700 111592822.05400      1825.74800                
G28  24237234.27500 127367525.77300     -3088.90100                
E01        35.44000       186.23800       -21.89300                
E02        23.79400       125.04100       -25.36800                
E03         4.90600        25.78300       -11.66700                
E04        13.10500        68.86600        24.18300                
E05        18.74800        98.52200         7.71400                
E06        29.89300       157.09000       -13.44000                
> 2025 04 22 14 02 56.0000000  0 16
G03  24412649.00800 128289336.41800      1551.55300                
G09  24297673.75900 127685137.40700      -511.03400                
G14  20701164.18800 108785352.04600      -314.44100                
G15  25014370.56000 131451404.51500     -4055.73000                
G18  21868443.14300 114919444.36100      2530.95900                
G19  21680365.19300 113931088.06300     -2237.24900                
G22  23599713.92700 124017333.73700      2956.90100                
G23  20772652.16700 109161023.91200     -1244.76100                
G27  21235060.20200 111590994.54000      1829.30200                
G28  24237821.95300 127370614.04600     -3087.33000                
E01        39.05300       205.22500       -15.80700                
E02        28.11000       147.71700       -19.70800                
E03         8.21100        43.14900       -19.27900                
E04         8.92200        46.88700        19.51500                
E05        17.45100        91.70600         6.35000                
E06        32.05100       168.43000        -8.88800                
> 2025 04 22 14 02 57.0000000  0 16
G03  24412353.14300 128287781.63800      1558.26400                
G09  24297771.80000 127685652.61400      -519.41100                
G14  20701224.45300 108785668.74300      -319.08900                
G15  25015141.89400 131455457.90500     -4051.21100                
G18  21867962.10700 114916916.49900      2524.69400                
G19  21680790.37100 113933322.38600     -2231.30600                
G22  23599151.84100 124014379.95100      2950.40200                
G23  20772888.87800 109162267.84000     -1242.99100                
G27  21234711.75800 111589163.45100      1832.83800                
G28  24238409.15400 127373699.80600     -3083.91700                
E01        41.36900       217.39700        -8.36200                
E02        31.21100       164.01700       -12.72900                
E03        11.63400        61.13600       -16.12600                
E04         5.81000        30.53000        12.63500                
E05        16.15500        84.89400         7.72100                
E06        33.16300       174.27300        -2.56100                
> 2025 04 22 14 02 58.0000000  0 16
G03  24412055.87500 128286219.48200      1566.18700                
G09  24297871.43000 127686176.17300      -527.62300                
G14  20701285.66900 108785990.43300      -324.36400                
G15  25015912.46000 131459507.25500     -4047.70900                
G18  21867482.28200 114914394.99800      2518.32900                
G19  21681214.38000 113935550.56800     -2225.06500                
G22  23598591.11800 124011433.33500      2942.66900                
G23  20773125.19900 109163509.71300     -1240.68700                
G27  21234362.67100 111587328.99000      1835.98700                
G28  24238995.55500 127376781.36300     -3078.99300                
E01        42.19000       221.70700        -0.19600                
E02        32.91600       172.97500        -5.15400                
E03        14.26600        74.96900       -11.54700                
E04         4.47300        23.50400         0.35000                
E05        14.36800        75.50600        11.33900                
E06        32.96100       173.20900         4.79400                
> 2025 04 22 14 02 59.0000000  0 16
G03  24411757.04200 128284649.10600      1574.57100                
G09  24297972.55300 127686707.57800      -534.99300                
G14  20701347.91600 108786317.54500      -329.86200                
G15  25016682.48200 131463553.74800     -4045.53900                
G18  21867003.63300 114911879.68300      2512.41300                
G19  21681637.22000 113937772.60700     -2219.11600                
G22  23598031.93200 124008494.79000      2934.37600                
G23  20773361.04900 109164749.11400     -1238.08900                
G27  21234013.04900 111585491.71400      1838.41600                
G28  24239580.91100 127379857.43200     -3073.02900                
E01        41.44300       217.78300         7.98800                
E02        33.18500       174.38700         2.23100                
E03        16.08600        84.53000        -7.84900                
E04         5.69800        29.94300       -12.20500                
E05        11.77700        61.88900        15.91600                
E06        31.32400       164.60800        12.37800                
> 2025 04 22 14 03  0.0000000  0 16
G03  24411456.63400 128283070.44900      1582.62000                
G09  24298074.94900 127687245.67700      -540.92100                
G14  20701411.19700 108786650.08800      -335.15500                
G15  25017452.23400 131467598.82300     -4044.89400                
G18  21866526.02700 114909369.84500      2507.45400                
G19  21682059.00100 113939989.08100     -2214.02200                
G22  23597474.31900 124005564.51700      2926.24600                
G23  20773596.39700 109165985.87800     -1235.46000                
G27  21233663.05600 111583652.48500      1839.85700                
G28  24240165.07800 127382927.24800     -3066.58500                
E01        39.19300       205.96200        15.48100                
E02        32.13000       168.84500         8.62400                
E03        17.39500        91.41000        -6.35300                
E04         8.74800        45.97200       -19.25500                
E05         8.38300        44.05500        19.23100                
E06        28.28500       148.63900        19.40300                
> 2025 04 22 14 03  1.0000000  0 16
G03  24411154.78600 128281484.23000      1589.57100                
G09  24298178.29900 127687788.78100      -544.93500                
G14  20701475.43300 108786987.65000      -339.83600                
G15  25018222.01400 131471644.04400     -4045.83100                
G18  21866049.23800 114906864.30500      2503.87600                
G19  21682479.93300 113942201.09300     -2210.26800                
G22  23596918.18200 124002641.99400      2918.98900                
G23  20773831.26400 109167220.11200     -1233.06900                
G27  21233312.89700 111581812.38800      1840.12900                
G28  24240748.02000 127385990.63200     -3060.26700                
E01        35.63500       187.26500        21.64500                
E02        30.01300       157.72200        13.27400                
E03        18.68000        98.16500        -7.59500                
E04        12.88800        67.72800       -23.99700                
E05         5.01500        26.35500        12.68500                
E06        24.02100       126.23200        25.14000                
> 2025 04 22 14 03  2.0000000  0 16
G03  24410851.77500 128279891.89400      1594.75700                
G09  24298282.20400 127688334.80700      -546.73400                
G14  20701540.47300 108787329.43700      -343.55200                
G15  25018992.11800 131475690.96500     -4048.26900                
G18  21865572.97500 114904361.52400      2501.97600                
G19  21682900.30800 113944410.18000     -2208.22100                
G22  23596363.29100 123999726.02500      2913.23600                
G23  20774065.71800 109168452.17600     -1231.16200                
G27  21232962.80400 111579972.64000      1839.15500                
G28  24241329.82000 127389048.01000     -3054.66700                
E01        31.07300       163.28800        25.96800                
E02        27.22800       143.08300        15.57500                
E03        20.41300       107.27100       -10.80900                
E04        17.78100        93.44000       -27.13900                
E05         5.50600        28.93300       -18.11400                
E06        18.84100        99.00900        28.92500                
> 2025 04 22 14 03  3.0000000  0 16
G03  24410547.98600 128278295.47300      1597.67000                
G09  24298386.23100 127688881.47300      -546.21300                
G14  20701606.10600 108787674.34200      -346.03500                
G15  25019762.81100 131479740.98900     -4051.98800                
G18  21865096.90000 114901859.73400      2501.90500                
G19  21683320.47500 113946618.17000     -2208.09400                
G22  23595809.31200 123996814.84300      2909.48300                
G23  20774299.87200 109169682.66300     -1229.94200                
G27  21232613.01400 111578134.47800      1836.97100                
G28  24241910.66500 127392100.37100     -3050.31500                
E01        25.89000       136.05200        28.12800                
E02        24.25400       127.45700        15.24200                
E03        22.79900       119.81200       -14.11700                
E04        23.09500       121.36400       -28.35700                
E05        10.26500        53.94200       -28.87100                
E06        13.18400        69.28300        29.97500                
> 2025 04 22 14 03  4.0000000  0 16
G03  24410243.88500 128276697.41400      1598.00300                
G09  24298489.94500 127689426.49300      -543.47800                
G14  20701672.08100 108788021.04200      -347.12800                
G15  25020534.30900 131483795.23800     -4056.65800                
G18  21864620.66500 114899357.10000      2503.64700                
G19  21683740.80400 113948827.01900     -2209.93100                
G22  23595255.82900 123993906.27300      2908.04900                
G23  20774533.87100 109170912.33600     -1229.55200                
G27  21232263.74300 111576299.05000      1833.72000                
G28  24242490.83500 127395149.18400     -3047.62800                
E01        20.51100       107.78600        28.03300                
E02        21.57300       113.36500        12.64300                
E03        25.67600       134.92700       -15.72900                
E04        28.43300       149.41800       -27.37300                
E05        15.93000        83.71100       -29.88400                
E06         7.73900        40.66600        25.91900                
> 2025 04 22 14 03  5.0000000  0 16
G03  24409939.97400 128275100.35100      1595.68300                
G09  24298592.95000 127689967.78700      -538.82800                
G14  20701738.12800 108788368.12200      -346.79900                
G15  25021306.75400 131487854.46300     -4061.86100                
G18  21864143.93800 114896851.88400      2507.02800                
G19  21684161.66200 113951038.63800     -2213.59800                
G22  23594702.38800 123990997.92100      2909.04500                
G23  20774767.88100 109172142.06500     -1230.05900                
G27  21231915.17500 111574467.31100      1829.63900                
G28  24243070.67500 127398196.26200     -3046.87500                
E01        15.35400        80.68700        25.84300                
E02        19.50300       102.48700         9.12000                
E03        28.62200       150.41100       -14.79200                
E04        33.37000       175.35900       -24.14500                
E05        21.42200       112.57400       -27.39200                
E06         4.47500        23.51700         3.23100                
> 2025 04 22 14 03  6.0000000  0 16
G03  24409636.74700 128273506.87900      1590.87000                
G09  24298694.92400 127690503.66600      -532.73600                
G14  20701803.98300 108788714.19500      -345.14000                
G15  25022080.20300 131491918.96400     -4067.13300                
G18  21863666.43700 114894342.59700      2511.72300                
G19  21684583.36800 113953254.72300     -2218.79900                
G22  23594148.53400 123988087.39500      2912.36400                
G23  20775002.07200 109173372.74800     -1231.45200                
G27  21231567.43800 111572639.93900      1825.04100                
G28  24243650.56400 127401243.60100     -3048.15200                
E01        10.78600        56.68000        21.91000                
E02        18.03200        94.76100         6.66900                
E03        31.14200       163.65400       -11.30000                
E04        37.49300       197.02800       -18.88400                
E05        26.20800       137.72700       -22.58600                
E06         6.49600        34.13600       -18.44200                
> 2025 04 22 14 03  7.0000000  0 15
G03  24409334.64300 128271919.31300      1583.94800                
G09  24298795.64900 127691032.97800      -525.80300                
G14  20701869.41300 108789058.02900      -342.36500                
G18  21863187.95100 114891828.13600      2517.29400                
G19  21685006.17700 113955476.59800     -2225.10000                
G22  23593593.85000 123985172.51200      2917.69200                
G23  20775236.60600 109174605.23200     -1233.63900                
G27  21231220.59700 111570817.27700      1820.28400                
G28  24244230.88400 127404293.20400     -3051.37500                
E01         7.11700        37.40200        16.30500                
E02        16.80100        88.29200         6.73900                
E03        32.79000       172.31300        -5.72400                
E04        40.45400       212.58700       -12.00800                
E05        29.91400       157.20000       -16.14300                
E06        10.09700        53.06100       -18.02800                
> 2025 04 22 14 03  8.0000000  0 15
G03  24409034.01300 128270339.49200      1575.49100                
G09  24298895.02800 127691555.21700      -518.70600                
G14  20701934.23200 108789398.65700      -338.78600                
G18  21862708.36200 114889307.88100      2523.22200                
G19  21685430.24800 113957705.10600     -2231.96800                
G22  23593037.99900 123982251.49400      2924.53600                
G23  20775471.61900 109175840.23500     -1236.45800                
G27  21230874.64600 111568999.29600      1815.74100                
G28  24244811.98400 127407346.90300     -3056.28400                
E01         4.80900        25.27300         6.95900                
E02        15.30000        80.40100         9.42000                
E03        33.23200       174.63600         1.24500                
E04        41.99700       220.69800        -4.09600                
E05        32.29200       169.69700        -8.75400                
E06        13.13400        69.01800       -13.70100                
> 2025 04 22 14 03  9.0000000  0 15
G03  24408735.08300 128268768.60400      1566.20800                
G09  24298993.09500 127692070.56600      -512.13600                
G14  20701998.32400 108789735.46100      -334.78600                
G18  21862227.65500 114886781.74900      2528.95700                
G19  21685855.63400 113959940.52300     -2238.82200                
G22  23592480.75000 123979323.13300      2932.26700                
G23  20775707.21200 109177078.28400     -1239.69000                
G27  21230529.51200 111567185.60200      1811.76300                
G28  24245394.14600 127410406.18800     -3062.47100                
E01         4.82100        25.33600        -7.07200                
E02        13.11100        68.89900        13.74200                
E03        32.27800       169.62000         8.82200                
E04        41.99000       220.66100         4.16900                
E05        33.23400       174.64600        -1.17900                
E06        15.31500        80.48200        -9.38700                
> 2025 04 22 14 03 10.0000000  0 15
G03  24408437.93600 128267207.08800      1556.88100                
G09  24299090.01400 127692579.87900      -506.73600                
G14  20702061.64800 108790068.23000      -330.78800                
G18  21861745.91700 114884250.20100      2533.96700                
G19  21686282.27600 113962182.54300     -2245.07800                
G22  23591922.00200 123976386.89000      2940.17700                
G23  20775943.43900 109178319.66500     -1243.07900                
G27  21230185.05600 111565375.47400      1808.65600                
G28  24245977.56700 127413472.08400     -3069.41000                
E01         7.14500        37.54900       -16.36500                
E02        10.06700        52.90300        18.05900                
E03        29.88700       157.05700        16.20600                
E04        40.43400       212.48000        12.07400                
E05        32.78000       172.26000         5.78100                
E06        16.81200        88.34800        -6.72500                
> 2025 04 22 14 03 11.0000000  0 15
G03  24408142.50600 128265654.59000      1548.29800                
G09  24299186.06100 127693084.60900      -503.04600                
G14  20702124.24400 108790397.17800      -327.21100                
G18  21861263.33300 114881714.20400      2537.78500                
G19  21686710.00900 113964430.29600     -2250.20900                
G22  23591361.78800 123973442.95000      2947.54200                
G23  20776180.30500 109179564.40200     -1246.35500                
G27  21229841.09000 111563567.92100      1806.64200                
G28  24246562.33300 127416545.05200     -3076.51300                
E01        10.82300        56.87600       -21.95200                
E02         6.46500        33.97500        18.39400                
E03        26.17000       137.52600        22.63700                
E04        37.46100       196.86100        18.93900                
E05        31.12300       163.55200        11.34100                
E06        18.04300        94.81600        -6.68100                
> 2025 04 22 14 03 12.0000000  0 15
G03  24407848.58000 128264109.99900      1541.18000                
G09  24299281.60100 127693586.67200      -501.45300                
G14  20702186.23100 108790722.92100      -324.44000                
G18  21860780.16600 114879175.14300      2540.04900                
G19  21687138.57700 113966682.43500     -2253.78600                
G22  23590800.28000 123970492.20300      2953.68700                
G23  20776417.76200 109180812.24800     -1249.25800                
G27  21229497.39200 111561761.77700      1805.85000                
G28  24247148.41800 127419624.95000     -3083.17300                
E01        15.39800        80.91800       -25.87100                
E02         4.48100        23.54800        -3.55500                
E03        21.37600       112.33100        27.42500                
E04        33.32900       175.14500        24.18300                
E05        28.59700       150.27700        14.81200                
E06        19.51700       102.56500        -9.15000                
> 2025 04 22 14 03 13.0000000  0 15
G03  24407555.82100 128262571.54000      1536.11600                
G09  24299377.05400 127694088.28200      -502.15700                
G14  20702247.79300 108791046.43100      -322.78600                
G18  21860296.73400 114876634.69200      2540.53800                
G19  21687567.65400 113968937.24700     -2255.52100                
G22  23590237.76400 123967536.16200      2958.04600                
G23  20776655.71800 109182062.71400     -1251.56000                
G27  21229153.72700 111559955.80100      1806.29900                
G28  24247735.68300 127422711.04800     -3088.82500                
E01        20.55900       108.03600       -28.04300                
E02         7.78200        40.89700       -25.99900                
E03        15.87900        83.44500        29.89400                
E04        28.38700       149.17600        27.39100                
E05        25.64900       134.78500        15.72600                
E06        21.59300       113.47400       -12.67400                
> 2025 04 22 14 03 14.0000000  0 15
G03  24407263.79600 128261036.94100      1533.51200                
G09  24299472.86100 127694591.75200      -505.15300                
G14  20702309.16400 108791368.93900      -322.46200                
G18  21859813.38500 114874094.67300      2539.18800                
G19  21687996.87400 113971192.81300     -2255.28900                
G22  23589674.62200 123964576.83300      2960.21100                
G23  20776894.04000 109183315.10800     -1253.08800                
G27  21228809.86400 111558148.79100      1807.89500                
G28  24248323.88900 127425802.09100     -3092.99200                
E01        25.93800       136.30300       -28.11900                
E02        13.23500        69.54900       -29.98100                
E03        10.21600        53.68600        28.83700                
E04        23.04700       121.11300        28.35600                
E05        22.77500       119.68300        14.09300                
E06        24.27900       127.58900       -15.25700                
> 2025 04 22 14 03 15.0000000  0 15
G03  24406972.01700 128259503.62800      1533.55500                
G09  24299569.44100 127695099.28500      -510.23100                
G14  20702370.60900 108791691.83100      -323.56100                
G18  21859330.46000 114871556.88900      2536.10000                
G19  21688425.86500 113973447.17700     -2253.14000                
G22  23589111.29600 123961616.53200      2959.97300                
G23  20777132.57100 109184568.59600     -1253.73800                
G27  21228465.60300 111556339.68800      1810.44500                
G28  24248912.71900 127428896.41000     -3095.33300                
E01        31.11700       163.51900       -25.93900                
E02        18.89000        99.26600       -28.90200                
E03         5.47500        28.77400        17.91000                
E04        17.73500        93.20000        27.11900                
E05        20.39400       107.17200        10.77700                
E06        27.25400       143.21900       -15.56700                
> 2025 04 22 14 03 16.0000000  0 15
G03  24406679.97900 128257968.95900      1536.19500                
G09  24299667.15600 127695612.77800      -516.99500                
G14  20702432.39600 108792016.52600      -326.04900                
G18  21858848.27000 114869022.96100      2531.53000                
G19  21688854.28100 113975698.52100     -2249.29800                
G22  23588548.24500 123958657.67800      2957.33500                
G23  20777371.13900 109185822.28000     -1253.48400                
G27  21228120.78800 111554527.67300      1813.66700                
G28  24249501.80400 127431992.07300     -3095.66600                
E01        35.67200       187.45700       -21.59700                
E02        24.06400       126.45500       -25.09700                
E03         5.03700        26.47100       -12.86700                
E04        12.84800        67.51600        23.96200                
E05        18.66700        98.09400         7.57300                
E06        30.03600       157.83800       -13.24300                
> 2025 04 22 14 03 17.0000000  0 15
G03  24406387.21200 128256430.46000      1541.15100                
G09  24299766.27600 127696133.65600      -524.89900                
G14  20702494.77700 108792344.34200      -329.76900                
G18  21858367.06000 114866494.18700      2525.86700                
G19  21689281.83400 113977945.32600     -2244.13600                
G22  23587985.90800 123955702.58000      2952.51600                
G23  20777609.57700 109187075.27700     -1252.37900                
G27  21227775.32200 111552712.23800      1817.22300                
G28  24250090.76000 127435087.05800     -3093.99000                
E01        39.21900       206.10000       -15.42000                
E02        28.31800       148.81200       -19.34600                
E03         8.41600        44.22800       -19.22100                
E04         8.71600        45.80200        19.20500                
E05        17.38300        91.35000         6.35400                
E06        32.14400       168.91900        -8.57400                
> 2025 04 22 14 03 18.0000000  0 15
G03  24406093.32000 128254886.04400      1547.93300                
G09  24299866.95700 127696662.74100      -533.29500                
G14  20702557.96300 108792676.38500      -334.45200                
G18  21857886.99400 114863971.42200      2519.59700                
G19  21689708.31700 113980186.51000     -2238.14600                
G22  23587424.66500 123952753.22600      2945.92900                
G23  20777847.73300 109188326.79600     -1250.55500                
G27  21227429.17700 111550893.23400      1820.74300                
G28  24250679.21800 127438179.43000     -3090.48600                
E01        41.45600       217.85300        -7.91700                
E02        31.34500       164.71800       -12.31300                
E03        11.80400        62.03300       -15.87700                
E04         5.67800        29.83600        12.12300                
E05        16.07200        84.45700         7.87400                
E06        33.18800       174.40500        -2.16900                
> 2025 04 22 14 03 19.0000000  0 15
G03  24405798.01300 128253334.19800      1555.89100                
G09  24299969.22800 127697200.17900      -541.49000                
G14  20702622.10400 108793013.44900      -339.74600                
G18  21857408.13600 114861455.00800      2513.25900                
G19  21690133.62600 113982421.52300     -2231.89300                
G22  23586864.79900 123949811.11000      2938.14600                
G23  20778085.48800 109189576.21000     -1248.20700                
G27  21227082.39500 111549070.88300      1823.86000                
G28  24251266.86200 127441267.52000     -3085.49300                
E01        42.18900       221.70500         0.26900                
E02        32.96900       173.25200        -4.72700                
E03        14.38800        75.61000       -11.30100                
E04         4.47300        23.50700        -0.48000                
E05        14.24600        74.86400        11.58500                
E06        32.90700       172.92800         5.22100                
> 2025 04 22 14 03 20.0000000  0 15
G03  24405501.14000 128251774.11800      1564.26800                
G09  24300072.98600 127697745.42800      -548.81000                
G14  20702687.27900 108793355.94400      -345.24200                
G18  21856930.44800 114858944.73700      2507.40000                
G19  21690557.76700 113984650.39900     -2225.96800                
G22  23586306.47500 123946877.09600      2929.84500                
G23  20778322.76600 109190823.11400     -1245.57700                
G27  21226735.08500 111547245.75500      1826.24400                
G28  24251853.45100 127444350.06600     -3079.48800                
E01        41.35500       217.32200         8.43300                
E02        33.15900       174.25100         2.62300                
E03        16.16800        84.96600        -7.69800                
E04         5.83100        30.64200       -12.71400                
E05        11.60600        60.99000        16.16500                
E06        31.19000       163.90300        12.79400                
> 2025 04 22 14 03 21.0000000  0 15
G03  24405202.69600 128250205.78400      1572.27000                
G09  24300178.00400 127698297.30600      -554.65900                
G14  20702753.48500 108793703.85900      -350.51500                
G18  21856453.78800 114856439.87100      2502.52300                
G19  21690980.85700 113986873.75000     -2220.93000                
G22  23585749.72200 123943951.34000      2921.75100                
G23  20778559.53800 109192067.35800     -1242.93200                
G27  21226387.41300 111545418.72400      1827.63100                
G28  24252438.84600 127447426.33300     -3073.03400                
E01        39.02600       205.08400        15.86800                
E02        32.03600       168.35200         8.93700                
E03        17.46200        91.76500        -6.35100                
E04         8.95500        47.06000       -19.56400                
E05         8.17800        42.97500        19.28600                
E06        28.07600       147.54200        19.76500                
> 2025 04 22 14 03 22.0000000  0 15
G03  24404902.82500 128248629.95500      1579.13700                
G09  24300283.95800 127698854.09700      -558.57100                
G14  20702820.64000 108794056.76300      -355.15800                
G18  21855977.92800 114853939.21500      2499.04300                
G19  21691403.11100 113989092.71100     -2217.26100                
G22  23585194.43300 123941033.27900      2914.56800                
G23  20778795.82600 109193309.06200     -1240.54200                
G27  21226039.58600 111543590.88200      1827.84300                
G28  24253023.01700 127450496.17400     -3066.73800                
E01        35.40300       186.04300        21.94000                
E02        29.87100       156.97200        13.47000                
E03        18.76200        98.59400        -7.73700                
E04        13.14500        69.07900       -24.21700                
E05         4.88600        25.67800        11.46300                
E06        23.75200       124.81500        25.41000                
> 2025 04 22 14 03 23.0000000  0 15
G03  24404601.81000 128247048.10600      1584.21000                
G09  24300390.44800 127699413.70300      -560.25500                
G14  20702888.59100 108794413.84600      -358.82100                
G18  21855502.57500 114851441.21300      2497.25100                
G19  21691824.82700 113991308.84300     -2215.31900                
G22  23584640.37400 123938121.67800      2908.92300                
G23  20779031.70400 109194548.60700     -1238.65200                
G27  21225691.83700 111541763.44900      1826.81100                
G28  24253606.05300 127453560.04700     -3061.19000                
E01        30.79500       161.82800        26.14800                
E02        27.06100       142.20800        15.62600                
E03        20.52900       107.88300       -11.01100                
E04        18.07100        94.96500       -27.26200                
E05         5.70600        29.98300       -19.32900                
E06        18.53100        97.38400        29.06600                
> 2025 04 22 14 03 24.0000000  0 15
G03  24404300.04000 128245462.29800      1586.99100                
G09  24300497.03600 127699973.83000      -559.61700                
G14  20702957.12400 108794773.99000      -361.24200                
G18  21855027.38900 114848944.09500      2497.28400                
G19  21692246.35500 113993523.98900     -2215.31000                
G22  23584087.20300 123935214.74600      2905.30100                
G23  20779267.28600 109195786.59900     -1237.46500                
G27  21225344.40100 111539937.65800      1824.57400                
G28  24254188.14600 127456618.96900     -3056.91500                
E01        25.59000       134.47400        28.18200                
E02        24.09200       126.60500        15.14900                
E03        22.95100       120.60700       -14.26500                
E04        23.39700       122.95300       -28.36200                
E05        10.57400        55.56600       -29.07000                
E06        12.86500        67.60500        29.92500                
> 2025 04 22 14 03 25.0000000  0 15
G03  24403997.98500 128243874.98700      1587.18400                
G09  24300603.29000 127700532.19800      -556.77100                
G14  20703025.98600 108795135.86500      -362.27000                
G18  21854552.02300 114846446.03300      2499.12100                
G19  21692668.06900 113995740.11300     -2217.26400                
G22  23583534.50300 123932310.28600      2904.01000                
G23  20779502.72100 109197023.81600     -1237.11900                
G27  21224997.49400 111538114.65000      1821.28000                
G28  24254769.58100 127459674.42900     -3054.32300                
E01        20.21200       106.21700        27.96300                
E02        21.43900       112.66200        12.45300                
E03        25.84400       135.81000       -15.74700                
E04        28.72500       150.94900       -27.25000                
E05        16.24800        85.38400       -29.82000                
E06         7.46500        39.22800        25.37700                
> 2025 04 22 14 03 26.0000000  0 15
G03  24403696.14600 128242288.81200      1584.72900                
G09  24300708.81500 127701086.73700      -552.02800                
G14  20703094.90900 108795498.05400      -361.87600                
G18  21854076.15000 114843945.30300      2502.57600                
G19  21693090.33300 113997959.12100     -2221.03900                
G22  23582981.81700 123929405.90300      2905.14700                
G23  20779738.17500 109198261.13800     -1237.67900                
G27  21224651.29600 111536295.36700      1817.17000                
G28  24255350.70400 127462728.25400     -3053.67500                
E01        15.07900        79.24300        25.66500                
E02        19.40600       101.98100         8.93600                
E03        28.77900       151.23600       -14.66100                
E04        33.62600       176.70500       -23.90100                
E05        21.71300       114.10300       -27.17700                
E06         4.45200        23.39300         1.18000                
> 2025 04 22 14 03 27.0000000  0 15
G03  24403395.01400 128240706.35400      1579.79700                
G09  24300813.29500 127701635.77900      -545.86800                
G14  20703163.62800 108795859.17600      -360.16200                
G18  21853599.49100 114841440.44100      2507.32000                
G19  21693513.46400 114000182.69200     -2226.32800                
G22  23582428.69200 123926499.20900      2908.59300                
G23  20779973.82200 109199499.46900     -1239.12700                
G27  21224305.93300 111534480.47400      1812.55900                
G28  24255931.89800 127465782.44600     -3055.05700                
E01        10.55400        55.45900        21.64500                
E02        17.96200        94.38900         6.59900                
E03        31.26200       164.28000       -11.03700                
E04        37.69300       198.07700       -18.53700                
E05        26.44800       138.98300       -22.26200                
E06         6.69400        35.17800       -18.71000                
> 2025 04 22 14 03 28.0000000  0 15
G03  24403095.02700 128239129.91000      1572.78500                
G09  24300916.51500 127702178.20300      -538.90000                
G14  20703231.91100 108796218.00800      -357.34300                
G18  21853121.84100 114838930.37200      2512.90900                
G19  21693937.71200 114002412.12900     -2232.68900                
G22  23581874.71500 123923588.04300      2914.02300                
G23  20780209.82100 109200739.65600     -1241.36800                
G27  21223961.46700 111532670.29200      1807.80700                
G28  24256513.54100 127468839.00300     -3058.37400                
E01         6.94600        36.49900        15.91800                
E02        16.72900        87.91200         6.82500                
E03        32.84900       172.62400        -5.36300                
E04        40.58000       213.24800       -11.58600                
E05        30.08400       158.09400       -15.74800                
E06        10.28800        54.06600       -17.82800                
> 2025 04 22 14 03 29.0000000  0 15
G03  24402796.52700 128237561.28300      1564.27100                
G09  24301018.38500 127702713.53500      -531.80100                
G14  20703299.57800 108796573.59800      -353.73600                
G18  21852643.08800 114836414.50800      2518.82200                
G19  21694363.23000 114004648.24300     -2239.58600                
G22  23581319.55500 123920670.65700      2920.93400                
G23  20780446.31000 109201982.41300     -1244.23400                
G27  21223617.88900 111530864.77900      1803.28500                
G28  24257095.98000 127471899.73900     -3063.36000                
E01         4.73900        24.90300         6.23700                
E02        15.19800        79.86700         9.63100                
E03        33.21700       174.55500         1.66100                
E04        42.03900       220.91400        -3.63600                
E05        32.38300       170.17600        -8.32700                
E06        13.27800        69.77900       -13.44000                
> 2025 04 22 14 03 30.0000000  0 15
G03  24402499.73500 128236001.62700      1554.97100                
G09  24301118.94700 127703241.99300      -525.26400                
G14  20703366.51300 108796925.34700      -349.72800                
G18  21852163.22200 114833892.79600      2524.51100                
G19  21694790.06500 114006891.27700     -2246.43100                
G22  23580762.98800 123917745.88000      2928.69200                
G23  20780683.38600 109203228.25700     -1247.50300                
G27  21223275.12200 111529063.52400      1799.34400                
G28  24257679.49400 127474966.12800     -3069.59700                
E01         4.90000        25.75200        -7.76700                
E02        12.96300        68.12100        14.00400                
E03        32.18100       169.11300         9.24800                
E04        41.94300       220.41500         4.62800                
E05        33.24400       174.70000        -0.76500                
E06        15.41400        81.00200        -9.18200                
> 2025 04 22 14 03 31.0000000  0 15
G03  24402204.72400 128234451.33800      1545.66900                
G09  24301218.37000 127703764.46400      -519.92900                
G14  20703432.68100 108797273.06200      -345.74100                
G18  21851682.33700 114831365.72900      2529.44800                
G19  21695218.15200 114009140.88800     -2252.64500                
G22  23580204.92100 123914813.21600      2936.58600                
G23  20780921.10300 109204477.46400     -1250.91300                
G27  21222933.02500 111527265.79200      1796.28400                
G28  24258264.27300 127478039.16300     -3076.55700                
E01         7.32200        38.47600       -16.74000                
E02         9.87300        51.88500        18.24800                
E03        29.71200       156.13800        16.59900                
E04        40.30300       211.79200        12.49200                
E05        32.71700       171.92600         6.13600                
E06        16.88300        88.72300        -6.64900                
> 2025 04 22 14 03 32.0000000  0 15
G03  24401911.42200 128232910.02400      1537.15000                
G09  24301316.93600 127704282.43000      -516.32900                
G14  20703498.12600 108797616.97600      -342.19400                
G18  21851200.62200 114828834.29800      2533.17100                
G19  21695647.31900 114011396.17400     -2257.70200                
G22  23579645.39600 123911872.89300      2943.89300                
G23  20781159.46000 109205730.03900     -1254.19500                
G27  21222591.40800 111525470.58400      1794.32500                
G28  24258850.39900 127481119.27500     -3083.64900                
E01        11.05900        58.11400       -22.21200                
E02         6.27100        32.95300        18.05300                
E03        25.92700       136.24800        22.95500                
E04        37.25800       195.79000        19.28000                
E05        31.00100       162.90900        11.59700                
E06        18.11500        95.19300        -6.76000                
> 2025 04 22 14 03 33.0000000  0 15
G03  24401619.60900 128231376.53500      1530.12800                
G09  24301415.01300 127704797.82900      -514.84400                
G14  20703562.96800 108797957.72400      -339.46900                
G18  21850718.34200 114826299.90200      2535.32900                
G19  21696077.30300 114013655.75800     -2261.18200                
G22  23579084.59000 123908925.83900      2949.94400                
G23  20781398.40800 109206985.72100     -1257.08600                
G27  21222250.04900 111523676.72800      1793.59100                
G28  24259437.83900 127484206.29000     -3090.26600                
E01        15.67500        82.37200       -26.04200                
E02         4.53000        23.80500        -5.59200                
E03        21.08200       110.78800        27.63200                
E04        33.07000       173.78300        24.42000                
E05        28.43800       149.44300        14.93400                
E06        19.61600       103.08300        -9.33800                
> 2025 04 22 14 03 34.0000000  0 15
G03  24401328.94200 128229849.06900      1525.18500                
G09  24301513.02600 127705312.88900      -515.66500                
G14  20703627.39500 108798296.29100      -337.87300                
G18  21850235.81900 114823764.22600      2535.70800                
G19  21696507.77700 114015917.91000     -2262.80300                
G22  23578522.79800 123905973.60200      2954.18000                
G23  20781637.85100 109208244.00300     -1259.36100                
G27  21221908.71100 111521882.98400      1794.09300                
G28  24260026.44700 127487299.44800     -3095.84800                
E01        20.85800       109.61000       -28.10600                
E02         8.06200        42.36800       -26.48200                
E03        15.56000        81.76800        29.94600                
E04        28.09400       147.63700        27.50500                
E05        25.48100       133.90400        15.69900                
E06        21.73000       114.19000       -12.86000                
> 2025 04 22 14 03 35.0000000  0 15
G03  24401038.98500 128228325.33500      1522.71500                
G09  24301611.41400 127705829.92400      -518.77400                
G14  20703691.64400 108798633.91700      -337.61400                
G18  21849753.39900 114821229.09000      2534.25500                
G19  21696938.37100 114018180.69800     -2262.45100                
G22  23577960.40600 123903018.20800      2956.20500                
G23  20781877.65400 109209504.17700     -1260.84800                
G27  21221567.16600 111520088.15600      1795.73500                
G28  24260615.98100 127490397.47000     -3099.92400                
E01        26.23700       137.87700       -28.05700                
E02        13.55500        71.23100       -30.01500                
E03         9.91000        52.07600        28.61000                
E04        22.74500       119.52400        28.34300                
E05        22.62500       118.89800        13.93900                
E06        24.44300       128.44700       -15.34200                
> 2025 04 22 14 03 36.0000000  0 15
G03  24400749.24700 128226802.75100      1522.89300                
G09  24301710.59600 127706351.12900      -523.95300                
G14  20703755.97700 108798971.99400      -338.77800                
G18  21849271.42200 114818696.28300      2531.08000                
G19  21697368.71400 114020442.16700     -2260.18800                
G22  23577397.85500 123900061.98500      2955.82200                
G23  20782117.65700 109210765.39900     -1261.44600                
G27  21221225.21600 111518291.19600      1798.31800                
G28  24261206.12000 127493498.66800     -3102.15900                
E01        31.39200       164.96800       -25.75000                
E02        19.19700       100.88100       -28.75200                
E03         5.29200        27.80700        16.56200                
E04        17.44700        91.68400        26.98900                
E05        20.28000       106.57300        10.57400                
E06        27.41900       144.08900       -15.50500                
> 2025 04 22 14 03 37.0000000  0 15
G03  24400459.22600 128225278.68200      1525.65700                
G09  24301810.93000 127706878.38600      -530.79600                
G14  20703820.66600 108799311.93500      -341.32600                
G18  21848790.19300 114816167.40900      2526.44700                
G19  21697798.46200 114022700.50700     -2256.24700                
G22  23576835.60700 123897107.35200      2953.04700                
G23  20782357.68600 109212026.76300     -1261.13400                
G27  21220882.70600 111516491.29700      1801.55900                
G28  24261796.49300 127496601.10300     -3102.38200                
E01        35.90100       188.65900       -21.29600                
E02        24.33000       127.85400       -24.82000                
E03         5.18000        27.22200       -13.93200                
E04        12.59400        66.18000        23.73600                
E05        18.58700        97.67300         7.43900                
E06        30.17600       158.57400       -13.03900                
> 2025 04 22 14 03 38.0000000  0 15
G03  24400168.45500 128223750.66800      1530.71400                
G09  24301912.68100 127707413.09200      -538.74900                
G14  20703885.95900 108799655.05400      -345.09600                
G18  21848309.95400 114813643.73800      2520.74900                
G19  21698227.32900 114024954.22100     -2251.00900                
G22  23576274.09800 123894156.60200      2948.11200                
G23  20782597.57400 109213287.38100     -1259.97200                
G27  21220539.54400 111514687.96800      1805.11600                
G28  24262386.71700 127499702.75100     -3100.60300                
E01        39.38200       206.95300       -15.02900                
E02        28.52200       149.88600       -18.97900                
E03         8.62100        45.30300       -19.14000                
E04         8.51300        44.73400        18.88900                
E05        17.31500        90.99300         6.36700                
E06        32.23400       169.39100        -8.25400                
> 2025 04 22 14 03 39.0000000  0 15
G03  24399876.54100 128222216.65000      1537.56700                
G09  24302016.00000 127707956.03700      -547.16100                
G14  20703952.06500 108800002.44400      -349.81400                
G18  21847830.86300 114811126.09600      2514.47600                
G19  21698655.11600 114027202.25200     -2244.97400                
G22  23575713.70100 123891211.69800      2941.44000                
G23  20782837.17000 109214546.46600     -1258.09500                
G27  21220195.70500 111512881.07900      1808.61900                
G28  24262976.42500 127502801.68900     -3097.00800                
E01        41.53800       218.28500        -7.47000                
E02        31.47400       165.39700       -11.89500                
E03        11.97200        62.91600       -15.62400                
E04         5.55100        29.17200        11.59200                
E05        15.98700        84.01100         8.03300                
E06        33.20900       174.51600        -1.77300                
> 2025 04 22 14 03 40.0000000  0 15
G03  24399583.20300 128220675.15100      1545.55700                
G09  24302120.90800 127708507.33500      -555.33800                
G14  20704019.13200 108800354.88100      -355.12600                
G18  21847352.97700 114808614.79100      2508.16700                
G19  21699081.72200 114029444.08700     -2238.71200                
G22  23575154.69500 123888274.09900      2933.60900                
G23  20783076.35600 109215803.39700     -1255.70300                
G27  21219851.23300 111511070.86600      1811.70400                
G28  24263565.30400 127505896.26500     -3091.94800                
E01        42.18400       221.67700         0.73400                
E02        33.01700       173.50500        -4.30100                
E03        14.50700        76.23600       -11.05900                
E04         4.48300        23.55800        -1.30800                
E05        14.12100        74.20800        11.83400                
E06        32.84900       172.62400         5.64800                
> 2025 04 22 14 03 41.0000000  0 15
G03  24399288.29700 128219125.40700      1553.92500                
G09  24302227.29700 127709066.40900      -562.60600                
G14  20704087.23300 108800712.75600      -360.62000                
G18  21846876.25200 114806109.58300      2502.36700                
G19  21699507.16300 114031679.79100     -2232.81200                
G22  23574597.23500 123885344.62800      2925.30300                
G23  20783315.05700 109217057.78000     -1253.04200                
G27  21219506.24000 111509257.91700      1814.04300                
G28  24264153.11700 127508985.24300     -3085.90200                
E01        41.26300       216.83700         8.87500                
E02        33.12900       174.09300         3.01100                
E03        16.25000        85.39300        -7.55300                
E04         5.96900        31.36800       -13.20400                
E05        11.43200        60.07700        16.41000                
E06        31.05100       163.17400        13.20800                
> 2025 04 22 14 03 42.0000000  0 15
G03  24398991.82500 128217567.43700      1561.87700                
G09  24302334.93400 127709632.04500      -568.37300                
G14  20704156.36400 108801076.03900      -365.87100                
G18  21846400.54300 114803609.71200      2497.57300                
G19  21699931.56000 114033910.01300     -2227.83300                
G22  23574041.34400 123882423.39900      2917.24600                
G23  20783553.24800 109218309.47900     -1250.38200                
G27  21219160.89500 111507443.11400      1815.37400                
G28  24264739.73000 127512067.91900     -3079.44100                
E01        38.85500       204.18400        16.24900                
E02        31.93900       167.84300         9.24500                
E03        17.53000        92.12200        -6.35700                
E04         9.16500        48.16500       -19.86700                
E05         7.97200        41.89300        19.31500                
E06        27.86300       146.42400        20.12300                
> 2025 04 22 14 03 43.0000000  0 15
G03  24398693.94000 128216002.04100      1568.65900                
G09  24302443.48800 127710202.50100      -572.18300                
G14  20704226.43800 108801444.28100      -370.47500                
G18  21845925.61600 114801113.95800      2494.19200                
G19  21700355.13600 114036135.91800     -2224.25100                
G22  23573486.90600 123879509.80700      2910.14100                
G23  20783790.95400 109219558.63300     -1247.99400                
G27  21218815.40600 111505627.55900      1815.52800                
G28  24265325.12300 127515144.17600     -3073.16900                
E01        35.16700       184.80500        22.22900                
E02        29.72600       156.21200        13.65800                
E03        18.84500        99.03200        -7.88500                
E04        13.40500        70.44300       -24.43300                
E05         4.77100        25.07300        10.10200                
E06        23.47900       123.38300        25.67400                
> 2025 04 22 14 03 44.0000000  0 15
G03  24398394.92800 128214430.72500      1573.61800                
G09  24302552.55700 127710775.66100      -573.75200                
G14  20704297.29900 108801816.65700      -374.08500                
G18  21845451.17500 114798620.75400      2492.50600                
G19  21700778.19200 114038359.09200     -2222.41600                
G22  23572933.67900 123876602.58200      2904.60500                
G23  20784028.25100 109220805.63700     -1246.12200                
G27  21218470.00600 111503812.47100      1814.43700                
G28  24265909.38700 127518214.50400     -3067.67500                
E01        30.51500       160.35700        26.32200                
E02        26.89400       141.33100        15.66900                
E03        20.64800       108.50500       -11.21300                
E04        18.36300        96.49600       -27.37800                
E05         5.91800        31.09800       -20.43700                
E06        18.22100        95.75100        29.19800                
> 2025 04 22 14 03 45.0000000  0 15
G03  24398095.18700 128212855.57400      1576.26600                
G09  24302661.70200 127711349.22700      -572.99600                
G14  20704368.73100 108802192.03400      -376.44500                
G18  21844976.88300 114796128.32800      2492.64400                
G19  21701201.08200 114040581.39400     -2222.52400                
G22  23572381.31700 123873699.90200      2901.11600                
G23  20784265.25700 109222051.11500     -1244.96800                
G27  21218124.93000 111501999.08100      1812.14700                
G28  24266492.72100 127521279.94700     -3063.47800                
E01        25.28900       132.89300        28.22900                
E02        23.93100       125.75900        15.04800                
E03        23.10400       121.41100       -14.40700                
E04        23.70000       124.54300       -28.36000                
E05        10.88500        57.20000       -29.24700                
E06        12.54600        65.92900        29.86000                
> 2025 04 22 14 03 46.0000000  0 15
G03  24397795.18600 128211279.05800      1576.32000                
G09  24302770.49100 127711920.91700      -570.04000                
G14  20704440.48000 108802569.07800      -377.40600                
G18  21844502.39100 114793634.85900      2494.57400                
G19  21701624.18000 114042804.79100     -2224.59600                
G22  23571829.40000 123870799.55700      2899.96700                
G23  20784502.12400 109223295.85800     -1244.66800                
G27  21217780.39200 111500188.52200      1808.81100                
G28  24267075.41300 127524342.01600     -3060.98200                
E01        19.91500       104.65200        27.88600                
E02        21.30700       111.96900        12.26000                
E03        26.01200       136.69300       -15.75700                
E04        29.01500       152.47300       -27.12100                
E05        16.56600        87.05300       -29.74600                
E06         7.19700        37.82300        24.77900                
> 2025 04 22 14 03 47.0000000  0 15
G03  24397495.42700 128209703.81600      1573.73000                
G09  24302878.53300 127712488.67800      -565.20500                
G14  20704512.27600 108802946.37200      -376.94900                
G18  21844027.37600 114791138.63800      2498.10200                
G19  21702047.84800 114045031.18400     -2228.47700                
G22  23571277.47000 123867899.14600      2901.24500                
G23  20784739.02000 109224540.75500     -1245.28100                
G27  21217436.56900 111498381.72400      1804.67200                
G28  24267657.81400 127527402.55200     -3060.43800                
E01        14.80700        77.81000        25.48200                
E02        19.31200       101.48500         8.75600                
E03        28.93500       152.05400       -14.52200                
E04        33.87900       178.03800       -23.65100                
E05        22.00200       115.62000       -26.95500                
E06         4.45000        23.38400        -0.84900                
> 2025 04 22 14 03 48.0000000  0 15
G03  24397196.40000 128208132.41700      1568.68200                
G09  24302985.51300 127713050.86200      -558.98000                
G14  20704583.85800 108803322.53700      -375.17800                
G18  21843551.56300 114788638.22400      2502.89300                
G19  21702472.40400 114047262.23900     -2233.85300                
G22  23570725.07500 123864996.29000      2904.81700                
G23  20784976.11900 109225786.71600     -1246.78600                
G27  21217093.58600 111496579.33500      1800.05000                
G28  24268240.30400 127530463.55900     -3061.92400                
E01        10.32400        54.25400        21.37400                
E02        17.89200        94.02100         6.53700                
E03        31.37800       164.89100       -10.76700                
E04        37.88900       199.10600       -18.18400                
E05        26.68300       140.22200       -21.93300                
E06         6.89500        36.23200       -18.92100                
> 2025 04 22 14 03 49.0000000  0 15
G03  24396898.53700 128206567.13600      1561.57900                
G09  24303091.22400 127713606.37700      -551.97700                
G14  20704654.99500 108803696.36400      -372.31700                
G18  21843074.75400 114786132.57300      2508.49600                
G19  21702898.09000 114049499.23300     -2240.27300                
G22  23570171.80700 123862088.84700      2910.34700                
G23  20785213.58100 109227034.58900     -1249.08100                
G27  21216751.50000 111494781.66200      1795.30300                
G28  24268823.26400 127533527.03100     -3065.33500                
E01         6.77800        35.61800        15.52000                
E02        16.65600        87.52700         6.92000                
E03        32.90400       172.91400        -4.99800                
E04        40.70100       213.88500       -11.16000                
E05        30.25000       158.96500       -15.34900                
E06        10.47700        55.05900       -17.61900                
> 2025 04 22 14 03 50.0000000  0 15
G03  24396602.17600 128205009.74600      1553.01100                
G09  24303195.58200 127714154.78300      -544.87800                
G14  20704725.50800 108804066.91300      -368.68400                
G18  21842596.84100 114783621.12600      2514.39300                
G19  21703325.05400 114051742.94700     -2247.19500                
G22  23569617.34000 123859175.10200      2917.32300                
G23  20785451.54200 109228285.08300     -1251.99400                
G27  21216410.30000 111492988.64300      1790.80300                
G28  24269407.03500 127536594.76800     -3070.39600                
E01         4.67600        24.57500         5.49400                
E02        15.09400        79.32100         9.84800                
E03        33.19700       174.45000         2.07900                
E04        42.07500       221.10500        -3.17400                
E05        32.47000       170.63100        -7.89900                
E06        13.42000        70.52500       -13.17900                
> 2025 04 22 14 03 51.0000000  0 15
G03  24396307.52800 128203461.36000      1543.69700                
G09  24303298.63500 127714696.33300      -538.37600                
G14  20704795.28700 108804433.60300      -364.66800                
G18  21842117.82200 114781103.86400      2520.03400                
G19  21703753.33700 114053993.58800     -2254.03100                
G22  23569061.45800 123856253.92100      2925.10500                
G23  20785690.09800 109229538.70600     -1255.29800                
G27  21216069.90500 111491199.85200      1786.89900                
G28  24269991.89300 127539668.22000     -3076.68200                
E01         4.98700        26.20600        -8.43900                
E02        12.81200        67.32900        14.26500                
E03        32.08000       168.58300         9.67400                
E04        41.89200       220.14200         5.08600                
E05        33.25000       174.73200        -0.35300                
E06        15.51100        81.51100        -8.98200                
> 2025 04 22 14 03 52.0000000  0 15
G03  24396014.66100 128201922.33500      1534.42200                
G09  24303400.56000 127715231.94700      -533.10700                
G14  20704864.29900 108804796.26200      -360.69200                
G18  21841637.79600 114778581.31000      2524.89700                
G19  21704182.86600 114056250.77900     -2260.20000                
G22  23568504.07400 123853324.85100      2932.98000                
G23  20785929.30000 109230795.71900     -1258.72900                
G27  21215730.17100 111489414.54200      1783.88700                
G28  24270578.02300 127542748.35300     -3083.66200                
E01         7.50200        39.42500       -17.10500                
E02         9.67800        50.85800        18.42700                
E03        29.53300       155.19700        16.98800                
E04        40.16700       211.08000        12.90700                
E05        32.64900       171.57300         6.48700                
E06        16.95400        89.09400        -6.58000                
> 2025 04 22 14 03 53.0000000  0 15
G03  24395723.49300 128200392.23900      1525.96800                
G09  24303501.64100 127715763.13500      -529.59900                
G14  20704932.59100 108805155.14200      -357.17600                
G18  21841156.95500 114776054.47500      2528.52600                
G19  21704613.46400 114058513.58400     -2265.18200                
G22  23567945.24000 123850388.16000      2940.22700                
G23  20786169.14500 109232056.11400     -1262.01500                
G27  21215390.90800 111487631.70300      1781.98400                
G28  24271165.50000 127545835.56500     -3090.74000                
E01        11.29700        59.36600       -22.46800                
E02         6.08000        31.95200        17.63900                
E03        25.68100       134.95300        23.26800                
E04        37.05000       194.70000        19.61600                
E05        30.87600       162.25200        11.84500                
E06        18.18700        95.57400        -6.84800                
> 2025 04 22 14 03 54.0000000  0 15
G03  24395433.79900 128198869.88500      1519.04400                
G09  24303602.25400 127716291.85800      -528.22300                
G14  20705000.28900 108805510.89500      -354.49800                
G18  21840675.57000 114773524.77800      2530.57700                
G19  21705044.86300 114060780.60000     -2268.56200                
G22  23567385.14100 123847444.81800      2946.18100                
G23  20786409.58100 109233319.61100     -1264.89300                
G27  21215051.89200 111485850.16000      1781.30600                
G28  24271754.28500 127548929.65200     -3097.31400                
E01        15.95400        83.83700       -26.20800                
E02         4.60000        24.17400        -7.58600                
E03        20.78600       109.23300        27.83100                
E04        32.80800       172.40700        24.65000                
E05        28.27800       148.60300        15.04700                
E06        19.71700       103.61200        -9.53000                
> 2025 04 22 14 03 55.0000000  0 15
G03  24395145.23000 128197353.44500      1514.22200                
G09  24303702.82300 127716820.35500      -529.16000                
G14  20705067.58100 108805864.51800      -352.96000                
G18  21840193.96200 114770993.90900      2530.84700                
G19  21705476.72900 114063050.07500     -2270.06800                
G22  23566824.07600 123844496.40300      2950.29300                
G23  20786650.50700 109234585.68700     -1267.13900                
G27  21214712.88700 111484068.67400      1781.86200                
G28  24272344.22800 127552029.82500     -3102.82400                
E01        21.15800       111.18700       -28.16100                
E02         8.34700        43.86500       -26.91900                
E03        15.24000        80.08900        29.98800                
E04        27.80000       146.09200        27.61200                
E05        25.31400       133.02500        15.66300                
E06        21.86800       114.91600       -13.04300                
> 2025 04 22 14 03 56.0000000  0 15
G03  24394857.34600 128195840.60700      1511.88600                
G09  24303803.79100 127717350.94200      -532.38200                
G14  20705134.70600 108806217.26400      -352.76500                
G18  21839712.47600 114768463.68700      2529.29200                
G19  21705908.69500 114065320.06900     -2269.59700                
G22  23566262.43700 123841544.96600      2952.17800                
G23  20786891.78600 109235853.61900     -1268.58300                
G27  21214373.66500 111482286.05400      1783.54900                
G28  24272935.08100 127555134.77800     -3106.80700                
E01        26.53600       139.44800       -27.98700                
E02        13.87500        72.91400       -30.03600                
E03         9.60600        50.47900        28.35600                
E04        22.44200       117.93600        28.32400                
E05        22.47800       118.12100        13.77900                
E06        24.60700       129.30900       -15.41900                
> 2025 04 22 14 03 57.0000000  0 15
G03  24394569.65600 128194328.78400      1512.19900                
G09  24303905.57200 127717885.80700      -537.66100                
G14  20705201.93000 108806570.52500      -353.99400                
G18  21839231.45200 114765935.88800      2526.03100                
G19  21706340.38700 114067588.62500     -2267.22000                
G22  23565700.66600 123838592.84300      2951.65000                
G23  20787133.25600 109237122.55100     -1269.12900                
G27  21214034.03100 111480501.26200      1786.16500                
G28  24273526.52000 127558242.80800     -3108.93700                
E01        31.66600       166.40600       -25.55500                
E02        19.50300       102.48900       -28.59300                
E03         5.12300        26.92000        15.09600                
E04        17.16000        90.17500        26.85300                
E05        20.16900       105.98600        10.37300                
E06        27.58400       144.95700       -15.43600                
> 2025 04 22 14 03 58.0000000  0 15
G03  24394281.65800 128192815.34500      1515.08600                
G09  24304008.52200 127718426.81200      -544.58200                
G14  20705269.52000 108806925.71400      -356.60300                
G18  21838751.19100 114763412.09600      2521.33500                
G19  21706771.46300 114069853.94600     -2263.18000                
G22  23565139.22600 123835642.45200      2948.74000                
G23  20787374.74200 109238391.57000     -1268.76000                
G27  21213693.83200 111478713.50600      1789.42300                
G28  24274118.17300 127561351.96500     -3109.05000                
E01        36.12600       189.84400       -20.98800                
E02        24.59300       129.23700       -24.53700                
E03         5.33400        28.03000       -14.86900                
E04        12.34200        64.85600        23.50500                
E05        18.50800        97.26000         7.31100                
E06        30.31400       159.29900       -12.82700                
> 2025 04 22 14 03 59.0000000  0 15
G03  24393992.88800 128191297.84900      1520.24400                
G09  24304112.90200 127718975.33100      -552.58400                
G14  20705337.72500 108807284.13500      -360.42200                
G18  21838271.92800 114760893.55600      2515.60500                
G19  21707201.64200 114072114.55400     -2257.86900                
G22  23564578.54700 123832696.06900      2943.69000                
G23  20787616.07600 109239659.78500     -1267.54000                
G27  21213352.97900 111476922.31300      1792.98000                
G28  24274709.65500 127564460.22900     -3107.16700                
E01        39.54000       207.78400       -14.63400                
E02        28.72300       150.93900       -18.60800                
E03         8.82400        46.37300       -19.03900                
E04         8.31300        43.68500        18.56600                
E05        17.24700        90.63600         6.38900                
E06        32.32000       169.84500        -7.92900                
> 2025 04 22 14 04  0.0000000  0 15
G03  24393702.96000 128189774.26500      1527.16400                
G09  24304218.85500 127719532.12100      -561.01000                
G14  20705406.75100 108807646.87000      -365.17500                
G18  21837793.81600 114758381.06100      2509.33100                
G19  21707630.72900 114074369.42200     -2251.79200                
G22  23564019.00100 123829755.63200      2936.93400                
G23  20787857.10600 109240926.41000     -1265.61000                
G27  21213011.45000 111475127.56700      1796.46600                
G28  24275300.60400 127567565.68500     -3103.48300                
E01        41.61500       218.69100        -7.02100                
E02        31.59900       166.05200       -11.47600                
E03        12.13800        63.78400       -15.36900                
E04         5.43000        28.53700        11.04100                
E05        15.90000        83.55700         8.20000                
E06        33.22600       174.60400        -1.37500                
> 2025 04 22 14 04  1.0000000  0 15
G03  24393411.59900 128188243.15000      1535.18400                
G09  24304326.39800 127720097.26100      -569.16600                
G14  20705476.74300 108808014.67700      -370.50300                
G18  21837316.90700 114755874.88700      2503.05300                
G19  21708058.63200 114076618.06600     -2245.52100                
G22  23563460.85700 123826822.56500      2929.05800                
G23  20788097.71800 109242190.83300     -1263.17400                
G27  21212669.29400 111473329.52200      1799.51800                
G28  24275890.70800 127570666.70100     -3098.35700                
E01        42.17300       221.62300         1.19900                
E02        33.06100       173.73400        -3.87700                
E03        14.62400        76.84900       -10.82000                
E04         4.50100        23.65400        -2.12900                
E05        13.99400        73.53700        12.08500                
E06        32.78700       172.29500         6.07600                
> 2025 04 22 14 04  2.0000000  0 15
G03  24393118.66600 128186703.78100      1543.54100                
G09  24304435.41300 127720670.13800      -576.38000                
G14  20705547.77100 108808387.93000      -375.99400                
G18  21836841.15000 114753374.76700      2497.31300                
G19  21708485.37100 114078860.59100     -2239.65000                
G22  23562904.26400 123823897.64900      2920.75000                
G23  20788337.83800 109243452.67200     -1260.48300                
G27  21212326.62400 111471528.78000      1801.81100                
G28  24276479.73600 127573762.06600     -3092.27300                
E01        41.16600       216.32800         9.31500                
E02        33.09500       173.91400         3.39700                
E03        16.33000        85.81300        -7.41700                
E04         6.11300        32.12200       -13.67600                
E05        11.25600        59.15100        16.65100                
E06        30.90800       162.42200        13.61900                
> 2025 04 22 14 04  3.0000000  0 15
G03  24392824.17500 128185156.21700      1551.44200                
G09  24304545.66400 127721249.50900      -582.06600                
G14  20705619.82500 108808766.57800      -381.22300                
G18  21836366.39500 114750879.90900      2492.60300                
G19  21708911.07400 114081097.67800     -2234.73100                
G22  23562349.23600 123820980.95800      2912.73300                
G23  20788577.44300 109244711.80400     -1257.80900                
G27  21211983.61100 111469726.23600      1803.08800                
G28  24277067.56100 127576851.10700     -3085.80500                
E01        38.68000       203.26200        16.62700                
E02        31.83900       167.31600         9.54700                
E03        17.59800        92.47800        -6.37300                
E04         9.37900        49.28700       -20.16500                
E05         7.76600        40.81100        19.31600                
E06        27.64700       145.28600        20.47700                
> 2025 04 22 14 04  4.0000000  0 15
G03  24392528.28300 128183601.29600      1558.13700                
G09  24304656.81400 127721833.60700      -585.77200                
G14  20705692.81700 108809150.15400      -385.78800                
G18  21835892.40500 114748389.07500      2489.32100                
G19  21709335.97000 114083330.52400     -2231.23700                
G22  23561795.65000 123818071.84200      2905.70700                
G23  20788816.56200 109245968.38500     -1255.42400                
G27  21211640.46600 111467922.99600      1803.18200                
G28  24277654.16700 127579933.73900     -3079.55900                
E01        34.92900       183.55100        22.51200                
E02        29.58000       155.44200        13.83800                
E03        18.93000        99.47800        -8.04000                
E04        13.66700        71.81800       -24.64300                
E05         4.67100        24.54800         8.60000                
E06        23.20400       121.93700        25.93100                
> 2025 04 22 14 04  5.0000000  0 15
G03  24392231.28500 128182040.55900      1562.98100                
G09  24304768.45700 127722420.29900      -587.22400                
G14  20705766.58700 108809537.81600      -389.34500                
G18  21835418.88100 114745900.69000      2487.74200                
G19  21709760.36600 114085560.73700     -2229.51100                
G22  23561243.25700 123815168.99800      2900.28200                
G23  20789055.27500 109247222.82800     -1253.57200                
G27  21211297.42100 111466120.28400      1802.03300                
G28  24278239.65100 127583010.48200     -3074.12000                
E01        30.23300       158.87700        26.48800                
E02        26.72700       140.45200        15.70400                
E03        20.76900       109.14000       -11.41500                
E04        18.65500        98.03400       -27.48900                
E05         6.14100        32.27200       -21.44300                
E06        17.90900        94.11100        29.32100                
> 2025 04 22 14 04  6.0000000  0 15
G03  24391933.58000 128180476.11100      1565.49500                
G09  24304880.15600 127723007.27700      -586.35000                
G14  20705840.91600 108809928.42200      -391.64100                
G18  21834945.48400 114743412.97500      2487.98400                
G19  21710184.61700 114087790.19200     -2229.73600                
G22  23560691.70500 123812270.57500      2896.92600                
G23  20789293.70200 109248475.77200     -1252.45300                
G27  21210954.71000 111464319.32600      1799.69100                
G28  24278824.21900 127586082.40900     -3070.00200                
E01        24.98700       131.31000        28.26900                
E02        23.77100       124.91800        14.94000                
E03        23.25800       122.22200       -14.54300                
E04        24.00200       126.13200       -28.35000                
E05        11.19800        58.84400       -29.40300                
E06        12.22800        64.25800        29.78000                
> 2025 04 22 14 04  7.0000000  0 15
G03  24391635.64200 128178910.43500      1565.41000                
G09  24304991.47500 127723592.26700      -583.28500                
G14  20705915.55100 108810320.63100      -392.53700                
G18  21834471.87100 114740924.11900      2490.00600                
G19  21710609.09900 114090020.86000     -2231.92500                
G22  23560140.57200 123809374.35000      2895.92000                
G23  20789531.99700 109249728.02100     -1252.19900                
G27  21210612.54700 111462521.24500      1796.31300                
G28  24279408.16200 127589151.04900     -3067.60300                
E01        19.61800       103.09100        27.80300                
E02        21.17700       111.28800        12.06400                
E03        26.18000       137.57600       -15.75900                
E04        29.30300       153.98900       -26.98400                
E05        16.88300        88.71800       -29.66200                
E06         6.93700        36.45200        24.11700                
> 2025 04 22 14 04  8.0000000  0 15
G03  24391337.97200 128177346.17000      1562.68700                
G09  24305102.02800 127724173.22500      -578.35900                
G14  20705990.22100 108810713.02300      -392.01700                
G18  21833997.71800 114738432.42900      2493.60500                
G19  21711034.17300 114092254.63800     -2235.91300                
G22  23559589.39900 123806477.91500      2897.33800                
G23  20789770.33200 109250980.47600     -1252.86600                
G27  21210271.10600 111460726.96000      1792.14700                
G28  24279991.83300 127592218.25800     -3067.16400                
E01        14.53600        76.38700        25.29300                
E02        19.22000       101.00000         8.57900                
E03        29.08900       152.86400       -14.37400                
E04        34.13000       179.35600       -23.39400                
E05        22.28800       117.12500       -26.72600                
E06         4.47000        23.48700        -2.82600                
> 2025 04 22 14 04  9.0000000  0 15
G03  24391041.05800 128175785.87500      1557.52200                
G09  24305211.50500 127724748.52900      -572.06900                
G14  20706064.66500 108811104.22800      -390.19100                
G18  21833522.75600 114735936.48800      2498.44000                
G19  21711460.15200 114094493.17300     -2241.37400                
G22  23559037.73500 123803578.90100      2901.03500                
G23  20790008.87900 109252234.05100     -1254.42800                
G27  21209930.50800 111458937.10400      1787.51300                
G28  24280575.61300 127595286.04400     -3068.75400                
E01        10.09800        53.06300        21.09800                
E02        17.82200        93.65600         6.48400                
E03        31.49100       165.48700       -10.49100                
E04        38.08100       200.11500       -17.82700                
E05        26.91600       141.44200       -21.60000                
E06         7.09700        37.29800       -19.08200                
> 2025 04 22 14 04 10.0000000  0 15
G03  24390745.32700 128174231.80000      1550.33200                
G09  24305319.70300 127725317.11400      -565.03400                
G14  20706138.65400 108811493.04400      -387.28600                
G18  21833046.79200 114733435.28000      2504.05700                
G19  21711887.27500 114096737.71900     -2247.85100                
G22  23558485.17700 123800675.18800      2906.66300                
G23  20790247.80100 109253489.59300     -1256.77700                
G27  21209590.80700 111457151.96500      1782.77300                
G28  24281159.88100 127598356.39300     -3072.25800                
E01         6.61500        34.76000        15.11000                
E02        16.58100        87.13600         7.02400                
E03        32.95600       173.18400        -4.62800                
E04        40.81800       214.49900       -10.73200                
E05        30.41200       159.81500       -14.94700                
E06        10.66400        56.04100       -17.40200                
> 2025 04 22 14 04 11.0000000  0 15
G03  24390451.11200 128172685.68600      1541.71200                
G09  24305426.54600 127725878.57600      -557.93700                
G14  20706212.01300 108811878.54800      -383.62700                
G18  21832569.72600 114730928.27800      2509.93500                
G19  21712315.68400 114098989.02500     -2254.79600                
G22  23557931.40400 123797765.09300      2913.70200                
G23  20790487.23100 109254747.80600     -1259.73600                
G27  21209251.98900 111455371.46600      1778.29600                
G28  24281744.97700 127601431.09300     -3077.39200                
E01         4.62200        24.28800         4.73100                
E02        14.98800        78.76300        10.06900                
E03        33.17200       174.32200         2.49900                
E04        42.10600       221.27000        -2.71200                
E05        32.55200       171.06100        -7.47200                
E06        13.56000        71.25600       -12.92000                
> 2025 04 22 14 04 12.0000000  0 15
G03  24390158.61600 128171148.61000      1532.38500                
G09  24305532.08700 127726433.20000      -551.47200                
G14  20706284.63500 108812260.17700      -379.60500                
G18  21832091.55900 114728415.49700      2515.52700                
G19  21712745.41300 114101247.26500     -2261.62000                
G22  23557376.20800 123794847.51900      2921.50500                
G23  20790727.26400 109256009.19000     -1263.07500                
G27  21208913.97100 111453595.16600      1774.42900                
G28  24282331.17200 127604511.56700     -3083.72700                
E01         5.08000        26.69800        -9.08700                
E02        12.65900        66.52200        14.52600                
E03        31.97500       168.02900        10.09800                
E04        41.83500       219.84400         5.54300                
E05        33.25200       174.74000         0.05600                
E06        15.60600        82.00900        -8.78900                
> 2025 04 22 14 04 13.0000000  0 15
G03  24389867.90000 128169620.88600      1523.13900                
G09  24305636.50900 127726981.94100      -546.27000                
G14  20706356.49000 108812637.77800      -375.64300                
G18  21831612.39800 114725897.48500      2520.31400                
G19  21713176.38200 114103512.02400     -2267.74200                
G22  23556819.51100 123791922.05500      2929.35900                
G23  20790967.94800 109257273.99200     -1266.52600                
G27  21208576.60600 111451822.30200      1771.46600                
G28  24282918.64400 127607598.75600     -3090.72400                
E01         7.68700        40.39400       -17.46000                
E02         9.48000        49.82000        18.59400                
E03        29.35000       154.23400        17.37400                
E04        40.02700       210.34500        13.31900                
E05        32.57800       171.19900         6.83400                
E06        17.02400        89.46100        -6.52100                
> 2025 04 22 14 04 14.0000000  0 15
G03  24389578.87300 128168102.04100      1514.75300                
G09  24305740.10400 127727526.33700      -542.85600                
G14  20706427.63000 108813011.62200      -372.15800                
G18  21831132.43800 114723375.28100      2523.84700                
G19  21713608.40800 114105782.33600     -2272.64700                
G22  23556261.37100 123788989.01400      2936.54300                
G23  20791209.27700 109258542.18700     -1269.81500                
G27  21208239.70100 111450051.85700      1769.61800                
G28  24283507.46400 127610693.02600     -3097.78800                
E01        11.53800        60.63200       -22.71900                
E02         5.89500        30.97700        17.14600                
E03        25.43100       133.64000        23.57500                
E04        36.83900       193.59100        19.94700                
E05        30.74800       161.58100        12.08700                
E06        18.26100        95.96100        -6.94400                
> 2025 04 22 14 04 15.0000000  0 15
G03  24389291.30400 128166590.85500      1507.92800                
G09  24305843.25000 127728068.37100      -541.59000                
G14  20706498.18200 108813382.37900      -369.52600                
G18  21830651.95300 114720850.31400      2525.79200                
G19  21714041.21800 114108056.76700     -2275.92600                
G22  23555701.98200 123786049.40300      2942.39800                
G23  20791451.19600 109259813.47800     -1272.67900                
G27  21207903.03300 111448282.65200      1768.99700                
G28  24284097.58700 127613794.14100     -3104.31600                
E01        16.23400        85.31000       -26.36900                
E02         4.69100        24.65400        -9.51100                
E03        20.48900       107.66800        28.02300                
E04        32.54400       171.01900        24.87400                
E05        28.11700       147.75700        15.15200                
E06        19.81900       104.15100        -9.72400                
> 2025 04 22 14 04 16.0000000  0 15
G03  24389004.83900 128165085.47200      1503.22800                
G09  24305946.37400 127728610.29200      -542.64300                
G14  20706568.34000 108813751.05900      -368.04700                
G18  21830171.26600 114718324.28500      2525.95300                
G19  21714474.47500 114110333.55000     -2277.31700                
G22  23555141.64900 123783104.83100      2946.38500                
G23  20791693.60100 109261087.32600     -1274.89500                
G27  21207566.36500 111446513.44900      1769.60500                
G28  24284688.85600 127616901.28100     -3109.75300                
E01        21.45900       112.76700       -28.21000                
E02         8.63600        45.38500       -27.31400                
E03        14.92000        78.40700        30.01800                
E04        27.50500       144.54200        27.71200                
E05        25.14700       132.14900        15.61900                
E06        22.00800       115.65200       -13.22300                
> 2025 04 22 14 04 17.0000000  0 15
G03  24388719.03500 128163583.56000      1501.02700                
G09  24306049.91800 127729154.41900      -545.97800                
G14  20706638.34200 108814118.92300      -367.91700                
G18  21829690.72100 114715799.00800      2524.29700                
G19  21714907.80900 114112610.73200     -2276.72600                
G22  23554580.76600 123780157.37200      2948.12900                
G23  20791936.35300 109262362.99400     -1276.29600                
G27  21207229.47100 111444743.06200      1771.33700                
G28  24285281.01900 127620013.11800     -3113.64300                
E01        26.83400       141.01400       -27.91100                
E02        14.19500        74.59800       -30.04400                
E03         9.30500        48.89800        28.07300                
E04        22.14000       116.34900        28.29700                
E05        22.33200       117.35300        13.61400                
E06        24.77200       130.17500       -15.48900                
> 2025 04 22 14 04 18.0000000  0 15
G03  24388433.39800 128162082.52900      1501.47400                
G09  24306154.29600 127729702.93000      -551.35600                
G14  20706708.45500 108814487.36900      -369.21100                
G18  21829210.65600 114713276.24800      2520.95200                
G19  21715340.84600 114114886.36000     -2274.23500                
G22  23554019.78000 123777209.37000      2947.45700                
G23  20792179.28500 109263639.61200     -1276.78900                
G27  21206892.15700 111442970.46400      1773.98500                
G28  24285873.74800 127623127.93100     -3115.66600                
E01        31.93700       167.83200       -25.35400                
E02        19.80700       104.08700       -28.42700                
E03         4.97000        26.11700        13.51100                
E04        16.87400        88.67400        26.71200                
E05        20.05900       105.41100        10.17300                
E06        27.74900       145.82000       -15.35800                
> 2025 04 22 14 04 19.0000000  0 15
G03  24388147.42900 128160579.75300      1504.48300                
G09  24306259.86000 127730257.67100      -558.35300                
G14  20706778.94700 108814857.80500      -371.87900                
G18  21828731.36700 114710757.56700      2516.19700                
G19  21715773.24800 114117158.64600     -2270.09800                
G22  23553459.15000 123774263.24000      2944.41200                
G23  20792422.22300 109264916.26100     -1276.36100                
G27  21206554.27500 111441194.87900      1777.25900                
G28  24286466.67100 127626243.76300     -3115.67000                
E01        36.34800       191.01200       -20.67500                
E02        24.85300       130.60400       -24.24900                
E03         5.49700        28.88700       -15.68700                
E04        12.09200        63.54500        23.27000                
E05        18.43100        96.85400         7.19000                
E06        30.44900       160.01200       -12.60800                
> 2025 04 22 14 04 20.0000000  0 15
G03  24387860.66700 128159072.80900      1509.73900                
G09  24306366.86500 127730819.98700      -566.40100                
G14  20706850.06400 108815231.52800      -375.74700                
G18  21828253.08600 114708244.18200      2510.43500                
G19  21716204.73700 114119426.13400     -2264.71500                
G22  23552899.30700 123771321.24300      2939.24900                
G23  20792664.99700 109266192.04800     -1275.08300                
G27  21206215.73600 111439415.84800      1780.81600                
G28  24287059.40400 127629358.59400     -3113.68400                
E01        39.69400       208.59300       -14.23500                
E02        28.91900       151.97200       -18.23400                
E03         9.02700        47.43700       -18.92000                
E04         8.11700        42.65300        18.23600                
E05        17.17900        90.27700         6.41900                
E06        32.40300       170.28000        -7.59900                
> 2025 04 22 14 04 21.0000000  0 15
G03  24387572.73100 128157559.69400      1516.72600                
G09  24306475.45000 127731390.60400      -574.84100                
G14  20706922.01000 108815609.60600      -380.53400                
G18  21827775.95800 114705736.86000      2504.16200                
G19  21716635.12200 114121687.82500     -2258.59700                
G22  23552340.61300 123768385.29100      2932.41200                
G23  20792907.45800 109267466.18900     -1273.10000                
G27  21205876.52300 111437633.27300      1784.28400                
G28  24287651.58400 127632470.52100     -3109.91200                
E01        41.68800       219.07200        -6.57000                
E02        31.71900       166.68300       -11.05500                
E03        12.30000        64.63800       -15.11200                
E04         5.31600        27.93400        10.46700                
E05        15.81200        83.09200         8.37300                
E06        33.23900       174.67000        -0.97300                
> 2025 04 22 14 04 22.0000000  0 15
G03  24387283.35300 128156039.00000      1524.77300                
G09  24306585.62200 127731969.56600      -582.97400                
G14  20706994.92600 108815992.78300      -385.87800                
G18  21827300.03000 114703235.84100      2497.91800                
G19  21717064.31900 114123943.26900     -2252.32200                
G22  23551783.33500 123765456.77100      2924.49400                
G23  20793149.49100 109268738.08000     -1270.62200                
G27  21205536.68800 111435847.42500      1787.30300                
G28  24288242.90400 127635577.93100     -3104.72000                
E01        42.15800       221.54300         1.66300                
E02        33.10000       173.94000        -3.45300                
E03        14.73800        77.44900       -10.58500                
E04         4.52800        23.79600        -2.94200                
E05        13.86300        72.85300        12.33900                
E06        32.72000       171.94300         6.50300                
> 2025 04 22 14 04 23.0000000  0 15
G03  24386992.40200 128154510.04500      1533.11700                
G09  24306697.26000 127732556.22600      -590.13300                
G14  20707068.87900 108816381.41000      -391.36500                
G18  21826825.24500 114700740.82700      2492.23900                
G19  21717492.35400 114126192.60700     -2246.48000                
G22  23551227.61100 123762536.42400      2916.18500                
G23  20793391.02500 109270007.34900     -1267.90100                
G27  21205196.34700 111434058.92100      1789.54900                
G28  24288833.14000 127638679.63800     -3098.60000                
E01        41.06400       215.79300         9.75200                
E02        33.05600       173.71300         3.77800                
E03        16.40800        86.22500        -7.28700                
E04         6.26100        32.90100       -14.13300                
E05        11.07700        58.21100        16.88700                
E06        30.76000       161.64700        14.02900                
> 2025 04 22 14 04 24.0000000  0 15
G03  24386699.89900 128152972.92900      1540.96500                
G09  24306810.12000 127733149.31100      -595.73500                
G14  20707143.85700 108816775.41900      -396.57100                
G18  21826351.44700 114698251.00400      2487.61300                
G19  21717919.36200 114128436.55200     -2241.62500                
G22  23550673.44800 123759624.27800      2908.21100                
G23  20793632.04000 109271273.89200     -1265.21400                
G27  21204855.67300 111432268.66600      1790.77100                
G28  24289422.16700 127641775.00100     -3092.12800                
E01        38.50000       202.32000        17.00000                
E02        31.73600       166.77300         9.84300                
E03        17.66600        92.83600        -6.39700                
E04         9.59600        50.42500       -20.45700                
E05         7.56000        39.72900        19.28600                
E06        27.42700       144.12800        20.82600                
> 2025 04 22 14 04 25.0000000  0 15
G03  24386406.00900 128151428.52700      1547.57100                
G09  24306923.86200 127733747.02600      -599.33600                
G14  20707219.76600 108817174.32400      -401.09500                
G18  21825878.39700 114695765.11100      2484.43100                
G19  21718345.57900 114130676.33500     -2238.22100                
G22  23550120.71500 123756719.64700      2901.26600                
G23  20793872.56900 109272537.87700     -1262.83300                
G27  21204514.87700 111430477.77200      1790.80600                
G28  24290009.97800 127644863.96700     -3085.90800                
E01        34.68700       182.28200        22.78900                
E02        29.43100       154.66100        14.01100                
E03        19.01700        99.93400        -8.20000                
E04        13.93000        73.20500       -24.84900                
E05         4.58800        24.11100         6.96400                
E06        22.92600       120.47700        26.18200                
> 2025 04 22 14 04 26.0000000  0 15
G03  24386111.03200 128149878.41200      1552.29800                
G09  24307038.07600 127734347.22500      -600.67200                
G14  20707296.44300 108817577.26800      -404.59900                
G18  21825405.79400 114693281.56200      2482.95800                
G19  21718771.31300 114132913.58500     -2236.60300                
G22  23549569.15700 123753821.19000      2895.95400                
G23  20794112.69300 109273799.73900     -1261.00200                
G27  21204174.19300 111428687.46500      1789.59900                
G28  24290596.67600 127647947.08500     -3080.52600                
E01        29.95000       157.38800        26.64800                
E02        26.56000       139.57100        15.73000                
E03        20.89100       109.78500       -11.61600                
E04        18.94900        99.57800       -27.59300                
E05         6.37500        33.50000       -22.35700                
E06        17.59500        92.46400        29.43500                
> 2025 04 22 14 04 27.0000000  0 15
G03  24385815.37200 128148324.71200      1554.67900                
G09  24307152.32200 127734947.59100      -599.68000                
G14  20707373.67000 108817983.09700      -406.83300                
G18  21824933.29800 114690798.58000      2483.30300                
G19  21719196.92500 114135150.19000     -2236.94700                
G22  23549018.41700 123750927.03000      2892.73200                
G23  20794352.53700 109275060.13000     -1259.91900                
G27  21203833.85300 111426898.96600      1787.20600                
G28  24291182.47100 127651025.45600     -3076.48900                
E01        24.68600       129.72400        28.30100                
E02        23.61200       124.08400        14.82600                
E03        23.41400       123.04100       -14.67300                
E04        24.30400       127.72100       -28.33400                
E05        11.51200        60.49600       -29.53900                
E06        11.91100        62.59100        29.68400                
> 2025 04 22 14 04 28.0000000  0 15
G03  24385519.50600 128146769.92100      1554.45500                
G09  24307266.16800 127735545.85500      -596.50700                
G14  20707451.18900 108818390.46400      -407.66300                
G18  21824460.56600 114688314.35700      2485.41500                
G19  21719622.79100 114137388.12800     -2239.25300                
G22  23548468.06800 123748034.92600      2891.86900                
G23  20794592.25700 109276319.86700     -1259.71200                
G27  21203494.06900 111425113.39200      1783.78600                
G28  24291767.65700 127654100.63100     -3074.18700                
E01        19.32200       101.53500        27.71400                
E02        21.05000       110.61700        11.86700                
E03        26.34800       138.45900       -15.75200                
E04        29.59000       155.49700       -26.84000                
E05        17.19800        90.37800       -29.56800                
E06         6.68300        35.12000        23.38700                
> 2025 04 22 14 04 29.0000000  0 15
G03  24385223.93300 128145216.68000      1551.59800                
G09  24307379.22700 127736139.98800      -591.49100                
G14  20707528.73100 108818797.94900      -407.07900                
G18  21823987.28000 114685827.22000      2489.08500                
G19  21720049.26900 114139629.28700     -2243.34600                
G22  23547917.65200 123745142.47100      2893.42700                
G23  20794832.02700 109277579.86200     -1260.43400                
G27  21203155.01500 111423331.64900      1779.59400                
G28  24292352.59000 127657174.47600     -3073.85300                
E01        14.26700        74.97500        25.09900                
E02        19.12900       100.52400         8.40800                
E03        29.24100       153.66500       -14.21900                
E04        34.37800       180.66000       -23.13100                
E05        22.57200       118.61600       -26.49000                
E06         4.51000        23.69900        -4.72200                
> 2025 04 22 14 04 30.0000000  0 15
G03  24384929.14000 128143667.53200      1546.32000                
G09  24307491.19600 127736728.38900      -585.13700                
G14  20707606.03600 108819204.18700      -405.19800                
G18  21823513.17400 114683335.77600      2493.96200                
G19  21720476.67100 114141875.29900     -2248.89100                
G22  23547366.72000 123742247.30500      2897.24700                
G23  20795072.01900 109278841.03400     -1262.05200                
G27  21202816.80700 111421554.35200      1774.95000                
G28  24292937.65300 127660249.00300     -3075.54600                
E01         9.87400        51.88900        20.81800                
E02        17.75300        93.29400         6.44000                
E03        31.60200       166.06700       -10.20900                
E04        38.26900       201.10500       -17.46400                
E05        27.14400       142.64300       -21.26100                
E06         7.30200        38.37100       -19.19700                
