     3.05           OBSERVATION DATA    M                   RINEX VERSION / TYPE
GSPF V1.7.0                             20250903 142609 UTC PGM / RUN BY / DATE
V001                                                        MARKER NAME
NON_GEODETIC                                                MARKER TYPE
                                                            OBSERVER / AGENCY
                                                            REC # / TYPE / VERS
                                                            ANT # / TYPE
  4181981.0392   860772.9536  4723075.6527                  APPROX POSITION XYZ
        0.0000        0.0000        0.0000                  ANTENNA: DELTA H/E/N
G    4 C1C L1C D1C S1C                                      SYS / # / OBS TYPES
E    4 C1B L1B D1B S1B                                      SYS / # / OBS TYPES
  2025     4    22    14     0    1.0000000     GPS         TIME OF FIRST OBS
G L1C  0.00000   0                                          SYS / PHASE SHIFT
E L1B  0.00000   0                                          SYS / PHASE SHIFT
 C1C    0.000 C1P    0.000 C2C    0.000 C2P    0.000        GLONASS COD/PHS/BIS
                                                            END OF HEADER
> 2025 04 22 14 00  1.0000000  0 16
G03  24466471.39400 128572174.96400      1660.43700                
G09  24282356.05900 127604642.35200      -403.79500                
G14  20692438.37000 108739497.56400      -199.00300                
G15  24879096.44500 130740534.24200     -4060.55500                
G18  21953145.51100 115364558.30900      2562.25200                
G19  21607174.35400 113546467.60500     -2167.09500                
G22  23698080.03900 124534251.14300      2970.02400                
G23  20732536.86000 108950216.55300     -1171.99500                
G27  21297651.86400 111919915.94500      1930.26900                
G28  24136655.92400 126838982.97300     -3008.22600                
E01        22.14200       116.35700         0.00000                
E02        15.33800        80.60200         0.00000                
E03        15.33800        80.60200         0.00000                
E04        22.14200       116.35700         0.00000                
E05        15.33800        80.59900         0.00000                
E06        15.33800        80.59900         0.00000                
> 2025 04 22 14 00  2.0000000  0 16
G03  24466155.47000 128570514.77200      1659.94200                
G09  24282432.96100 127605046.47200      -404.44400                
G14  20692476.30800 108739696.92900      -199.72600                
G15  24879869.14200 130744594.79600     -4060.57500                
G18  21952657.95100 115361996.16000      2562.03700                
G19  21607586.77100 113548634.87000     -2167.44200                
G22  23697514.87900 124531281.20700      2969.83700                
G23  20732759.91900 108951388.73400     -1172.36800                
G27  21297284.60100 111917985.96000      1929.69600                
G28  24137228.40200 126841991.36400     -3008.56800                
E01        22.14200       116.35700         0.00000                
E02        15.33800        80.60200         0.00000                
E03        15.33800        80.60200         0.00000                
E04        22.14200       116.35700         0.00000                
E05        15.33800        80.59900         0.00000                
E06        15.33800        80.59900         0.00000                
> 2025 04 22 14 00  3.0000000  0 16
G03  24465839.64000 128568855.07700      1659.44600                
G09  24282509.98600 127605451.24100      -405.09400                
G14  20692514.38300 108739897.01600      -200.44800                
G15  24880641.84400 130748655.37100     -4060.59400                
G18  21952170.43100 115359434.22700      2561.82200                
G19  21607999.25400 113550802.48400     -2167.79000                
G22  23696949.75500 124528311.45900      2969.65000                
G23  20732983.04800 108952561.28800     -1172.74200                
G27  21296917.44600 111916056.54800      1929.12400                
G28  24137800.94500 126845000.09800     -3008.91100                
E01        22.14200       116.35700         0.00000                
E02        15.33800        80.60200         0.00000                
E03        15.33800        80.60200         0.00000                
E04        22.14200       116.35700         0.00000                
E05        15.33800        80.59900         0.00000                
E06        15.33800        80.59900         0.00000                
> 2025 04 22 14 00  4.0000000  0 16
G03  24465523.90500 128567195.87700      1658.95100                
G09  24282587.13400 127605856.66000      -405.74300                
G14  20692552.59600 108740097.82500      -201.17000                
G15  24881414.54900 130752715.96400     -4060.61400                
G18  21951682.95200 115356872.50800      2561.60700                
G19  21608411.80300 113552970.44500     -2168.13800                
G22  23696384.66600 124525341.89700      2969.46200                
G23  20733206.24900 108953734.21600     -1173.11600                
G27  21296550.40000 111914127.70800      1928.55100                
G28  24138373.55300 126848009.17400     -3009.25300                
E01        22.14200       116.35700         0.00000                
E02        15.33800        80.60200         0.00000                
E03        15.33800        80.60200         0.00000                
E04        22.14200       116.35700         0.00000                
E05        15.33800        80.59900         0.00000                
E06        15.33800        80.59900         0.00000                
> 2025 04 22 14 00  5.0000000  0 16
G03  24465208.26400 128565537.17200      1658.45500                
G09  24282664.40700 127606262.72800      -406.39300                
G14  20692590.94600 108740299.35700      -201.89300                
G15  24882187.25800 130756776.57600     -4060.63300                
G18  21951195.51400 115354311.00400      2561.39200                
G19  21608824.41900 113555138.75400     -2168.48600                
G22  23695819.61300 124522372.52300      2969.27500                
G23  20733429.52100 108954907.51800     -1173.48900                
G27  21296183.46300 111912199.44100      1927.97900                
G28  24138946.22600 126851018.59200     -3009.59500                
E01        22.14200       116.35700         0.00000                
E02        15.33800        80.60200         0.00000                
E03        15.33800        80.60200         0.00000                
E04        22.14200       116.35700         0.00000                
E05        15.33800        80.59900         0.00000                
E06        15.33800        80.59900         0.00000                
> 2025 04 22 14 00  6.0000000  0 16
G03  24464892.71700 128563878.96300      1657.95900                
G09  24282741.80200 127606669.44500      -407.04200                
G14  20692629.43300 108740501.61000      -202.61500                
G15  24882959.97100 130760837.20800     -4060.65200                
G18  21950708.11700 115351749.71500      2561.17700                
G19  21609237.10000 113557307.41000     -2168.83300                
G22  23695254.59600 124519403.33700      2969.08700                
G23  20733652.86400 108956081.19300     -1173.86300                
G27  21295816.63400 111910271.74600      1927.40600                
G28  24139518.96400 126854028.35300     -3009.93700                
E01        22.14200       116.35700         0.00000                
E02        15.33800        80.60200         0.00000                
E03        15.33800        80.60200         0.00000                
E04        22.14200       116.35700         0.00000                
E05        15.33800        80.59900         0.00000                
E06        15.33800        80.59900         0.00000                
> 2025 04 22 14 00  7.0000000  0 16
G03  24464577.26500 128562221.24900      1657.46400                
G09  24282819.32200 127607076.81200      -407.69200                
G14  20692668.05800 108740704.58700      -203.33700                
G15  24883732.68700 130764897.85900     -4060.67100                
G18  21950220.76100 115349188.64100      2560.96200                
G19  21609649.84800 113559476.41400     -2169.18100                
G22  23694689.61400 124516434.33800      2968.89900                
G23  20733876.27800 108957255.24200     -1174.23600                
G27  21295449.91500 111908344.62400      1926.83300                
G28  24140091.76800 126857038.45500     -3010.27900                
E01        22.14200       116.35700         0.00000                
E02        15.33800        80.60200         0.00000                
E03        15.33800        80.60200         0.00000                
E04        22.14200       116.35700         0.00000                
E05        15.33800        80.59900         0.00000                
E06        15.33800        80.59900         0.00000                
> 2025 04 22 14 00  8.0000000  0 16
G03  24464261.90700 128560564.03200      1656.96800                
G09  24282896.96400 127607484.82800      -408.34100                
G14  20692706.82100 108740908.28500      -204.06000                
G15  24884505.40700 130768958.53100     -4060.69000                
G18  21949733.44600 115346627.78200      2560.74700                
G19  21610062.66200 113561645.76600     -2169.52900                
G22  23694124.66800 124513465.52700      2968.71200                
G23  20734099.76300 108958429.66500     -1174.61000                
G27  21295083.30500 111906418.07500      1926.26100                
G28  24140664.63700 126860048.90000     -3010.62100                
E01        22.14200       116.35700         0.00000                
E02        15.33800        80.60200         0.00000                
E03        15.33800        80.60200         0.00000                
E04        22.14200       116.35700         0.00000                
E05        15.33800        80.59900         0.00000                
E06        15.33800        80.59900         0.00000                
> 2025 04 22 14 00  9.0000000  0 16
G03  24463946.64300 128558907.31100      1656.47200                
G09  24282974.73100 127607893.49300      -408.99000                
G14  20692745.72100 108741112.70600      -204.78200                
G15  24885278.13000 130773019.22000     -4060.70900                
G18  21949246.17100 115344067.13900      2560.53200                
G19  21610475.54200 113563815.46500     -2169.87600                
G22  23693559.75800 124510496.90300      2968.52400                
G23  20734323.31900 108959604.46000     -1174.98300                
G27  21294716.80400 111904492.09900      1925.68800                
G28  24141237.57000 126863059.68600     -3010.96300                
E01        22.14200       116.35700         0.00000                
E02        15.33800        80.60200         0.00000                
E03        15.33800        80.60200         0.00000                
E04        22.14200       116.35700         0.00000                
E05        15.33800        80.59900         0.00000                
E06        15.33800        80.59900         0.00000                
> 2025 04 22 14 00 10.0000000  0 16
G03  24463631.47400 128557251.08500      1655.97600                
G09  24283052.62100 127608302.80800      -409.63900                
G14  20692784.75900 108741317.84900      -205.50400                
G15  24886050.85700 130777079.92800     -4060.72800                
G18  21948758.93800 115341506.71000      2560.31700                
G19  21610888.48800 113565985.51300     -2170.22400                
G22  23692994.88300 124507528.46700      2968.33700                
G23  20734546.94700 108960779.62900     -1175.35700                
G27  21294350.41200 111902566.69500      1925.11500                
G28  24141810.56900 126866070.81400     -3011.30500                
E01        22.14200       116.35700         0.00000                
E02        15.33800        80.60200         0.00000                
E03        15.33800        80.60200         0.00000                
E04        22.14200       116.35700         0.00000                
E05        15.33800        80.59900         0.00000                
E06        15.33800        80.59900         0.00000                
> 2025 04 22 14 00 11.0000000  0 16
G03  24463316.39900 128555595.35700      1655.47900                
G09  24283130.63400 127608712.77200      -410.28900                
G14  20692823.93300 108741523.71500      -206.22700                
G15  24886823.58800 130781140.65500     -4060.74700                
G18  21948271.74600 115338946.49700      2560.10100                
G19  21611301.50100 113568155.90700     -2170.57100                
G22  23692430.04400 124504560.21900      2968.14900                
G23  20734770.64500 108961955.17200     -1175.73000                
G27  21293984.12900 111900641.86400      1924.54200                
G28  24142383.63200 126869082.28400     -3011.64600                
E01        22.14200       116.35700         0.00000                
E02        15.33800        80.60200         0.00000                
E03        15.33800        80.60200         0.00000                
E04        22.14200       116.35700         0.00000                
E05        15.33800        80.59900         0.00000                
E06        15.33800        80.59900         0.00000                
> 2025 04 22 14 00 12.0000000  0 16
G03  24463001.41900 128553940.12300      1654.98300                
G09  24283208.77200 127609123.38500      -410.93800                
G14  20692863.24600 108741730.30300      -206.94900                
G15  24887596.32200 130785201.40100     -4060.76600                
G18  21947784.59400 115336386.49900      2559.88600                
G19  21611714.57900 113570326.64900     -2170.91900                
G22  23691865.24100 124501592.15900      2967.96100                
G23  20734994.41400 108963131.08800     -1176.10300                
G27  21293617.95500 111898717.60600      1923.96900                
G28  24142956.76100 126872094.09600     -3011.98800                
E01        22.14200       116.35700         0.00000                
E02        15.33800        80.60200         0.00000                
E03        15.33800        80.60200         0.00000                
E04        22.14200       116.35700         0.00000                
E05        15.33800        80.59900         0.00000                
E06        15.33800        80.59900         0.00000                
> 2025 04 22 14 00 13.0000000  0 16
G03  24462686.53300 128552285.38700      1654.48700                
G09  24283287.03200 127609534.64700      -411.58700                
G14  20692902.69600 108741937.61300      -207.67100                
G15  24888369.06000 130789262.16600     -4060.78400                
G18  21947297.48400 115333826.71700      2559.67100                
G19  21612127.72400 113572497.73900     -2171.26700                
G22  23691300.47400 124498624.28600      2967.77300                
G23  20735218.25500 108964307.37700     -1176.47600                
G27  21293251.89000 111896793.92200      1923.39600                
G28  24143529.95500 126875106.24800     -3012.32900                
E01        22.14200       116.35700         0.00000                
E02        15.33800        80.60200         0.00000                
E03        15.33800        80.60200         0.00000                
E04        22.14200       116.35700         0.00000                
E05        15.33800        80.59900         0.00000                
E06        15.33800        80.59900         0.00000                
> 2025 04 22 14 00 14.0000000  0 16
G03  24462371.74100 128550631.14700      1653.99000                
G09  24283365.41600 127609946.55900      -412.23600                
G14  20692942.28300 108742145.64600      -208.39400                
G15  24889141.80200 130793322.94900     -4060.80300                
G18  21946810.41400 115331267.15000      2559.45500                
G19  21612540.93500 113574669.17700     -2171.61400                
G22  23690735.74200 124495656.60000      2967.58600                
G23  20735442.16600 108965484.03900     -1176.85000                
G27  21292885.93400 111894870.81100      1922.82300                
G28  24144103.21300 126878118.74300     -3012.67100                
E01        22.14200       116.35700         0.00000                
E02        15.33800        80.60200         0.00000                
E03        15.33800        80.60200         0.00000                
E04        22.14200       116.35700         0.00000                
E05        15.33800        80.59900         0.00000                
E06        15.33800        80.59900         0.00000                
> 2025 04 22 14 00 15.0000000  0 16
G03  24462057.04500 128548977.40300      1653.49400                
G09  24283443.92400 127610359.11900      -412.88500                
G14  20692982.00800 108742354.40100      -209.11600                
G15  24889914.54600 130797383.75100     -4060.82100                
G18  21946323.38600 115328707.79800      2559.24000                
G19  21612954.21100 113576840.96200     -2171.96200                
G22  23690171.04600 124492689.10300      2967.39800                
G23  20735666.14800 108966661.07400     -1177.22300                
G27  21292520.08700 111892948.27200      1922.24900                
G28  24144676.53700 126881131.57800     -3013.01200                
E01        22.14200       116.35700         0.00000                
E02        15.33800        80.60200         0.00000                
E03        15.33800        80.60200         0.00000                
E04        22.14200       116.35700         0.00000                
E05        15.33800        80.59900         0.00000                
E06        15.33800        80.59900         0.00000                
> 2025 04 22 14 00 16.0000000  0 16
G03  24461742.44200 128547324.15700      1652.99700                
G09  24283522.55500 127610772.32800      -413.53400                
G14  20693021.87000 108742563.87800      -209.83900                
G15  24890687.29500 130801444.57100     -4060.84000                
G18  21945836.39900 115326148.66300      2559.02400                
G19  21613367.55400 113579013.09400     -2172.30900                
G22  23689606.38600 124489721.79300      2967.21000                
G23  20735890.20200 108967838.48300     -1177.59600                
G27  21292154.34900 111891026.30700      1921.67600                
G28  24145249.92500 126884144.75500     -3013.35300                
E01        22.14200       116.35700         0.00000                
E02        15.33800        80.60200         0.00000                
E03        15.33800        80.60200         0.00000                
E04        22.14200       116.35700         0.00000                
E05        15.33800        80.59900         0.00000                
E06        15.33800        80.59900         0.00000                
> 2025 04 22 14 00 17.0000000  0 16
G03  24461427.93400 128545671.40600      1652.50000                
G09  24283601.31000 127611186.18700      -414.18300                
G14  20693061.87000 108742774.07800      -210.56100                
G15  24891460.04700 130805505.40900     -4060.85800                
G18  21945349.45200 115323589.74300      2558.80800                
G19  21613780.96400 113581185.57400     -2172.65700                
G22  23689041.76100 124486754.67200      2967.02200                
G23  20736114.32600 108969016.26400     -1177.96900                
G27  21291788.72100 111889104.91600      1921.10300                
G28  24145823.37900 126887158.27200     -3013.69400                
E01        22.14200       116.35700         0.00000                
E02        15.33800        80.60200         0.00000                
E03        15.33800        80.60200         0.00000                
E04        22.14200       116.35700         0.00000                
E05        15.33800        80.59900         0.00000                
E06        15.33800        80.59900         0.00000                
> 2025 04 22 14 00 18.0000000  0 16
G03  24461113.52100 128544019.15300      1652.00300                
G09  24283680.18800 127611600.69400      -414.83200                
G14  20693102.00700 108742985.00000      -211.28300                
G15  24892232.80200 130809566.26500     -4060.87600                
G18  21944862.54700 115321031.03800      2558.59300                
G19  21614194.43900 113583358.40100     -2173.00400                
G22  23688477.17200 124483787.73800      2966.83400                
G23  20736338.52200 108970194.41900     -1178.34200                
G27  21291423.20100 111887184.09800      1920.52900                
G28  24146396.89700 126890172.13100     -3014.03500                
E01        22.14200       116.35700         0.00000                
E02        15.33800        80.60200         0.00000                
E03        15.33800        80.60200         0.00000                
E04        22.14200       116.35700         0.00000                
E05        15.33800        80.59900         0.00000                
E06        15.33800        80.59900         0.00000                
> 2025 04 22 14 00 19.0000000  0 16
G03  24460799.20200 128542367.39600      1651.50600                
G09  24283759.18900 127612015.85100      -415.48100                
G14  20693142.28100 108743196.64500      -212.00600                
G15  24893005.56100 130813627.14100     -4060.89400                
G18  21944375.68300 115318472.54900      2558.37700                
G19  21614607.98000 113585531.57600     -2173.35100                
G22  23687912.61900 124480820.99200      2966.64600                
G23  20736562.78800 108971372.94600     -1178.71500                
G27  21291057.79100 111885263.85300      1919.95600                
G28  24146970.48000 126893186.33100     -3014.37600                
E01        22.14200       116.35700         0.00000                
E02        15.33800        80.60200         0.00000                
E03        15.33800        80.60200         0.00000                
E04        22.14200       116.35700         0.00000                
E05        15.33800        80.59900         0.00000                
E06        15.33800        80.59900         0.00000                
> 2025 04 22 14 00 20.0000000  0 16
G03  24460484.97800 128540716.13700      1651.00900                
G09  24283838.31500 127612431.65600      -416.13000                
G14  20693182.69300 108743409.01100      -212.72800                
G15  24893778.32300 130817688.03300     -4060.91200                
G18  21943888.86000 115315914.27600      2558.16100                
G19  21615021.58800 113587705.09800     -2173.69900                
G22  23687348.10200 124477854.43400      2966.45800                
G23  20736787.12500 108972551.84700     -1179.08800                
G27  21290692.48900 111883344.18100      1919.38200                
G28  24147544.12800 126896200.87100     -3014.71600                
E01        22.14200       116.35700         0.00000                
E02        15.33800        80.60200         0.00000                
E03        15.33800        80.60200         0.00000                
E04        22.14200       116.35700         0.00000                
E05        15.33800        80.59900         0.00000                
E06        15.33800        80.59900         0.00000                
> 2025 04 22 14 00 21.0000000  0 16
G03  24460170.84800 128539065.37400      1650.51200                
G09  24283917.56300 127612848.11000      -416.77900                
G14  20693223.24300 108743622.10000      -213.45000                
G15  24894551.08800 130821748.94400     -4060.93000                
G18  21943402.07800 115313356.21800      2557.94500                
G19  21615435.26100 113589878.96800     -2174.04600                
G22  23686783.62100 124474888.06400      2966.27000                
G23  20737011.53300 108973731.12000     -1179.46100                
G27  21290327.29700 111881425.08400      1918.80800                
G28  24148117.84100 126899215.75200     -3015.05700                
E01        22.14200       116.35700         0.00000                
E02        15.33800        80.60200         0.00000                
E03        15.33800        80.60200         0.00000                
E04        22.14200       116.35700         0.00000                
E05        15.33800        80.59900         0.00000                
E06        15.33800        80.59900         0.00000                
> 2025 04 22 14 00 22.0000000  0 16
G03  24459856.81300 128537415.10900      1650.01500                
G09  24283996.93500 127613265.21300      -417.42700                
G14  20693263.93000 108743835.91200      -214.17300                
G15  24895323.85700 130825809.87200     -4060.94800                
G18  21942915.33700 115310798.37800      2557.72900                
G19  21615849.00100 113592053.18400     -2174.39400                
G22  23686219.17500 124471921.88200      2966.08200                
G23  20737236.01300 108974910.76600     -1179.83300                
G27  21289962.21400 111879506.56000      1918.23500                
G28  24148691.61800 126902230.97400     -3015.39800                
E01        22.14200       116.35700         0.00000                
E02        15.33800        80.60200         0.00000                
E03        15.33800        80.60200         0.00000                
E04        22.14200       116.35700         0.00000                
E05        15.33800        80.59900         0.00000                
E06        15.33800        80.59900         0.00000                
> 2025 04 22 14 00 23.0000000  0 16
G03  24459542.87300 128535765.34100      1649.51800                
G09  24284076.43100 127613682.96500      -418.07600                
G14  20693304.75400 108744050.44600      -214.89500                
G15  24896096.63000 130829870.81800     -4060.96600                
G18  21942428.63700 115308240.75200      2557.51300                
G19  21616262.80700 113594227.74900     -2174.74100                
G22  23685654.76500 124468955.88800      2965.89400                
G23  20737460.56300 108976090.78500     -1180.20600                
G27  21289597.24000 111877588.61000      1917.66100                
G28  24149265.46100 126905246.53600     -3015.73800                
E01        22.14200       116.35700         0.00000                
E02        15.33800        80.60200         0.00000                
E03        15.33800        80.60200         0.00000                
E04        22.14200       116.35700         0.00000                
E05        15.33800        80.59900         0.00000                
E06        15.33800        80.59900         0.00000                
> 2025 04 22 14 00 24.0000000  0 16
G03  24459229.02700 128534116.07100      1649.02000                
G09  24284156.05000 127614101.36500      -418.72500                
G14  20693345.71600 108744265.70200      -215.61700                
G15  24896869.40600 130833931.78300     -4060.98300                
G18  21941941.97800 115305683.34300      2557.29700                
G19  21616676.67900 113596402.66100     -2175.08800                
G22  23685090.39100 124465990.08200      2965.70600                
G23  20737685.18400 108977271.17600     -1180.57900                
G27  21289232.37600 111875671.23300      1917.08700                
G28  24149839.36800 126908262.43800     -3016.07800                
E01        22.14200       116.35700         0.00000                
E02        15.33800        80.60200         0.00000                
E03        15.33800        80.60200         0.00000                
E04        22.14200       116.35700         0.00000                
E05        15.33800        80.59900         0.00000                
E06        15.33800        80.59900         0.00000                
> 2025 04 22 14 00 25.0000000  0 16
G03  24458915.27600 128532467.29700      1648.52300                
G09  24284235.79200 127614520.41500      -419.37400                
G14  20693386.81600 108744481.68100      -216.34000                
G15  24897642.18500 130837992.76400     -4061.00100                
G18  21941455.36000 115303126.14900      2557.08100                
G19  21617090.61700 113598577.92000     -2175.43600                
G22  23684526.05300 124463024.46400      2965.51800                
G23  20737909.87600 108978451.94100     -1180.95100                
G27  21288867.62000 111873754.43100      1916.51300                
G28  24150413.34000 126911278.68100     -3016.41900                
E01        22.14200       116.35700         0.00000                
E02        15.33800        80.60200         0.00000                
E03        15.33800        80.60200         0.00000                
E04        22.14200       116.35700         0.00000                
E05        15.33800        80.59900         0.00000                
E06        15.33800        80.59900         0.00000                
> 2025 04 22 14 00 26.0000000  0 16
G03  24458601.61900 128530819.02200      1648.02500                
G09  24284315.65800 127614940.11300      -420.02200                
G14  20693428.05200 108744698.38200      -217.06200                
G15  24898414.96700 130842053.76300     -4061.01800                
G18  21940968.78400 115300569.17200      2556.86500                
G19  21617504.62100 113600753.52600     -2175.78300                
G22  23683961.75000 124460059.03400      2965.33000                
G23  20738134.63900 108979633.07700     -1181.32400                
G27  21288502.97400 111871838.20300      1915.93900                
G28  24150987.37600 126914295.26400     -3016.75900                
E01        22.14200       116.35700         0.00000                
E02        15.33800        80.60200         0.00000                
E03        15.33800        80.60200         0.00000                
E04        22.14200       116.35700         0.00000                
E05        15.33800        80.59900         0.00000                
E06        15.33800        80.59900         0.00000                
> 2025 04 22 14 00 27.0000000  0 16
G03  24458288.05800 128529171.24300      1647.52800                
G09  24284395.64700 127615360.45900      -420.67100                
G14  20693469.42700 108744915.80500      -217.78500                
G15  24899187.75300 130846114.77900     -4061.03500                
G18  21940482.24800 115298012.41200      2556.64900                
G19  21617918.69100 113602929.48000     -2176.13000                
G22  23683397.48400 124457093.79300      2965.14200                
G23  20738359.47200 108980814.58700     -1181.69700                
G27  21288138.43700 111869922.54800      1915.36500                
G28  24151561.47800 126917312.18700     -3017.09900                
E01        22.14200       116.35700         0.00000                
E02        15.33800        80.60200         0.00000                
E03        15.33800        80.60200         0.00000                
E04        22.14200       116.35700         0.00000                
E05        15.33800        80.59900         0.00000                
E06        15.33800        80.59900         0.00000                
> 2025 04 22 14 00 28.0000000  0 16
G03  24457974.59100 128527523.96300      1647.03000                
G09  24284475.76000 127615781.45400      -421.32000                
G14  20693510.93800 108745133.95100      -218.50700                
G15  24899960.54200 130850175.81300     -4061.05300                
G18  21939995.75400 115295455.86700      2556.43200                
G19  21618332.82800 113605105.78000     -2176.47800                
G22  23682833.25300 124454128.73900      2964.95400                
G23  20738584.37700 108981996.46900     -1182.06900                
G27  21287774.01000 111868007.46800      1914.79100                
G28  24152135.64400 126920329.45100     -3017.43900                
E01        22.14200       116.35700         0.00000                
E02        15.33800        80.60200         0.00000                
E03        15.33800        80.60200         0.00000                
E04        22.14200       116.35700         0.00000                
E05        15.33800        80.59900         0.00000                
E06        15.33800        80.59900         0.00000                
> 2025 04 22 14 00 29.0000000  0 16
G03  24457661.21800 128525877.18100      1646.53200                
G09  24284555.99600 127616203.09800      -421.96800                
G14  20693552.58800 108745352.81900      -219.22900                
G15  24900733.33400 130854236.86400     -4061.07000                
G18  21939509.30100 115292899.53800      2556.21600                
G19  21618747.03000 113607282.42900     -2176.82500                
G22  23682269.05800 124451163.87400      2964.76600                
G23  20738809.35300 108983178.72400     -1182.44200                
G27  21287409.69100 111866092.96100      1914.21700                
G28  24152709.87500 126923347.05400     -3017.77900                
E01        22.14200       116.35700         0.00000                
E02        15.33800        80.60200         0.00000                
E03        15.33800        80.60200         0.00000                
E04        22.14200       116.35700         0.00000                
E05        15.33800        80.59900         0.00000                
E06        15.33800        80.59900         0.00000                
> 2025 04 22 14 00 30.0000000  0 16
G03  24457347.94100 128524230.89600      1646.03400                
G09  24284636.35600 127616625.39100      -422.61700                
G14  20693594.37400 108745572.40900      -219.95200                
G15  24901506.13000 130858297.93200     -4061.08700                
G18  21939022.88900 115290343.42600      2556.00000                
G19  21619161.29800 113609459.42400     -2177.17200                
G22  23681704.89800 124448199.19700      2964.57700                
G23  20739034.39900 108984361.35000     -1182.81400                
G27  21287045.48200 111864179.02900      1913.64300                
G28  24153284.17000 126926364.99700     -3018.11800                
E01        22.14200       116.35700         0.00000                
E02        15.33800        80.60200         0.00000                
E03        15.33800        80.60200         0.00000                
E04        22.14200       116.35700         0.00000                
E05        15.33800        80.59900         0.00000                
E06        15.33800        80.59900         0.00000                
> 2025 04 22 14 00 31.0000000  0 16
G03  24457034.75800 128522585.10900      1645.53600                
G09  24284716.83900 127617048.33200      -423.26500                
G14  20693636.29800 108745792.72200      -220.67400                
G15  24902278.92800 130862359.01700     -4061.10400                
G18  21938536.51800 115287787.53100      2555.78300                
G19  21619575.63300 113611636.76700     -2177.51900                
G22  23681140.77500 124445234.70800      2964.38900                
G23  20739259.51600 108985544.34900     -1183.18600                
G27  21286681.38200 111862265.67100      1913.06800                
G28  24153858.53000 126929383.27900     -3018.45800                
E01        22.14200       116.35700         0.00000                
E02        15.33800        80.60200         0.00000                
E03        15.33800        80.60200         0.00000                
E04        22.14200       116.35700         0.00000                
E05        15.33800        80.59900         0.00000                
E06        15.33800        80.59900         0.00000                
> 2025 04 22 14 00 32.0000000  0 16
G03  24456721.67000 128520939.82000      1645.03800                
G09  24284797.44500 127617471.92100      -423.91400                
G14  20693678.36000 108746013.75700      -221.39600                
G15  24903051.73000 130866420.11900     -4061.12100                
G18  21938050.18900 115285231.85200      2555.56700                
G19  21619990.03400 113613814.45600     -2177.86600                
G22  23680576.68700 124442270.40800      2964.20100                
G23  20739484.70400 108986727.72100     -1183.55900                
G27  21286317.39200 111860352.88800      1912.49400                
G28  24154432.95500 126932401.90100     -3018.79800                
E01        22.14200       116.35700         0.00000                
E02        15.33800        80.60200         0.00000                
E03        15.33800        80.60200         0.00000                
E04        22.14200       116.35700         0.00000                
E05        15.33800        80.59900         0.00000                
E06        15.33800        80.59900         0.00000                
> 2025 04 22 14 00 33.0000000  0 16
G03  24456408.67700 128519295.03000      1644.54000                
G09  24284878.17500 127617896.15900      -424.56200                
G14  20693720.55900 108746235.51500      -222.11900                
G15  24903824.53600 130870481.23700     -4061.13800                
G18  21937563.90000 115282676.38900      2555.35000                
G19  21620404.50000 113615992.49300     -2178.21400                
G22  23680012.63600 124439306.29600      2964.01200                
G23  20739709.96300 108987911.46500     -1183.93100                
G27  21285953.51000 111858440.67900      1911.92000                
G28  24155007.44400 126935420.86300     -3019.13700                
E01        22.14200       116.35700         0.00000                
E02        15.33800        80.60200         0.00000                
E03        15.33800        80.60200         0.00000                
E04        22.14200       116.35700         0.00000                
E05        15.33800        80.59900         0.00000                
E06        15.33800        80.59900         0.00000                
> 2025 04 22 14 00 34.0000000  0 16
G03  24456095.77800 128517650.73800      1644.04100                
G09  24284959.02800 127618321.04500      -425.21000                
G14  20693762.89600 108746457.99500      -222.84100                
G15  24904597.34400 130874542.37300     -4061.15400                
G18  21937077.65300 115280121.14300      2555.13400                
G19  21620819.03300 113618170.87800     -2178.56100                
G22  23679448.62000 124436342.37200      2963.82400                
G23  20739935.29300 108989095.58100     -1184.30300                
G27  21285589.73800 111856529.04400      1911.34500                
G28  24155581.99800 126938440.16400     -3019.47700                
E01        22.14200       116.35700         0.00000                
E02        15.33800        80.60200         0.00000                
E03        15.33800        80.60200         0.00000                
E04        22.14200       116.35700         0.00000                
E05        15.33800        80.59900         0.00000                
E06        15.33800        80.59900         0.00000                
> 2025 04 22 14 00 35.0000000  0 16
G03  24455782.97500 128516006.94400      1643.54300                
G09  24285040.00500 127618746.58000      -425.85900                
G14  20693805.37000 108746681.19700      -223.56300                
G15  24905370.15600 130878603.52600     -4061.17100                
G18  21936591.44700 115277566.11400      2554.91700                
G19  21621233.63200 113620349.60900     -2178.90800                
G22  23678884.63900 124433378.63600      2963.63600                
G23  20740160.69400 108990280.07000     -1184.67500                
G27  21285226.07600 111854617.98400      1910.77000                
G28  24156156.61700 126941459.80500     -3019.81600                
E01        22.14200       116.35700         0.00000                
E02        15.33800        80.60200         0.00000                
E03        15.33800        80.60200         0.00000                
E04        22.14200       116.35700         0.00000                
E05        15.33800        80.59900         0.00000                
E06        15.33800        80.59900         0.00000                
> 2025 04 22 14 00 36.0000000  0 16
G03  24455470.26600 128514363.64900      1643.04400                
G09  24285121.10400 127619172.76200      -426.50700                
G14  20693847.98100 108746905.12200      -224.28600                
G15  24906142.97000 130882664.69400     -4061.18700                
G18  21936105.28200 115275011.30100      2554.70000                
G19  21621648.29700 113622528.68700     -2179.25500                
G22  23678320.69500 124430415.08900      2963.44700                
G23  20740386.16500 108991464.93000     -1185.04700                
G27  21284862.52200 111852707.49900      1910.19600                
G28  24156731.30000 126944479.78500     -3020.15500                
E01        22.14200       116.35700         0.00000                
E02        15.33800        80.60200         0.00000                
E03        15.33800        80.60200         0.00000                
E04        22.14200       116.35700         0.00000                
E05        15.33800        80.59900         0.00000                
E06        15.33800        80.59900         0.00000                
> 2025 04 22 14 00 37.0000000  0 16
G03  24455157.65200 128512720.85200      1642.54600                
G09  24285202.32800 127619599.59400      -427.15500                
G14  20693890.73000 108747129.76900      -225.00800                
G15  24906915.78800 130886725.87900     -4061.20400                
G18  21935619.15900 115272456.70600      2554.48300                
G19  21622063.02700 113624708.11300     -2179.60200                
G22  23677756.78700 124427451.73100      2963.25900                
G23  20740611.70800 108992650.16300     -1185.42000                
G27  21284499.07800 111850797.58800      1909.62100                
G28  24157306.04700 126947500.10400     -3020.49400                
E01        22.14200       116.35700         0.00000                
E02        15.33800        80.60200         0.00000                
E03        15.33800        80.60200         0.00000                
E04        22.14200       116.35700         0.00000                
E05        15.33800        80.59900         0.00000                
E06        15.33800        80.59900         0.00000                
> 2025 04 22 14 00 38.0000000  0 16
G03  24454845.13300 128511078.55300      1642.04700                
G09  24285283.67400 127620027.07300      -427.80400                
G14  20693933.61600 108747355.13800      -225.73100                
G15  24907688.60900 130890787.08100     -4061.22000                
G18  21935133.07700 115269902.32700      2554.26600                
G19  21622477.82400 113626887.88500     -2179.94900                
G22  23677192.91400 124424488.56000      2963.07000                
G23  20740837.32100 108993835.76800     -1185.79200                
G27  21284135.74400 111848888.25200      1909.04600                
G28  24157880.85900 126950520.76200     -3020.83300                
E01        22.14200       116.35700         0.00000                
E02        15.33800        80.60200         0.00000                
E03        15.33800        80.60200         0.00000                
E04        22.14200       116.35700         0.00000                
E05        15.33800        80.59900         0.00000                
E06        15.33800        80.59900         0.00000                
> 2025 04 22 14 00 39.0000000  0 16
G03  24454532.70900 128509436.75400      1641.54800                
G09  24285365.14400 127620455.20100      -428.45200                
G14  20693976.64000 108747581.23000      -226.45300                
G15  24908461.43300 130894848.29900     -4061.23600                
G18  21934647.03600 115267348.16400      2554.05000                
G19  21622892.68700 113629068.00500     -2180.29600                
G22  23676629.07800 124421525.57900      2962.88200                
G23  20741063.00400 108995021.74400     -1186.16400                
G27  21283772.51900 111846979.49100      1908.47100                
G28  24158455.73600 126953541.75900     -3021.17200                
E01        22.14200       116.35700         0.00000                
E02        15.33800        80.60200         0.00000                
E03        15.33800        80.60200         0.00000                
E04        22.14200       116.35700         0.00000                
E05        15.33800        80.59900         0.00000                
E06        15.33800        80.59900         0.00000                
> 2025 04 22 14 00 40.0000000  0 16
G03  24454220.38000 128507795.45300      1641.05000                
G09  24285446.73800 127620883.97700      -429.10000                
G14  20694019.80200 108747808.04400      -227.17500                
G15  24909234.26000 130898909.53400     -4061.25300                
G18  21934161.03600 115264794.21900      2553.83300                
G19  21623307.61600 113631248.47200     -2180.64300                
G22  23676065.27700 124418562.78500      2962.69300                
G23  20741288.75900 108996208.09300     -1186.53600                
G27  21283409.40300 111845071.30500      1907.89700                
G28  24159030.67700 126956563.09400     -3021.51100                
E01        22.14200       116.35700         0.00000                
E02        15.33800        80.60200         0.00000                
E03        15.33800        80.60200         0.00000                
E04        22.14200       116.35700         0.00000                
E05        15.33800        80.59900         0.00000                
E06        15.33800        80.59900         0.00000                
> 2025 04 22 14 00 41.0000000  0 16
G03  24453908.14600 128506154.65100      1640.55100                
G09  24285528.45400 127621313.40100      -429.74800                
G14  20694063.10000 108748035.58100      -227.89800                
G15  24910007.09100 130902970.78400     -4061.26900                
G18  21933675.07800 115262240.49100      2553.61600                
G19  21623722.61100 113633429.28600     -2180.99000                
G22  23675501.51200 124415600.18100      2962.50500                
G23  20741514.58500 108997394.81400     -1186.90700                
G27  21283046.39700 111843163.69300      1907.32200                
G28  24159605.68200 126959584.76800     -3021.85000                
E01        22.14200       116.35700         0.00000                
E02        15.33800        80.60200         0.00000                
E03        15.33800        80.60200         0.00000                
E04        22.14200       116.35700         0.00000                
E05        15.33800        80.59900         0.00000                
E06        15.33800        80.59900         0.00000                
> 2025 04 22 14 00 42.0000000  0 16
G03  24453596.00700 128504514.34900      1640.05200                
G09  24285610.29400 127621743.47300      -430.39600                
G14  20694106.53700 108748263.84000      -228.62000                
G15  24910779.92400 130907032.05000     -4061.28500                
G18  21933189.16100 115259686.98000      2553.39900                
G19  21624137.67200 113635610.44600     -2181.33700                
G22  23674937.78300 124412637.76500      2962.31600                
G23  20741740.48100 108998581.90600     -1187.27900                
G27  21282683.50000 111841256.65700      1906.74700                
G28  24160180.75200 126962606.78100     -3022.18800                
E01        22.14200       116.35700         0.00000                
E02        15.33800        80.60200         0.00000                
E03        15.33800        80.60200         0.00000                
E04        22.14200       116.35700         0.00000                
E05        15.33800        80.59900         0.00000                
E06        15.33800        80.59900         0.00000                
> 2025 04 22 14 00 43.0000000  0 16
G03  24453283.96200 128502874.54500      1639.55300                
G09  24285692.25800 127622174.19300      -431.04400                
G14  20694150.11000 108748492.82100      -229.34300                
G15  24911552.76000 130911093.33200     -4061.30100                
G18  21932703.28500 115257133.68600      2553.18100                
G19  21624552.80000 113637791.95400     -2181.68400                
G22  23674374.09000 124409675.53800      2962.12800                
G23  20741966.44800 108999769.37100     -1187.65100                
G27  21282320.71200 111839350.19500      1906.17100                
G28  24160755.88700 126965629.13300     -3022.52700                
E01        22.14200       116.35700         0.00000                
E02        15.33800        80.60200         0.00000                
E03        15.33800        80.60200         0.00000                
E04        22.14200       116.35700         0.00000                
E05        15.33800        80.59900         0.00000                
E06        15.33800        80.59900         0.00000                
> 2025 04 22 14 00 44.0000000  0 16
G03  24452972.01300 128501235.24000      1639.05300                
G09  24285774.34400 127622605.56100      -431.69200                
G14  20694193.82100 108748722.52500      -230.06500                
G15  24912325.59900 130915154.63000     -4061.31600                
G18  21932217.45100 115254580.60900      2552.96400                
G19  21624967.99300 113639973.80900     -2182.03100                
G22  23673810.43300 124406713.49900      2961.93900                
G23  20742192.48500 109000957.20600     -1188.02300                
G27  21281958.03400 111837444.30900      1905.59600                
G28  24161331.08600 126968651.82300     -3022.86500                
E01        22.14200       116.35700         0.00000                
E02        15.33800        80.60200         0.00000                
E03        15.33800        80.60200         0.00000                
E04        22.14200       116.35700         0.00000                
E05        15.33800        80.59900         0.00000                
E06        15.33800        80.59900         0.00000                
> 2025 04 22 14 00 45.0000000  0 16
G03  24452660.15900 128499596.43500      1638.55400                
G09  24285856.55400 127623037.57800      -432.34000                
G14  20694237.67000 108748952.95100      -230.78700                
G15  24913098.44200 130919215.94400     -4061.33200                
G18  21931731.65800 115252027.74900      2552.74700                
G19  21625383.25200 113642156.01000     -2182.37800                
G22  23673246.81100 124403751.64900      2961.75000                
G23  20742418.59400 109002145.41400     -1188.39500                
G27  21281595.46500 111835538.99900      1905.02100                
G28  24161906.34900 126971674.85200     -3023.20300                
E01        22.14200       116.35700         0.00000                
E02        15.33800        80.60200         0.00000                
E03        15.33800        80.60200         0.00000                
E04        22.14200       116.35700         0.00000                
E05        15.33800        80.59900         0.00000                
E06        15.33800        80.59900         0.00000                
> 2025 04 22 14 00 46.0000000  0 16
G03  24452348.39900 128497958.12900      1638.05500                
G09  24285938.88800 127623470.24200      -432.98800                
G14  20694281.65600 108749184.10000      -231.51000                
G15  24913871.28700 130923277.27300     -4061.34800                
G18  21931245.90600 115249475.10700      2552.53000                
G19  21625798.57700 113644338.55900     -2182.72500                
G22  23672683.22600 124400789.98700      2961.56100                
G23  20742644.77300 109003333.99400     -1188.76600                
G27  21281233.00600 111833634.26300      1904.44600                
G28  24162481.67600 126974698.21900     -3023.54200                
E01        22.14200       116.35700         0.00000                
E02        15.33800        80.60200         0.00000                
E03        15.33800        80.60200         0.00000                
E04        22.14200       116.35700         0.00000                
E05        15.33800        80.59900         0.00000                
E06        15.33800        80.59900         0.00000                
> 2025 04 22 14 00 47.0000000  0 16
G03  24452036.73500 128496320.32200      1637.55500                
G09  24286021.34400 127623903.55400      -433.63600                
G14  20694325.78000 108749415.97000      -232.23200                
G15  24914644.13500 130927338.61800     -4061.36300                
G18  21930760.19600 115246922.68200      2552.31200                
G19  21626213.96800 113646521.45400     -2183.07200                
G22  23672119.67600 124397828.51500      2961.37300                
G23  20742871.02300 109004522.94500     -1189.13800                
G27  21280870.65700 111831730.10300      1903.87000                
G28  24163057.06800 126977721.92400     -3023.88000                
E01        22.14200       116.35700         0.00000                
E02        15.33800        80.60200         0.00000                
E03        15.33800        80.60200         0.00000                
E04        22.14200       116.35700         0.00000                
E05        15.33800        80.59900         0.00000                
E06        15.33800        80.59900         0.00000                
> 2025 04 22 14 00 48.0000000  0 16
G03  24451725.16600 128494683.01500      1637.05600                
G09  24286103.92400 127624337.51400      -434.28400                
G14  20694370.04100 108749648.56400      -232.95400                
G15  24915416.98700 130931399.97900     -4061.37900                
G18  21930274.52700 115244370.47400      2552.09500                
G19  21626629.42500 113648704.69600     -2183.41900                
G22  23671556.16300 124394867.23100      2961.18400                
G23  20743097.34300 109005712.26800     -1189.50900                
G27  21280508.41700 111829826.51800      1903.29500                
G28  24163632.52500 126980745.96700     -3024.21800                
E01        22.14200       116.35700         0.00000                
E02        15.33800        80.60200         0.00000                
E03        15.33800        80.60200         0.00000                
E04        22.14200       116.35700         0.00000                
E05        15.33800        80.59900         0.00000                
E06        15.33800        80.59900         0.00000                
> 2025 04 22 14 00 49.0000000  0 16
G03  24451413.69200 128493046.20800      1636.55600                
G09  24286186.62700 127624772.12200      -434.93200                
G14  20694414.43900 108749881.87900      -233.67700                
G15  24916189.84100 130935461.35400     -4061.39400                
G18  21929788.89900 115241818.48400      2551.87700                
G19  21627044.94900 113650888.28600     -2183.76600                
G22  23670992.68500 124391906.13600      2960.99500                
G23  20743323.73500 109006901.96200     -1189.88100                
G27  21280146.28600 111827923.50900      1902.71900                
G28  24164208.04500 126983770.34800     -3024.55600                
E01        22.14200       116.35700         0.00000                
E02        15.33800        80.60200         0.00000                
E03        15.33800        80.60200         0.00000                
E04        22.14200       116.35700         0.00000                
E05        15.33800        80.59900         0.00000                
E06        15.33800        80.59900         0.00000                
> 2025 04 22 14 00 50.0000000  0 16
G03  24451102.31300 128491409.90000      1636.05600                
G09  24286269.45400 127625207.37800      -435.58000                
G14  20694458.97500 108750115.91700      -234.39900                
G15  24916962.69800 130939522.74500     -4061.40900                
G18  21929303.31300 115239266.71100      2551.66000                
G19  21627460.53800 113653072.22200     -2184.11200                
G22  23670429.24300 124388945.23000      2960.80600                
G23  20743550.19700 109008092.02800     -1190.25200                
G27  21279784.26500 111826021.07500      1902.14400                
G28  24164783.63000 126986795.06700     -3024.89400                
E01        22.14200       116.35700         0.00000                
E02        15.33800        80.60200         0.00000                
E03        15.33800        80.60200         0.00000                
E04        22.14200       116.35700         0.00000                
E05        15.33800        80.59900         0.00000                
E06        15.33800        80.59900         0.00000                
> 2025 04 22 14 00 51.0000000  0 16
G03  24450791.02900 128489774.09200      1635.55600                
G09  24286352.40300 127625643.28100      -436.22800                
G14  20694503.64900 108750350.67800      -235.12200                
G15  24917735.55800 130943584.15200     -4061.42400                
G18  21928817.76800 115236715.15600      2551.44200                
G19  21627876.19300 113655256.50500     -2184.45900                
G22  23669865.83700 124385984.51200      2960.61700                
G23  20743776.72900 109009282.46500     -1190.62400                
G27  21279422.35300 111824119.21700      1901.56800                
G28  24165359.27900 126989820.12400     -3025.23100                
E01        22.14200       116.35700         0.00000                
E02        15.33800        80.60200         0.00000                
E03        15.33800        80.60200         0.00000                
E04        22.14200       116.35700         0.00000                
E05        15.33800        80.59900         0.00000                
E06        15.33800        80.59900         0.00000                
> 2025 04 22 14 00 52.0000000  0 16
G03  24450479.84000 128488138.78400      1635.05600                
G09  24286435.47600 127626079.83300      -436.87500                
G14  20694548.45900 108750586.16000      -235.84400                
G15  24918508.42100 130947645.57400     -4061.43900                
G18  21928332.26500 115234163.81900      2551.22500                
G19  21628291.91400 113657441.13400     -2184.80600                
G22  23669302.46800 124383023.98400      2960.42900                
G23  20744003.33300 109010473.27400     -1190.99500                
G27  21279060.55100 111822217.93400      1900.99200                
G28  24165934.99300 126992845.51800     -3025.56900                
E01        22.14200       116.35700         0.00000                
E02        15.33800        80.60200         0.00000                
E03        15.33800        80.60200         0.00000                
E04        22.14200       116.35700         0.00000                
E05        15.33800        80.59900         0.00000                
E06        15.33800        80.59900         0.00000                
> 2025 04 22 14 00 53.0000000  0 16
G03  24450168.74700 128486503.97600      1634.55600                
G09  24286518.67200 127626517.03200      -437.52300                
G14  20694593.40800 108750822.36500      -236.56600                
G15  24919281.28600 130951707.01000     -4061.45400                
G18  21927846.80300 115231612.69900      2551.00700                
G19  21628707.70100 113659626.11000     -2185.15300                
G22  23668739.13400 124380063.64400      2960.24000                
G23  20744230.00700 109011664.45400     -1191.36700                
G27  21278698.85900 111820317.22700      1900.41700                
G28  24166510.77000 126995871.25000     -3025.90700                
E01        22.14200       116.35700         0.00000                
E02        15.33800        80.60200         0.00000                
E03        15.33800        80.60200         0.00000                
E04        22.14200       116.35700         0.00000                
E05        15.33800        80.59900         0.00000                
E06        15.33800        80.59900         0.00000                
> 2025 04 22 14 00 54.0000000  0 16
G03  24449857.74800 128484869.66800      1634.05600                
G09  24286601.99200 127626954.87900      -438.17100                
G14  20694638.49400 108751059.29300      -237.28900                
G15  24920054.15500 130955768.46100     -4061.46900                
G18  21927361.38200 115229061.79700      2550.78900                
G19  21629123.55500 113661811.43400     -2185.50000                
G22  23668175.83600 124377103.49300      2960.05100                
G23  20744456.75100 109012856.00500     -1191.73800                
G27  21278337.27600 111818417.09700      1899.84100                
G28  24167086.61200 126998897.32000     -3026.24400                
E01        22.14200       116.35700         0.00000                
E02        15.33800        80.60200         0.00000                
E03        15.33800        80.60200         0.00000                
E04        22.14200       116.35700         0.00000                
E05        15.33800        80.59900         0.00000                
E06        15.33800        80.59900         0.00000                
> 2025 04 22 14 00 55.0000000  0 16
G03  24449546.84500 128483235.86000      1633.55600                
G09  24286685.43500 127627393.37300      -438.81800                
G14  20694683.71700 108751296.94300      -238.01100                
G15  24920827.02600 130959829.92700     -4061.48400                
G18  21926876.00300 115226511.11200      2550.57100                
G19  21629539.47400 113663997.10400     -2185.84600                
G22  23667612.57400 124374143.53100      2959.86200                
G23  20744683.56700 109014047.92800     -1192.10900                
G27  21277975.80200 111816517.54100      1899.26500                
G28  24167662.51800 127001923.72600     -3026.58100                
E01        22.14200       116.35700         0.00000                
E02        15.33800        80.60200         0.00000                
E03        15.33800        80.60200         0.00000                
E04        22.14200       116.35700         0.00000                
E05        15.33800        80.59900         0.00000                
E06        15.33800        80.59900         0.00000                
> 2025 04 22 14 00 56.0000000  0 16
G03  24449236.03700 128481602.55300      1633.05600                
G09  24286769.00100 127627832.51500      -439.46600                
G14  20694729.07800 108751535.31500      -238.73300                
G15  24921599.90000 130963891.40900     -4061.49900                
G18  21926390.66600 115223960.64600      2550.35300                
G19  21629955.45900 113666183.12100     -2186.19300                
G22  23667049.34800 124371183.75800      2959.67300                
G23  20744910.45300 109015240.22100     -1192.48000                
G27  21277614.43900 111814618.56200      1898.68900                
G28  24168238.48900 127004950.47100     -3026.91900                
E01        22.14200       116.35700         0.00000                
E02        15.33800        80.60200         0.00000                
E03        15.33800        80.60200         0.00000                
E04        22.14200       116.35700         0.00000                
E05        15.33800        80.59900         0.00000                
E06        15.33800        80.59900         0.00000                
> 2025 04 22 14 00 57.0000000  0 16
G03  24448925.32400 128479969.74500      1632.55500                
G09  24286852.69000 127628272.30400      -440.11300                
G14  20694774.57600 108751774.41000      -239.45600                
G15  24922372.77700 130967952.90500     -4061.51300                
G18  21925905.37000 115221410.39800      2550.13500                
G19  21630371.51000 113668369.48400     -2186.54000                
G22  23666486.15800 124368224.17400      2959.48400                
G23  20745137.40900 109016432.88600     -1192.85100                
G27  21277253.18500 111812720.15900      1898.11300                
G28  24168814.52300 127007977.55200     -3027.25600                
E01        22.14200       116.35700         0.00000                
E02        15.33800        80.60200         0.00000                
E03        15.33800        80.60200         0.00000                
E04        22.14200       116.35700         0.00000                
E05        15.33800        80.59900         0.00000                
E06        15.33800        80.59900         0.00000                
> 2025 04 22 14 00 58.0000000  0 16
G03  24448614.70600 128478337.43800      1632.05500                
G09  24286936.50200 127628712.74200      -440.76100                
G14  20694820.21100 108752014.22700      -240.17800                
G15  24923145.65700 130972014.41500     -4061.52800                
G18  21925420.11500 115218860.36700      2549.91700                
G19  21630787.62700 113670556.19400     -2186.88600                
G22  23665923.00400 124365264.78000      2959.29500                
G23  20745364.43600 109017625.92200     -1193.22200                
G27  21276892.04000 111810822.33200      1897.53700                
G28  24169390.62200 127011004.97100     -3027.59300                
E01        22.14200       116.35700         0.00000                
E02        15.33800        80.60200         0.00000                
E03        15.33800        80.60200         0.00000                
E04        22.14200       116.35700         0.00000                
E05        15.33800        80.59900         0.00000                
E06        15.33800        80.59900         0.00000                
> 2025 04 22 14 00 59.0000000  0 16
G03  24448304.18400 128476705.63200      1631.55400                
G09  24287020.43800 127629153.82600      -441.40800                
G14  20694865.98500 108752254.76600      -240.90100                
G15  24923918.53900 130976075.93900     -4061.54200                
G18  21924934.90200 115216310.55500      2549.69900                
G19  21631203.81000 113672743.25000     -2187.23300                
G22  23665359.88500 124362305.57500      2959.10600                
G23  20745591.53400 109018819.32900     -1193.59300                
G27  21276531.00500 111808925.08100      1896.96100                
G28  24169966.78400 127014032.72600     -3027.93000                
E01        22.14200       116.35700         0.00000                
E02        15.33800        80.60200         0.00000                
E03        15.33800        80.60200         0.00000                
E04        22.14200       116.35700         0.00000                
E05        15.33800        80.59900         0.00000                
E06        15.33800        80.59900         0.00000                
> 2025 04 22 14 01  0.0000000  0 16
G03  24447993.75700 128475074.32600      1631.05400                
G09  24287104.49700 127629595.55800      -442.05600                
G14  20694911.89500 108752496.02800      -241.62300                
G15  24924691.42400 130980137.47800     -4061.55700                
G18  21924449.73000 115213760.96000      2549.48100                
G19  21631620.05900 113674930.65400     -2187.58000                
G22  23664796.80300 124359346.55800      2958.91600                
G23  20745818.70300 109020013.10700     -1193.96400                
G27  21276170.08000 111807028.40600      1896.38400                
G28  24170543.01100 127017060.81800     -3028.26700                
E01        22.14200       116.35700         0.00000                
E02        15.33800        80.60200         0.00000                
E03        15.33800        80.60200         0.00000                
E04        22.14200       116.35700         0.00000                
E05        15.33800        80.59900         0.00000                
E06        15.33800        80.59900         0.00000                
> 2025 04 22 14 01  1.0000000  0 16
G03  24447683.42500 128473443.52200      1630.55300                
G09  24287188.67900 127630037.93800      -442.70300                
G14  20694957.94300 108752738.01200      -242.34500                
G15  24925464.31200 130984199.03200     -4061.57100                
G18  21923964.60000 115211211.58400      2549.26300                
G19  21632036.37400 113677118.40400     -2187.92600                
G22  23664233.75700 124356387.73100      2958.72700                
G23  20746045.94200 109021207.25600     -1194.33500                
G27  21275809.26500 111805132.30800      1895.80800                
G28  24171119.30200 127020089.24700     -3028.60300                
E01        22.14200       116.35700         0.00000                
E02        15.33800        80.60200         0.00000                
E03        15.33800        80.60200         0.00000                
E04        22.14200       116.35700         0.00000                
E05        15.33800        80.59900         0.00000                
E06        15.33800        80.59900         0.00000                
> 2025 04 22 14 01  2.0000000  0 16
G03  24447373.18800 128471813.21800      1630.05200                
G09  24287272.98400 127630480.96400      -443.35100                
G14  20695004.12900 108752980.71800      -243.06800                
G15  24926237.20300 130988260.60000     -4061.58500                
G18  21923479.51100 115208662.42600      2549.04500                
G19  21632452.75500 113679306.50100     -2188.27300                
G22  23663670.74700 124353429.09200      2958.53800                
G23  20746273.25100 109022401.77600     -1194.70600                
G27  21275448.55900 111803236.78600      1895.23200                
G28  24171695.65700 127023118.01300     -3028.94000                
E01        22.14200       116.35700         0.00000                
E02        15.33800        80.60200         0.00000                
E03        15.33800        80.60200         0.00000                
E04        22.14200       116.35700         0.00000                
E05        15.33800        80.59900         0.00000                
E06        15.33800        80.59900         0.00000                
> 2025 04 22 14 01  3.0000000  0 16
G03  24447063.04700 128470183.41400      1629.55100                
G09  24287357.41200 127630924.63900      -443.99800                
G14  20695050.45200 108753224.14700      -243.79000                
G15  24927010.09600 130992322.18100     -4061.59900                
G18  21922994.46400 115206113.48600      2548.82700                
G19  21632869.20200 113681494.94400     -2188.62000                
G22  23663107.77300 124350470.64300      2958.34900                
G23  20746500.63100 109023596.66700     -1195.07700                
G27  21275087.96300 111801341.84000      1894.65500                
G28  24172272.07600 127026147.11600     -3029.27700                
E01        22.14200       116.35700         0.00000                
E02        15.33800        80.60200         0.00000                
E03        15.33800        80.60200         0.00000                
E04        22.14200       116.35700         0.00000                
E05        15.33800        80.59900         0.00000                
E06        15.33800        80.59900         0.00000                
> 2025 04 22 14 01  4.0000000  0 16
G03  24446753.00100 128468554.11200      1629.05000                
G09  24287441.96400 127631368.96000      -444.64500                
G14  20695096.91200 108753468.29900      -244.51200                
G15  24927782.99200 130996383.77700     -4061.61300                
G18  21922509.45900 115203564.76500      2548.60800                
G19  21633285.71500 113683683.73400     -2188.96600                
G22  23662544.83500 124347512.38300      2958.16000                
G23  20746728.08200 109024791.92900     -1195.44800                
G27  21274727.47600 111799447.47100      1894.07900                
G28  24172848.55900 127029176.55500     -3029.61300                
E01        22.14200       116.35700         0.00000                
E02        15.33800        80.60200         0.00000                
E03        15.33800        80.60200         0.00000                
E04        22.14200       116.35700         0.00000                
E05        15.33800        80.59900         0.00000                
E06        15.33800        80.59900         0.00000                
> 2025 04 22 14 01  5.0000000  0 16
G03  24446443.05000 128466925.31100      1628.54900                
G09  24287526.63800 127631813.92900      -445.29300                
G14  20695143.51000 108753713.17200      -245.23500                
G15  24928555.89100 131000445.38600     -4061.62700                
G18  21922024.49400 115201016.26100      2548.39000                
G19  21633702.29400 113685872.87000     -2189.31300                
G22  23661981.93300 124344554.31300      2957.97000                
G23  20746955.60400 109025987.56200     -1195.81900                
G27  21274367.09900 111797553.67800      1893.50200                
G28  24173425.10600 127032206.33100     -3029.95000                
E01        22.14200       116.35700         0.00000                
E02        15.33800        80.60200         0.00000                
E03        15.33800        80.60200         0.00000                
E04        22.14200       116.35700         0.00000                
E05        15.33800        80.59900         0.00000                
E06        15.33800        80.59900         0.00000                
> 2025 04 22 14 01  6.0000000  0 16
G03  24446133.19500 128465297.01000      1628.04800                
G09  24287611.43600 127632259.54500      -445.94000                
G14  20695190.24500 108753958.76800      -245.95700                
G15  24929328.79200 131004507.00900     -4061.64100                
G18  21921539.57200 115198467.97700      2548.17100                
G19  21634118.93900 113688062.35300     -2189.65900                
G22  23661419.06700 124341596.43200      2957.78100                
G23  20747183.19500 109027183.56500     -1196.18900                
G27  21274006.83200 111795660.46200      1892.92500                
G28  24174001.71800 127035236.44300     -3030.28600                
E01        22.14200       116.35700         0.00000                
E02        15.33800        80.60200         0.00000                
E03        15.33800        80.60200         0.00000                
E04        22.14200       116.35700         0.00000                
E05        15.33800        80.59900         0.00000                
E06        15.33800        80.59900         0.00000                
> 2025 04 22 14 01  7.0000000  0 16
G03  24445823.43500 128463669.21200      1627.54700                
G09  24287696.35700 127632705.80800      -446.58700                
G14  20695237.11800 108754205.08700      -246.68000                
G15  24930101.69600 131008568.64700     -4061.65400                
G18  21921054.69100 115195919.91100      2547.95300                
G19  21634535.64900 113690252.18300     -2190.00600                
G22  23660856.23700 124338638.74000      2957.59200                
G23  20747410.85800 109028379.93900     -1196.56000                
G27  21273646.67500 111793767.82300      1892.34900                
G28  24174578.39300 127038266.89100     -3030.62200                
E01        22.14200       116.35700         0.00000                
E02        15.33800        80.60200         0.00000                
E03        15.33800        80.60200         0.00000                
E04        22.14200       116.35700         0.00000                
E05        15.33800        80.59900         0.00000                
E06        15.33800        80.59900         0.00000                
> 2025 04 22 14 01  8.0000000  0 16
G03  24445513.77100 128462041.91400      1627.04500                
G09  24287781.40200 127633152.71900      -447.23400                
G14  20695284.12800 108754452.12700      -247.40200                
G15  24930874.60200 131012630.29800     -4061.66800                
G18  21920569.85200 115193372.06300      2547.73400                
G19  21634952.42600 113692442.35800     -2190.35200                
G22  23660293.44300 124335681.23700      2957.40200                
G23  20747638.59100 109029576.68300     -1196.93100                
G27  21273286.62700 111791875.76000      1891.77200                
G28  24175155.13200 127041297.67500     -3030.95800                
E01        22.14200       116.35700         0.00000                
E02        15.33800        80.60200         0.00000                
E03        15.33800        80.60200         0.00000                
E04        22.14200       116.35700         0.00000                
E05        15.33800        80.59900         0.00000                
E06        15.33800        80.59900         0.00000                
> 2025 04 22 14 01  9.0000000  0 16
G03  24445204.20200 128460415.11800      1626.54400                
G09  24287866.56900 127633600.27600      -447.88100                
G14  20695331.27600 108754699.89100      -248.12400                
G15  24931647.51100 131016691.96200     -4061.68200                
G18  21920085.05400 115190824.43400      2547.51600                
G19  21635369.26800 113694632.88100     -2190.69900                
G22  23659730.68400 124332723.92400      2957.21300                
G23  20747866.39400 109030773.79800     -1197.30100                
G27  21272926.69000 111789984.27500      1891.19500                
G28  24175731.93500 127044328.79600     -3031.29400                
E01        22.14200       116.35700         0.00000                
E02        15.33800        80.60200         0.00000                
E03        15.33800        80.60200         0.00000                
E04        22.14200       116.35700         0.00000                
E05        15.33800        80.59900         0.00000                
E06        15.33800        80.59900         0.00000                
> 2025 04 22 14 01 10.0000000  0 16
G03  24444894.72800 128458788.82400      1626.04200                
G09  24287951.86000 127634048.48100      -448.52800                
G14  20695378.56100 108754948.37600      -248.84700                
G15  24932420.42300 131020753.64000     -4061.69500                
G18  21919600.29800 115188277.02300      2547.29700                
G19  21635786.17700 113696823.74900     -2191.04500                
G22  23659167.96300 124329766.80000      2957.02400                
G23  20748094.26800 109031971.28400     -1197.67200                
G27  21272566.86200 111788093.36600      1890.61800                
G28  24176308.80200 127047360.25200     -3031.63000                
E01        22.14200       116.35700         0.00000                
E02        15.33800        80.60200         0.00000                
E03        15.33800        80.60200         0.00000                
E04        22.14200       116.35700         0.00000                
E05        15.33800        80.59900         0.00000                
E06        15.33800        80.59900         0.00000                
> 2025 04 22 14 01 11.0000000  0 16
G03  24444585.35000 128457163.03100      1625.54000                
G09  24288037.27300 127634497.33300      -449.17500                
G14  20695425.98400 108755197.58400      -249.56900                
G15  24933193.33700 131024815.33100     -4061.70800                
G18  21919115.58400 115185729.83200      2547.07800                
G19  21636203.15100 113699014.96500     -2191.39100                
G22  23658605.27700 124326809.86500      2956.83400                
G23  20748322.21300 109033169.14100     -1198.04200                
G27  21272207.14300 111786203.03400      1890.04100                
G28  24176885.73300 127050392.04400     -3031.96600                
E01        22.14200       116.35700         0.00000                
E02        15.33800        80.60200         0.00000                
E03        15.33800        80.60200         0.00000                
E04        22.14200       116.35700         0.00000                
E05        15.33800        80.59900         0.00000                
E06        15.33800        80.59900         0.00000                
> 2025 04 22 14 01 12.0000000  0 16
G03  24444276.06800 128455537.73900      1625.03900                
G09  24288122.81000 127634946.83100      -449.82200                
G14  20695473.54400 108755447.51400      -250.29100                
G15  24933966.25400 131028877.03600     -4061.72200                
G18  21918630.91100 115183182.85900      2546.85900                
G19  21636620.19200 113701206.52700     -2191.73800                
G22  23658042.62700 124323853.12000      2956.64500                
G23  20748550.22800 109034367.36700     -1198.41300                
G27  21271847.53500 111784313.27900      1889.46400                
G28  24177462.72700 127053424.17200     -3032.30200                
E01        22.14200       116.35700         0.00000                
E02        15.33800        80.60200         0.00000                
E03        15.33800        80.60200         0.00000                
E04        22.14200       116.35700         0.00000                
E05        15.33800        80.59900         0.00000                
E06        15.33800        80.59900         0.00000                
> 2025 04 22 14 01 13.0000000  0 16
G03  24443966.88100 128453912.95000      1624.53700                
G09  24288208.47000 127635396.97700      -450.46900                
G14  20695521.24200 108755698.16700      -251.01400                
G15  24934739.17300 131032938.75400     -4061.73500                
G18  21918146.28000 115180636.10500      2546.64100                
G19  21637037.29800 113703398.43500     -2192.08400                
G22  23657480.01300 124320896.56500      2956.45500                
G23  20748778.31300 109035565.96400     -1198.78300                
G27  21271488.03600 111782424.10100      1888.88700                
G28  24178039.78600 127056456.63600     -3032.63700                
E01        22.14200       116.35700         0.00000                
E02        15.33800        80.60200         0.00000                
E03        15.33800        80.60200         0.00000                
E04        22.14200       116.35700         0.00000                
E05        15.33800        80.59900         0.00000                
E06        15.33800        80.59900         0.00000                
> 2025 04 22 14 01 14.0000000  0 16
G03  24443657.78900 128452288.66200      1624.03500                
G09  24288294.25300 127635847.77000      -451.11600                
G14  20695569.07700 108755949.54200      -251.73600                
G15  24935512.09500 131037000.48500     -4061.74800                
G18  21917661.69000 115178089.56900      2546.42200                
G19  21637454.47000 113705590.68900     -2192.43100                
G22  23656917.43500 124317940.20000      2956.26600                
G23  20749006.46900 109036764.93200     -1199.15400                
G27  21271128.64800 111780535.50000      1888.31000                
G28  24178616.90800 127059489.43400     -3032.97300                
E01        22.14200       116.35700         0.00000                
E02        15.33800        80.60200         0.00000                
E03        15.33800        80.60200         0.00000                
E04        22.14200       116.35700         0.00000                
E05        15.33800        80.59900         0.00000                
E06        15.33800        80.59900         0.00000                
> 2025 04 22 14 01 15.0000000  0 16
G03  24443348.79300 128450664.87600      1623.53300                
G09  24288380.15900 127636299.20900      -451.76300                
G14  20695617.05000 108756201.63900      -252.45900                
G15  24936285.01900 131041062.22900     -4061.76100                
G18  21917177.14200 115175543.25400      2546.20300                
G19  21637871.70800 113707783.29000     -2192.77700                
G22  23656354.89400 124314984.02300      2956.07600                
G23  20749234.69500 109037964.26900     -1199.52400                
G27  21270769.36900 111778647.47600      1887.73300                
G28  24179194.09500 127062522.56900     -3033.30800                
E01        22.14200       116.35700         0.00000                
E02        15.33800        80.60200         0.00000                
E03        15.33800        80.60200         0.00000                
E04        22.14200       116.35700         0.00000                
E05        15.33800        80.59900         0.00000                
E06        15.33800        80.59900         0.00000                
> 2025 04 22 14 01 16.0000000  0 16
G03  24443039.89200 128449041.59300      1623.03100                
G09  24288466.18800 127636751.29600      -452.41000                
G14  20695665.16000 108756454.45900      -253.18100                
G15  24937057.94500 131045123.98500     -4061.77400                
G18  21916692.63600 115172997.15600      2545.98400                
G19  21638289.01200 113709976.23700     -2193.12300                
G22  23655792.38800 124312028.03600      2955.88700                
G23  20749462.99200 109039163.97800     -1199.89400                
G27  21270410.20000 111776760.03000      1887.15500                
G28  24179771.34500 127065556.03900     -3033.64300                
E01        22.14200       116.35700         0.00000                
E02        15.33800        80.60200         0.00000                
E03        15.33800        80.60200         0.00000                
E04        22.14200       116.35700         0.00000                
E05        15.33800        80.59900         0.00000                
E06        15.33800        80.59900         0.00000                
> 2025 04 22 14 01 17.0000000  0 16
G03  24442731.08700 128447418.81200      1622.52900                
G09  24288552.34000 127637204.02900      -453.05700                
G14  20695713.40700 108756708.00100      -253.90300                
G15  24937830.87500 131049185.75600     -4061.78600                
G18  21916208.17200 115170451.27800      2545.76500                
G19  21638706.38200 113712169.53000     -2193.47000                
G22  23655229.91800 124309072.23900      2955.69700                
G23  20749691.35900 109040364.05600     -1200.26400                
G27  21270051.14000 111774873.16100      1886.57800                
G28  24180348.65900 127068589.84400     -3033.97900                
E01        22.14200       116.35700         0.00000                
E02        15.33800        80.60200         0.00000                
E03        15.33800        80.60200         0.00000                
E04        22.14200       116.35700         0.00000                
E05        15.33800        80.59900         0.00000                
E06        15.33800        80.59900         0.00000                
> 2025 04 22 14 01 18.0000000  0 16
G03  24442422.37800 128445796.53200      1622.02600                
G09  24288638.61600 127637657.40900      -453.70400                
G14  20695761.79200 108756962.26600      -254.62600                
G15  24938603.80600 131053247.53800     -4061.79900                
G18  21915723.74900 115167905.61900      2545.54500                
G19  21639123.81800 113714363.17000     -2193.81600                
G22  23654667.48500 124306116.63100      2955.50700                
G23  20749919.79700 109041564.50400     -1200.63400                
G27  21269692.19100 111772986.87000      1886.00100                
G28  24180926.03700 127071623.98500     -3034.31400                
E01        22.14200       116.35700         0.00000                
E02        15.33800        80.60200         0.00000                
E03        15.33800        80.60200         0.00000                
E04        22.14200       116.35700         0.00000                
E05        15.33800        80.59900         0.00000                
E06        15.33800        80.59900         0.00000                
> 2025 04 22 14 01 19.0000000  0 16
G03  24442113.76400 128444174.75500      1621.52400                
G09  24288725.01400 127638111.43600      -454.35000                
G14  20695810.31400 108757217.25200      -255.34800                
G15  24939376.74000 131057309.33300     -4061.81200                
G18  21915239.36800 115165360.17900      2545.32600                
G19  21639541.31900 113716557.15600     -2194.16200                
G22  23654105.08800 124303161.21300      2955.31800                
G23  20750148.30500 109042765.32300     -1201.00400                
G27  21269333.35200 111771101.15500      1885.42300                
G28  24181503.47800 127074658.46000     -3034.64900                
E01        22.14200       116.35700         0.00000                
E02        15.33800        80.60200         0.00000                
E03        15.33800        80.60200         0.00000                
E04        22.14200       116.35700         0.00000                
E05        15.33800        80.59900         0.00000                
E06        15.33800        80.59900         0.00000                
> 2025 04 22 14 01 20.0000000  0 16
G03  24441805.24600 128442553.48100      1621.02200                
G09  24288811.53600 127638566.10900      -454.99700                
G14  20695858.97400 108757472.96200      -256.07000                
G15  24940149.67600 131061371.14000     -4061.82400                
G18  21914755.02800 115162814.95900      2545.10700                
G19  21639958.88700 113718751.48900     -2194.50800                
G22  23653542.72600 124300205.98500      2955.12800                
G23  20750376.88400 109043966.51100     -1201.37500                
G27  21268974.62200 111769216.01900      1884.84600                
G28  24182080.98300 127077693.27100     -3034.98400                
E01        22.14200       116.35700         0.00000                
E02        15.33800        80.60200         0.00000                
E03        15.33800        80.60200         0.00000                
E04        22.14200       116.35700         0.00000                
E05        15.33800        80.59900         0.00000                
E06        15.33800        80.59900         0.00000                
> 2025 04 22 14 01 21.0000000  0 16
G03  24441496.82300 128440932.70900      1620.51900                
G09  24288898.18000 127639021.43000      -455.64400                
G14  20695907.77100 108757729.39300      -256.79300                
G15  24940922.61500 131065432.96000     -4061.83700                
G18  21914270.73100 115160269.95700      2544.88800                
G19  21640376.52000 113720946.16700     -2194.85500                
G22  23652980.40100 124297250.94600      2954.93800                
G23  20750605.53300 109045168.07000     -1201.74500                
G27  21268616.00200 111767331.46000      1884.26800                
G28  24182658.55200 127080728.41600     -3035.31900                
E01        22.14200       116.35700         0.00000                
E02        15.33800        80.60200         0.00000                
E03        15.33800        80.60200         0.00000                
E04        22.14200       116.35700         0.00000                
E05        15.33800        80.59900         0.00000                
E06        15.33800        80.59900         0.00000                
> 2025 04 22 14 01 22.0000000  0 16
G03  24441188.49600 128439312.44000      1620.01600                
G09  24288984.94800 127639477.39600      -456.29000                
G14  20695956.70600 108757986.54700      -257.51500                
G15  24941695.55600 131069494.79200     -4061.84900                
G18  21913786.47500 115157725.17500      2544.66800                
G19  21640794.22000 113723141.19200     -2195.20100                
G22  23652418.11200 124294296.09800      2954.74800                
G23  20750834.25200 109046369.99900     -1202.11400                
G27  21268257.49300 111765447.47900      1883.69000                
G28  24183236.18500 127083763.89700     -3035.65300                
E01        22.14200       116.35700         0.00000                
E02        15.33800        80.60200         0.00000                
E03        15.33800        80.60200         0.00000                
E04        22.14200       116.35700         0.00000                
E05        15.33800        80.59900         0.00000                
E06        15.33800        80.59900         0.00000                
> 2025 04 22 14 01 23.0000000  0 16
G03  24440880.26500 128437692.67300      1619.51400                
G09  24289071.83800 127639934.01000      -456.93700                
G14  20696005.77800 108758244.42400      -258.23800                
G15  24942468.49900 131073556.63800     -4061.86100                
G18  21913302.26000 115155180.61200      2544.44900                
G19  21641211.98500 113725336.56300     -2195.54700                
G22  23651855.85900 124291341.43900      2954.55900                
G23  20751063.04200 109047572.29700     -1202.48400                
G27  21267899.09300 111763564.07500      1883.11300                
G28  24183813.88100 127086799.71100     -3035.98800                
E01        22.14200       116.35700         0.00000                
E02        15.33800        80.60200         0.00000                
E03        15.33800        80.60200         0.00000                
E04        22.14200       116.35700         0.00000                
E05        15.33800        80.59900         0.00000                
E06        15.33800        80.59900         0.00000                
> 2025 04 22 14 01 24.0000000  0 16
G03  24440572.12900 128436073.40900      1619.01100                
G09  24289158.85200 127640391.27000      -457.58300                
G14  20696054.98800 108758503.02200      -258.96000                
G15  24943241.44500 131077618.49500     -4061.87300                
G18  21912818.08800 115152636.27000      2544.22900                
G19  21641629.81600 113727532.28000     -2195.89300                
G22  23651293.64300 124288386.97000      2954.36900                
G23  20751291.90200 109048774.96600     -1202.85400                
G27  21267540.80300 111761681.24900      1882.53500                
G28  24184391.64100 127089835.86100     -3036.32300                
E01        22.14200       116.35700         0.00000                
E02        15.33800        80.60200         0.00000                
E03        15.33800        80.60200         0.00000                
E04        22.14200       116.35700         0.00000                
E05        15.33800        80.59900         0.00000                
E06        15.33800        80.59900         0.00000                
> 2025 04 22 14 01 25.0000000  0 16
G03  24440264.08900 128434454.64800      1618.50800                
G09  24289245.98900 127640849.17700      -458.23000                
G14  20696104.33500 108758762.34300      -259.68200                
G15  24944014.39300 131081680.36400     -4061.88600                
G18  21912333.95800 115150092.14600      2544.01000                
G19  21642047.71300 113729728.34300     -2196.23900                
G22  23650731.46200 124285432.69000      2954.17900                
G23  20751520.83300 109049978.00400     -1203.22400                
G27  21267182.62300 111759799.00100      1881.95700                
G28  24184969.46500 127092872.34500     -3036.65700                
E01        22.14200       116.35700         0.00000                
E02        15.33800        80.60200         0.00000                
E03        15.33800        80.60200         0.00000                
E04        22.14200       116.35700         0.00000                
E05        15.33800        80.59900         0.00000                
E06        15.33800        80.59900         0.00000                
> 2025 04 22 14 01 26.0000000  0 16
G03  24439956.14500 128432836.39000      1618.00500                
G09  24289333.24900 127641307.73000      -458.87600                
G14  20696153.82000 108759022.38700      -260.40500                
G15  24944787.34300 131085742.24400     -4061.89800                
G18  21911849.86900 115147548.24200      2543.79000                
G19  21642465.67600 113731924.75300     -2196.58600                
G22  23650169.31700 124282478.60100      2953.98900                
G23  20751749.83400 109051181.41200     -1203.59400                
G27  21266824.55300 111757917.33100      1881.37900                
G28  24185547.35200 127095909.16300     -3036.99100                
E01        22.14200       116.35700         0.00000                
E02        15.33800        80.60200         0.00000                
E03        15.33800        80.60200         0.00000                
E04        22.14200       116.35700         0.00000                
E05        15.33800        80.59900         0.00000                
E06        15.33800        80.59900         0.00000                
> 2025 04 22 14 01 27.0000000  0 16
G03  24439648.29600 128431218.63500      1617.50200                
G09  24289420.63100 127641766.92900      -459.52300                
G14  20696203.44200 108759283.15200      -261.12700                
G15  24945560.29600 131089804.13700     -4061.90900                
G18  21911365.82200 115145004.55700      2543.57000                
G19  21642883.70400 113734121.50800     -2196.93200                
G22  23649607.20900 124279524.70100      2953.79900                
G23  20751978.90500 109052385.19000     -1203.96400                
G27  21266466.59300 111756036.23900      1880.80100                
G28  24186125.30300 127098946.31500     -3037.32600                
E01        22.14200       116.35700         0.00000                
E02        15.33800        80.60200         0.00000                
E03        15.33800        80.60200         0.00000                
E04        22.14200       116.35700         0.00000                
E05        15.33800        80.59900         0.00000                
E06        15.33800        80.59900         0.00000                
> 2025 04 22 14 01 28.0000000  0 16
G03  24439340.54300 128429601.38300      1616.99900                
G09  24289508.13700 127642226.77500      -460.16900                
G14  20696253.20200 108759544.64100      -261.84900                
G15  24946333.25100 131093866.04300     -4061.92100                
G18  21910881.81600 115142461.09300      2543.35100                
G19  21643301.79900 113736318.61000     -2197.27800                
G22  23649045.13700 124276570.99100      2953.60900                
G23  20752208.04700 109053589.33700     -1204.33300                
G27  21266108.74300 111754155.72500      1880.22300                
G28  24186703.31800 127101983.80200     -3037.66000                
E01        22.14200       116.35700         0.00000                
E02        15.33800        80.60200         0.00000                
E03        15.33800        80.60200         0.00000                
E04        22.14200       116.35700         0.00000                
E05        15.33800        80.59900         0.00000                
E06        15.33800        80.59900         0.00000                
> 2025 04 22 14 01 29.0000000  0 16
G03  24439032.88600 128427984.63400      1616.49500                
G09  24289595.76600 127642687.26800      -460.81600                
G14  20696303.09900 108759806.85100      -262.57200                
G15  24947106.20800 131097927.95900     -4061.93300                
G18  21910397.85300 115139917.84800      2543.13100                
G19  21643719.95900 113738516.05700     -2197.62400                
G22  23648483.10100 124273617.47200      2953.41900                
G23  20752437.25900 109054793.85500     -1204.70300                
G27  21265751.00300 111752275.78900      1879.64500                
G28  24187281.39600 127105021.62300     -3037.99400                
E01        22.14200       116.35700         0.00000                
E02        15.33800        80.60200         0.00000                
E03        15.33800        80.60200         0.00000                
E04        22.14200       116.35700         0.00000                
E05        15.33800        80.59900         0.00000                
E06        15.33800        80.59900         0.00000                
> 2025 04 22 14 01 30.0000000  0 16
G03  24438725.32500 128426368.38900      1615.99200                
G09  24289683.51800 127643148.40600      -461.46200                
G14  20696353.13300 108760069.78400      -263.29400                
G15  24947879.16700 131101989.88700     -4061.94400                
G18  21909913.93100 115137374.82300      2542.91100                
G19  21644138.18500 113740713.85100     -2197.97000                
G22  23647921.10100 124270664.14300      2953.22900                
G23  20752666.54100 109055998.74100     -1205.07200                
G27  21265393.37400 111750396.43100      1879.06600                
G28  24187859.53700 127108059.77800     -3038.32800                
E01        22.14200       116.35700         0.00000                
E02        15.33800        80.60200         0.00000                
E03        15.33800        80.60200         0.00000                
E04        22.14200       116.35700         0.00000                
E05        15.33800        80.59900         0.00000                
E06        15.33800        80.59900         0.00000                
> 2025 04 22 14 01 31.0000000  0 16
G03  24438417.85900 128424752.64700      1615.48900                
G09  24289771.39300 127643610.19100      -462.10800                
G14  20696403.30500 108760333.43900      -264.01600                
G15  24948652.12800 131106051.82700     -4061.95600                
G18  21909430.05200 115134832.01800      2542.69100                
G19  21644556.47800 113742911.99100     -2198.31600                
G22  23647359.13700 124267711.00300      2953.03900                
G23  20752895.89400 109057203.99800     -1205.44200                
G27  21265035.85400 111748517.65200      1878.48800                
G28  24188437.74300 127111098.26700     -3038.66200                
E01        22.14200       116.35700         0.00000                
E02        15.33800        80.60200         0.00000                
E03        15.33800        80.60200         0.00000                
E04        22.14200       116.35700         0.00000                
E05        15.33800        80.59900         0.00000                
E06        15.33800        80.59900         0.00000                
> 2025 04 22 14 01 32.0000000  0 16
G03  24438110.49000 128423137.40900      1614.98500                
G09  24289859.39000 127644072.62300      -462.75500                
G14  20696453.61400 108760597.81700      -264.73900                
G15  24949425.09200 131110113.77800     -4061.96700                
G18  21908946.21400 115132289.43200      2542.47100                
G19  21644974.83600 113745110.47700     -2198.66200                
G22  23646797.20900 124264758.05300      2952.84900                
G23  20753125.31700 109058409.62400     -1205.81100                
G27  21264678.44400 111746639.45100      1877.91000                
G28  24189016.01100 127114137.09000     -3038.99500                
E01        22.14200       116.35700         0.00000                
E02        15.33800        80.60200         0.00000                
E03        15.33800        80.60200         0.00000                
E04        22.14200       116.35700         0.00000                
E05        15.33800        80.59900         0.00000                
E06        15.33800        80.59900         0.00000                
> 2025 04 22 14 01 33.0000000  0 16
G03  24437803.21600 128421522.67400      1614.48100                
G09  24289947.51100 127644535.70000      -463.40100                
G14  20696504.06100 108760862.91700      -265.46100                
G15  24950198.05800 131114175.74200     -4061.97900                
G18  21908462.41800 115129747.06700      2542.25100                
G19  21645393.25900 113747309.30900     -2199.00800                
G22  23646235.31800 124261805.29300      2952.65900                
G23  20753354.81000 109059615.61900     -1206.18100                
G27  21264321.14400 111744761.82800      1877.33100                
G28  24189594.34400 127117176.24700     -3039.32900                
E01        22.14200       116.35700         0.00000                
E02        15.33800        80.60200         0.00000                
E03        15.33800        80.60200         0.00000                
E04        22.14200       116.35700         0.00000                
E05        15.33800        80.59900         0.00000                
E06        15.33800        80.59900         0.00000                
> 2025 04 22 14 01 34.0000000  0 16
G03  24437496.03800 128419908.44200      1613.97800                
G09  24290035.75500 127644999.42400      -464.04700                
G14  20696554.64500 108761128.73900      -266.18300                
G15  24950971.02600 131118237.71500     -4061.99000                
G18  21907978.66400 115127204.92200      2542.03100                
G19  21645811.74900 113749508.48700     -2199.35400                
G22  23645673.46300 124258852.72400      2952.46900                
G23  20753584.37400 109060821.98400     -1206.55000                
G27  21263963.95500 111742884.78400      1876.75300                
G28  24190172.73900 127120215.73700     -3039.66300                
E01        22.14200       116.35700         0.00000                
E02        15.33800        80.60200         0.00000                
E03        15.33800        80.60200         0.00000                
E04        22.14200       116.35700         0.00000                
E05        15.33800        80.59900         0.00000                
E06        15.33800        80.59900         0.00000                
> 2025 04 22 14 01 35.0000000  0 16
G03  24437188.95600 128418294.71500      1613.47400                
G09  24290124.12100 127645463.79400      -464.69300                
G14  20696605.36700 108761395.28300      -266.90600                
G15  24951743.99600 131122299.70000     -4062.00100                
G18  21907494.95100 115124662.99700      2541.81100                
G19  21646230.30400 113751708.01000     -2199.70000                
G22  23645111.64300 124255900.34400      2952.27900                
G23  20753814.00800 109062028.71800     -1206.92000                
G27  21263606.87500 111741008.31800      1876.17400                
G28  24190751.19900 127123255.56000     -3039.99600                
E01        22.14200       116.35700         0.00000                
E02        15.33800        80.60200         0.00000                
E03        15.33800        80.60200         0.00000                
E04        22.14200       116.35700         0.00000                
E05        15.33800        80.59900         0.00000                
E06        15.33800        80.59900         0.00000                
> 2025 04 22 14 01 36.0000000  0 16
G03  24436881.97000 128416681.49200      1612.97000                
G09  24290212.61100 127645928.81000      -465.33900                
G14  20696656.22600 108761662.55000      -267.62800                
G15  24952516.96800 131126361.69600     -4062.01200                
G18  21907011.28100 115122121.29100      2541.59100                
G19  21646648.92600 113753907.88000     -2200.04600                
G22  23644549.86100 124252948.15600      2952.08900                
G23  20754043.71200 109063235.82100     -1207.28900                
G27  21263249.90600 111739132.43100      1875.59600                
G28  24191329.72100 127126295.71700     -3040.33000                
E01        22.14200       116.35700         0.00000                
E02        15.33800        80.60200         0.00000                
E03        15.33800        80.60200         0.00000                
E04        22.14200       116.35700         0.00000                
E05        15.33800        80.59900         0.00000                
E06        15.33800        80.59900         0.00000                
> 2025 04 22 14 01 37.0000000  0 16
G03  24436575.07900 128415068.77200      1612.46600                
G09  24290301.22300 127646394.47200      -465.98500                
G14  20696707.22300 108761930.54000      -268.35000                
G15  24953289.94200 131130423.70300     -4062.02300                
G18  21906527.65200 115119579.80700      2541.37100                
G19  21647067.61300 113756108.09600     -2200.39200                
G22  23643988.11400 124249996.15700      2951.89800                
G23  20754273.48600 109064443.29400     -1207.65800                
G27  21262893.04600 111737257.12300      1875.01700                
G28  24191908.30700 127129336.20800     -3040.66300                
E01        22.14200       116.35700         0.00000                
E02        15.33800        80.60200         0.00000                
E03        15.33800        80.60200         0.00000                
E04        22.14200       116.35700         0.00000                
E05        15.33800        80.59900         0.00000                
E06        15.33800        80.59900         0.00000                
> 2025 04 22 14 01 38.0000000  0 16
G03  24436268.28500 128413456.55600      1611.96200                
G09  24290389.95900 127646860.78000      -466.63100                
G14  20696758.35700 108762199.25100      -269.07300                
G15  24954062.91800 131134485.72100     -4062.03400                
G18  21906044.06600 115117038.54200      2541.15000                
G19  21647486.36600 113758308.65800     -2200.73800                
G22  23643426.40300 124247044.34800      2951.70800                
G23  20754503.33100 109065651.13600     -1208.02700                
G27  21262536.29700 111735382.39300      1874.43800                
G28  24192486.95700 127132377.03100     -3040.99600                
E01        22.14200       116.35700         0.00000                
E02        15.33800        80.60200         0.00000                
E03        15.33800        80.60200         0.00000                
E04        22.14200       116.35700         0.00000                
E05        15.33800        80.59900         0.00000                
E06        15.33800        80.59900         0.00000                
> 2025 04 22 14 01 39.0000000  0 16
G03  24435961.58600 128411844.84500      1611.45800                
G09  24290478.81700 127647327.73400      -467.27700                
G14  20696809.62900 108762468.68500      -269.79500                
G15  24954835.89700 131138547.75100     -4062.04500                
G18  21905560.52100 115114497.49800      2540.93000                
G19  21647905.18500 113760509.56500     -2201.08300                
G22  23642864.72900 124244092.72900      2951.51800                
G23  20754733.24600 109066859.34700     -1208.39700                
G27  21262179.65800 111733508.24200      1873.85900                
G28  24193065.67000 127135418.18800     -3041.32900                
E01        22.14200       116.35700         0.00000                
E02        15.33800        80.60200         0.00000                
E03        15.33800        80.60200         0.00000                
E04        22.14200       116.35700         0.00000                
E05        15.33800        80.59900         0.00000                
E06        15.33800        80.59900         0.00000                
> 2025 04 22 14 01 40.0000000  0 16
G03  24435654.98400 128410233.63800      1610.95400                
G09  24290567.79900 127647795.33400      -467.92300                
G14  20696861.03800 108762738.84200      -270.51800                
G15  24955608.87700 131142609.79100     -4062.05600                
G18  21905077.01900 115111956.67400      2540.71000                
G19  21648324.06900 113762710.81800     -2201.42900                
G22  23642303.09100 124241141.30100      2951.32800                
G23  20754963.23100 109068067.92700     -1208.76600                
G27  21261823.12900 111731634.67000      1873.28100                
G28  24193644.44600 127138459.67800     -3041.66200                
E01        22.14200       116.35700         0.00000                
E02        15.33800        80.60200         0.00000                
E03        15.33800        80.60200         0.00000                
E04        22.14200       116.35700         0.00000                
E05        15.33800        80.59900         0.00000                
E06        15.33800        80.59900         0.00000                
> 2025 04 22 14 01 41.0000000  0 16
G03  24435348.47700 128408622.93400      1610.44900                
G09  24290656.90300 127648263.58000      -468.56900                
G14  20696912.58400 108763009.72000      -271.24000                
G15  24956381.86000 131146671.84100     -4062.06600                
G18  21904593.55800 115109416.07100      2540.48900                
G19  21648743.01900 113764912.41700     -2201.77500                
G22  23641741.48900 124238190.06300      2951.13700                
G23  20755193.28600 109069276.87600     -1209.13500                
G27  21261466.71000 111729761.67600      1872.70200                
G28  24194223.28600 127141501.50000     -3041.99500                
E01        22.14200       116.35700         0.00000                
E02        15.33800        80.60200         0.00000                
E03        15.33800        80.60200         0.00000                
E04        22.14200       116.35700         0.00000                
E05        15.33800        80.59900         0.00000                
E06        15.33800        80.59900         0.00000                
> 2025 04 22 14 01 42.0000000  0 16
G03  24435042.06700 128407012.73600      1609.94500                
G09  24290746.13000 127648732.47200      -469.21500                
G14  20696964.26800 108763281.32100      -271.96200                
G15  24957154.84400 131150733.90200     -4062.07700                
G18  21904110.13900 115106875.68800      2540.26800                
G19  21649162.03600 113767114.36200     -2202.12100                
G22  23641179.92300 124235239.01500      2950.94700                
G23  20755423.41200 109070486.19500     -1209.50400                
G27  21261110.40200 111727889.26200      1872.12300                
G28  24194802.18900 127144543.65600     -3042.32800                
E01        22.14200       116.35700         0.00000                
E02        15.33800        80.60200         0.00000                
E03        15.33800        80.60200         0.00000                
E04        22.14200       116.35700         0.00000                
E05        15.33800        80.59900         0.00000                
E06        15.33800        80.59900         0.00000                
> 2025 04 22 14 01 43.0000000  0 16
G03  24434735.75200 128405403.04200      1609.44000                
G09  24290835.48000 127649202.01000      -469.86100                
G14  20697016.09000 108763553.64400      -272.68500                
G15  24957927.83100 131154795.97300     -4062.08700                
G18  21903626.76200 115104335.52600      2540.04800                
G19  21649581.11800 113769316.65300     -2202.46700                
G22  23640618.39400 124232288.15900      2950.75700                
G23  20755653.60800 109071695.88200     -1209.87300                
G27  21260754.20300 111726017.42700      1871.54400                
G28  24195381.15500 127147586.14500     -3042.66100                
E01        22.14200       116.35700         0.00000                
E02        15.33800        80.60200         0.00000                
E03        15.33800        80.60200         0.00000                
E04        22.14200       116.35700         0.00000                
E05        15.33800        80.59900         0.00000                
E06        15.33800        80.59900         0.00000                
> 2025 04 22 14 01 44.0000000  0 16
G03  24434429.53300 128403793.85200      1608.93600                
G09  24290924.95300 127649672.19300      -470.50700                
G14  20697068.04800 108763826.69000      -273.40700                
G15  24958700.81900 131158858.05600     -4062.09700                
G18  21903143.42700 115101795.58400      2539.82700                
G19  21650000.26500 113771519.28900     -2202.81200                
G22  23640056.90100 124229337.49200      2950.56600                
G23  20755883.87400 109072905.93800     -1210.24200                
G27  21260398.11500 111724146.17100      1870.96400                
G28  24195960.18400 127150628.96600     -3042.99300                
E01        22.14200       116.35700         0.00000                
E02        15.33800        80.60200         0.00000                
E03        15.33800        80.60200         0.00000                
E04        22.14200       116.35700         0.00000                
E05        15.33800        80.59900         0.00000                
E06        15.33800        80.59900         0.00000                
> 2025 04 22 14 01 45.0000000  0 16
G03  24434123.41100 128402185.16700      1608.43100                
G09  24291014.54900 127650143.02300      -471.15200                
G14  20697120.14500 108764100.45800      -274.12900                
G15  24959473.81000 131162920.14800     -4062.10800                
G18  21902660.13500 115099255.86300      2539.60700                
G19  21650419.47900 113773722.27200     -2203.15800                
G22  23639495.44400 124226387.01500      2950.37600                
G23  20756114.21000 109074116.36400     -1210.61000                
G27  21260042.13700 111722275.49400      1870.38500                
G28  24196539.27700 127153672.11900     -3043.32600                
E01        22.14200       116.35700         0.00000                
E02        15.33800        80.60200         0.00000                
E03        15.33800        80.60200         0.00000                
E04        22.14200       116.35700         0.00000                
E05        15.33800        80.59900         0.00000                
E06        15.33800        80.59900         0.00000                
> 2025 04 22 14 01 46.0000000  0 16
G03  24433817.38400 128400576.98700      1607.92600                
G09  24291104.26800 127650614.49800      -471.79800                
G14  20697172.37900 108764374.94800      -274.85200                
G15  24960246.80200 131166982.25000     -4062.11800                
G18  21902176.88400 115096716.36300      2539.38600                
G19  21650838.75800 113775925.60000     -2203.50400                
G22  23638934.02300 124223436.72900      2950.18500                
G23  20756344.61600 109075327.15800     -1210.97900                
G27  21259686.26900 111720405.39600      1869.80600                
G28  24197118.43400 127156715.60500     -3043.65800                
E01        22.14200       116.35700         0.00000                
E02        15.33800        80.60200         0.00000                
E03        15.33800        80.60200         0.00000                
E04        22.14200       116.35700         0.00000                
E05        15.33800        80.59900         0.00000                
E06        15.33800        80.59900         0.00000                
> 2025 04 22 14 01 47.0000000  0 16
G03  24433511.45400 128398969.31200      1607.42100                
G09  24291194.10900 127651086.61900      -472.44400                
G14  20697224.75000 108764650.16100      -275.57400                
G15  24961019.79600 131171044.36200     -4062.12800                
G18  21901693.67500 115094177.08400      2539.16500                
G19  21651258.10400 113778129.27400     -2203.85000                
G22  23638372.63800 124220486.63400      2949.99500                
G23  20756575.09300 109076538.32000     -1211.34800                
G27  21259330.51200 111718535.87700      1869.22700                
G28  24197697.65300 127159759.42400     -3043.99000                
E01        22.14200       116.35700         0.00000                
E02        15.33800        80.60200         0.00000                
E03        15.33800        80.60200         0.00000                
E04        22.14200       116.35700         0.00000                
E05        15.33800        80.59900         0.00000                
E06        15.33800        80.59900         0.00000                
> 2025 04 22 14 01 48.0000000  0 16
G03  24433205.61900 128397362.14100      1606.91600                
G09  24291284.07400 127651559.38500      -473.08900                
G14  20697277.25800 108764926.09600      -276.29600                
G15  24961792.79300 131175106.48400     -4062.13800                
G18  21901210.50800 115091638.02500      2538.94400                
G19  21651677.51500 113780333.29300     -2204.19500                
G22  23637811.29000 124217536.72800      2949.80400                
G23  20756805.64000 109077749.85200     -1211.71700                
G27  21258974.86400 111716666.93800      1868.64700                
G28  24198276.93500 127162803.57400     -3044.32300                
E01        22.14200       116.35700         0.00000                
E02        15.33800        80.60200         0.00000                
E03        15.33800        80.60200         0.00000                
E04        22.14200       116.35700         0.00000                
E05        15.33800        80.59900         0.00000                
E06        15.33800        80.59900         0.00000                
> 2025 04 22 14 01 49.0000000  0 16
G03  24432899.88100 128395755.47600      1606.41100                
G09  24291374.16100 127652032.79700      -473.73500                
G14  20697329.90500 108765202.75300      -277.01800                
G15  24962565.79100 131179168.61700     -4062.14800                
G18  21900727.38300 115089099.18700      2538.72300                
G19  21652096.99100 113782537.65800     -2204.54100                
G22  23637249.97800 124214587.01400      2949.61400                
G23  20757036.25700 109078961.75200     -1212.08600                
G27  21258619.32700 111714798.57900      1868.06800                
G28  24198856.28100 127165848.05700     -3044.65500                
E01        22.14200       116.35700         0.00000                
E02        15.33800        80.60200         0.00000                
E03        15.33800        80.60200         0.00000                
E04        22.14200       116.35700         0.00000                
E05        15.33800        80.59900         0.00000                
E06        15.33800        80.59900         0.00000                
> 2025 04 22 14 01 50.0000000  0 16
G03  24432594.23900 128394149.31600      1605.90600                
G09  24291464.37100 127652506.85500      -474.38100                
G14  20697382.68800 108765480.13300      -277.74100                
G15  24963338.79100 131183230.76000     -4062.15800                
G18  21900244.30100 115086560.57100      2538.50200                
G19  21652516.53400 113784742.36900     -2204.88700                
G22  23636688.70200 124211637.49100      2949.42300                
G23  20757266.94400 109080174.02100     -1212.45400                
G27  21258263.90100 111712930.79800      1867.48800                
G28  24199435.69000 127168892.87200     -3044.98700                
E01        22.14200       116.35700         0.00000                
E02        15.33800        80.60200         0.00000                
E03        15.33800        80.60200         0.00000                
E04        22.14200       116.35700         0.00000                
E05        15.33800        80.59900         0.00000                
E06        15.33800        80.59900         0.00000                
> 2025 04 22 14 01 51.0000000  0 16
G03  24432288.69300 128392543.66100      1605.40100                
G09  24291554.70400 127652981.55800      -475.02600                
G14  20697435.60900 108765758.23500      -278.46300                
G15  24964111.79300 131187292.91100     -4062.16700                
G18  21899761.26000 115084022.17500      2538.28100                
G19  21652936.14200 113786947.42500     -2205.23200                
G22  23636127.46300 124208688.15700      2949.23200                
G23  20757497.70100 109081386.65900     -1212.82300                
G27  21257908.58400 111711063.59800      1866.90900                
G28  24200015.16300 127171938.01900     -3045.31900                
E01        22.14200       116.35700         0.00000                
E02        15.33800        80.60200         0.00000                
E03        15.33800        80.60200         0.00000                
E04        22.14200       116.35700         0.00000                
E05        15.33800        80.59900         0.00000                
E06        15.33800        80.59900         0.00000                
> 2025 04 22 14 01 52.0000000  0 16
G03  24431983.24300 128390938.51100      1604.89600                
G09  24291645.16000 127653456.90700      -475.67200                
G14  20697488.66800 108766037.05900      -279.18500                
G15  24964884.79600 131191355.07300     -4062.17700                
G18  21899278.26100 115081484.00000      2538.06000                
G19  21653355.81600 113789152.82700     -2205.57800                
G22  23635566.26000 124205739.01400      2949.04200                
G23  20757728.52900 109082599.66500     -1213.19100                
G27  21257553.37800 111709196.97700      1866.32900                
G28  24200594.69800 127174983.49800     -3045.65100                
E01        22.14200       116.35700         0.00000                
E02        15.33800        80.60200         0.00000                
E03        15.33800        80.60200         0.00000                
E04        22.14200       116.35700         0.00000                
E05        15.33800        80.59900         0.00000                
E06        15.33800        80.59900         0.00000                
> 2025 04 22 14 01 53.0000000  0 16
G03  24431677.89000 128389333.86600      1604.39000                
G09  24291735.73900 127653932.90100      -476.31700                
G14  20697541.86400 108766316.60600      -279.90800                
G15  24965657.80200 131195417.24400     -4062.18600                
G18  21898795.30500 115078946.04600      2537.83900                
G19  21653775.55600 113791358.57600     -2205.92400                
G22  23635005.09300 124202790.06200      2948.85100                
G23  20757959.42600 109083813.04000     -1213.56000                
G27  21257198.28200 111707330.93500      1865.74900                
G28  24201174.29600 127178029.30900     -3045.98200                
E01        22.14200       116.35700         0.00000                
E02        15.33800        80.60200         0.00000                
E03        15.33800        80.60200         0.00000                
E04        22.14200       116.35700         0.00000                
E05        15.33800        80.59900         0.00000                
E06        15.33800        80.59900         0.00000                
> 2025 04 22 14 01 54.0000000  0 16
G03  24431372.63200 128387729.72800      1603.88500                
G09  24291826.44000 127654409.54100      -476.96300                
G14  20697595.19700 108766596.87500      -280.63000                
G15  24966430.80900 131199479.42400     -4062.19600                
G18  21898312.39100 115076408.31500      2537.61800                
G19  21654195.36200 113793564.66900     -2206.26900                
G22  23634443.96200 124199841.30100      2948.66000                
G23  20758190.39400 109085026.78300     -1213.92800                
G27  21256843.29700 111705465.47400      1865.16900                
G28  24201753.95800 127181075.45100     -3046.31400                
E01        22.14200       116.35700         0.00000                
E02        15.33800        80.60200         0.00000                
E03        15.33800        80.60200         0.00000                
E04        22.14200       116.35700         0.00000                
E05        15.33800        80.59900         0.00000                
E06        15.33800        80.59900         0.00000                
> 2025 04 22 14 01 55.0000000  0 16
G03  24431067.47100 128386126.09400      1603.37900                
G09  24291917.26500 127654886.82600      -477.60800                
G14  20697648.66800 108766877.86600      -281.35200                
G15  24967203.81800 131203541.61500     -4062.20500                
G18  21897829.51800 115073870.80300      2537.39600                
G19  21654615.23300 113795771.10800     -2206.61500                
G22  23633882.86800 124196892.73000      2948.47000                
G23  20758421.43100 109086240.89400     -1214.29700                
G27  21256488.42100 111703600.59200      1864.59000                
G28  24202333.68300 127184121.92500     -3046.64600                
E01        22.14200       116.35700         0.00000                
E02        15.33800        80.60200         0.00000                
E03        15.33800        80.60200         0.00000                
E04        22.14200       116.35700         0.00000                
E05        15.33800        80.59900         0.00000                
E06        15.33800        80.59900         0.00000                
> 2025 04 22 14 01 56.0000000  0 16
G03  24430762.40600 128384522.96600      1602.87300                
G09  24292008.21200 127655364.75700      -478.25300                
G14  20697702.27600 108767159.58000      -282.07500                
G15  24967976.82900 131207603.81400     -4062.21400                
G18  21897346.68800 115071333.51400      2537.17500                
G19  21655035.17000 113797977.89200     -2206.96000                
G22  23633321.81000 124193944.35000      2948.27900                
G23  20758652.53900 109087455.37400     -1214.66500                
G27  21256133.65700 111701736.29000      1864.01000                
G28  24202913.47100 127187168.73000     -3046.97700                
E01        22.14200       116.35700         0.00000                
E02        15.33800        80.60200         0.00000                
E03        15.33800        80.60200         0.00000                
E04        22.14200       116.35700         0.00000                
E05        15.33800        80.59900         0.00000                
E06        15.33800        80.59900         0.00000                
> 2025 04 22 14 01 57.0000000  0 16
G03  24430457.43700 128382920.34400      1602.36800                
G09  24292099.28200 127655843.33200      -478.89900                
G14  20697756.02200 108767442.01500      -282.79700                
G15  24968749.84100 131211666.02300     -4062.22400                
G18  21896863.90000 115068796.44500      2536.95400                
G19  21655455.17300 113800185.02200     -2207.30600                
G22  23632760.78800 124190996.16200      2948.08800                
G23  20758883.71700 109088670.22200     -1215.03300                
G27  21255779.00200 111699872.56800      1863.43000                
G28  24203493.32100 127190215.86700     -3047.30800                
E01        22.14200       116.35700         0.00000                
E02        15.33800        80.60200         0.00000                
E03        15.33800        80.60200         0.00000                
E04        22.14200       116.35700         0.00000                
E05        15.33800        80.59900         0.00000                
E06        15.33800        80.59900         0.00000                
> 2025 04 22 14 01 58.0000000  0 16
G03  24430152.56400 128381318.22800      1601.86200                
G09  24292190.47500 127656322.55300      -479.54400                
G14  20697809.90500 108767725.17400      -283.51900                
G15  24969522.85600 131215728.24000     -4062.23300                
G18  21896381.15400 115066259.59900      2536.73200                
G19  21655875.24200 113802392.49700     -2207.65100                
G22  23632199.80300 124188048.16300      2947.89700                
G23  20759114.96500 109089885.43900     -1215.40200                
G27  21255424.45800 111698009.42600      1862.85000                
G28  24204073.23500 127193263.33500     -3047.64000                
E01        22.14200       116.35700         0.00000                
E02        15.33800        80.60200         0.00000                
E03        15.33800        80.60200         0.00000                
E04        22.14200       116.35700         0.00000                
E05        15.33800        80.59900         0.00000                
E06        15.33800        80.59900         0.00000                
> 2025 04 22 14 01 59.0000000  0 16
G03  24429847.78800 128379716.61800      1601.35600                
G09  24292281.79000 127656802.42000      -480.18900                
G14  20697863.92600 108768009.05400      -284.24200                
G15  24970295.87200 131219790.46700     -4062.24200                
G18  21895898.45000 115063722.97300      2536.51100                
G19  21656295.37600 113804600.31800     -2207.99700                
G22  23631638.85400 124185100.35600      2947.70700                
G23  20759346.28300 109091101.02300     -1215.77000                
G27  21255070.02400 111696146.86400      1862.27000                
G28  24204653.21200 127196311.13400     -3047.97100                
E01        22.14200       116.35700         0.00000                
E02        15.33800        80.60200         0.00000                
E03        15.33800        80.60200         0.00000                
E04        22.14200       116.35700         0.00000                
E05        15.33800        80.59900         0.00000                
E06        15.33800        80.59900         0.00000                
> 2025 04 22 14 02  0.0000000  0 16
G03  24429543.10800 128378115.51300      1600.85000                
G09  24292373.22800 127657282.93100      -480.83400                
G14  20697918.08400 108768293.65700      -284.96400                
G15  24971068.89000 131223852.70300     -4062.25000                
G18  21895415.78900 115061186.56900      2536.28900                
G19  21656715.57600 113806808.48400     -2208.34200                
G22  23631077.94100 124182152.73900      2947.51600                
G23  20759577.67100 109092316.97600     -1216.13800                
G27  21254715.70100 111694284.88300      1861.68900                
G28  24205233.25200 127199359.26500     -3048.30200                
E01        22.14200       116.35700         0.00000                
E02        15.33800        80.60200         0.00000                
E03        15.33800        80.60200         0.00000                
E04        22.14200       116.35700         0.00000                
E05        15.33800        80.59900         0.00000                
E06        15.33800        80.59900         0.00000                
> 2025 04 22 14 02  1.0000000  0 16
G03  24429238.52400 128376514.91500      1600.34400                
G09  24292464.79000 127657764.08800      -481.47900                
G14  20697972.38000 108768578.98200      -285.68600                
G15  24971841.90900 131227914.94700     -4062.25900                
G18  21894933.16900 115058650.38700      2536.06700                
G19  21657135.84200 113809016.99600     -2208.68800                
G22  23630517.06400 124179205.31300      2947.32500                
G23  20759809.13000 109093533.29700     -1216.50600                
G27  21254361.48800 111692423.48100      1861.10900                
G28  24205813.35500 127202407.72600     -3048.63300                
E01        22.14200       116.35700         0.00000                
E02        15.33800        80.60200         0.00000                
E03        15.33800        80.60200         0.00000                
E04        22.14200       116.35700         0.00000                
E05        15.33800        80.59900         0.00000                
E06        15.33800        80.59900         0.00000                
> 2025 04 22 14 02  2.0000000  0 16
G03  24428934.03700 128374914.82300      1599.83700                
G09  24292556.47300 127658245.89000      -482.12400                
G14  20698026.81300 108768865.02900      -286.40900                
G15  24972614.93000 131231977.20000     -4062.26800                
G18  21894450.59200 115056114.42700      2535.84600                
G19  21657556.17300 113811225.85400     -2209.03300                
G22  23629956.22400 124176258.07800      2947.13400                
G23  20760040.65800 109094749.98700     -1216.87400                
G27  21254007.38600 111690562.66000      1860.52900                
G28  24206393.52100 127205456.51900     -3048.96400                
E01        22.14200       116.35700         0.00000                
E02        15.33800        80.60200         0.00000                
E03        15.33800        80.60200         0.00000                
E04        22.14200       116.35700         0.00000                
E05        15.33800        80.59900         0.00000                
E06        15.33800        80.59900         0.00000                
> 2025 04 22 14 02  3.0000000  0 16
G03  24428629.64600 128373315.23700      1599.33100                
G09  24292648.28000 127658728.33700      -482.77000                
G14  20698081.38300 108769151.79900      -287.13100                
G15  24973387.95300 131236039.46200     -4062.27700                
G18  21893968.05700 115053578.68800      2535.62400                
G19  21657976.57100 113813435.05600     -2209.37800                
G22  23629395.42000 124173311.03500      2946.94300                
G23  20760272.25600 109095967.04300     -1217.24200                
G27  21253653.39300 111688702.41900      1859.94800                
G28  24206973.75000 127208505.64200     -3049.29400                
E01        22.14200       116.35700         0.00000                
E02        15.33800        80.60200         0.00000                
E03        15.33800        80.60200         0.00000                
E04        22.14200       116.35700         0.00000                
E05        15.33800        80.59900         0.00000                
E06        15.33800        80.59900         0.00000                
> 2025 04 22 14 02  4.0000000  0 16
G03  24428325.35100 128371716.15800      1598.82500                
G09  24292740.20900 127659211.42900      -483.41500                
G14  20698136.09100 108769439.29100      -287.85300                
G15  24974160.97700 131240101.73200     -4062.28500                
G18  21893485.56400 115051043.17000      2535.40200                
G19  21658397.03400 113815644.60400     -2209.72400                
G22  23628834.65300 124170364.18200      2946.75200                
G23  20760503.92500 109097184.46900     -1217.61000                
G27  21253299.51200 111686842.75900      1859.36800                
G28  24207554.04200 127211555.09600     -3049.62500                
E01        22.14200       116.35700         0.00000                
E02        15.33800        80.60200         0.00000                
E03        15.33800        80.60200         0.00000                
E04        22.14200       116.35700         0.00000                
E05        15.33800        80.59900         0.00000                
E06        15.33800        80.59900         0.00000                
> 2025 04 22 14 02  5.0000000  0 16
G03  24428021.15300 128370117.58500      1598.31800                
G09  24292832.26100 127659695.16500      -484.06000                
G14  20698190.93600 108769727.50500      -288.57500                
G15  24974934.00300 131244164.01100     -4062.29400                
G18  21893003.11300 115048507.87500      2535.18000                
G19  21658817.56200 113817854.49700     -2210.06900                
G22  23628273.92200 124167417.52000      2946.56100                
G23  20760735.66300 109098402.26200     -1217.97800                
G27  21252945.74100 111684983.67900      1858.78800                
G28  24208134.39600 127214604.88100     -3049.95600                
E01        22.14200       116.35700         0.00000                
E02        15.33800        80.60200         0.00000                
E03        15.33800        80.60200         0.00000                
E04        22.14200       116.35700         0.00000                
E05        15.33800        80.59900         0.00000                
E06        15.33800        80.59900         0.00000                
> 2025 04 22 14 02  6.0000000  0 16
G03  24427717.05100 128368519.51900      1597.81200                
G09  24292924.43600 127660179.54700      -484.70500                
G14  20698245.91900 108770016.44100      -289.29800                
G15  24975707.03100 131248226.29900     -4062.30200                
G18  21892520.70500 115045972.80200      2534.95800                
G19  21659238.15700 113820064.73600     -2210.41400                
G22  23627713.22700 124164471.04900      2946.37000                
G23  20760967.47100 109099620.42300     -1218.34600                
G27  21252592.08000 111683125.17900      1858.20700                
G28  24208714.81400 127217654.99500     -3050.28600                
E01        22.14200       116.35700         0.00000                
E02        15.33800        80.60200         0.00000                
E03        15.33800        80.60200         0.00000                
E04        22.14200       116.35700         0.00000                
E05        15.33800        80.59900         0.00000                
E06        15.33800        80.59900         0.00000                
> 2025 04 22 14 02  7.0000000  0 16
G03  24427413.04500 128366921.95900      1597.30500                
G09  24293016.73400 127660664.57400      -485.34900                
G14  20698301.03900 108770306.10000      -290.02000                
G15  24976480.06000 131252288.59400     -4062.31000                
G18  21892038.33900 115043437.95000      2534.73600                
G19  21659658.81700 113822275.32000     -2210.76000                
G22  23627152.56900 124161524.76900      2946.17900                
G23  20761199.34900 109100838.95200     -1218.71400                
G27  21252238.53000 111681267.26000      1857.62600                
G28  24209295.29400 127220705.44100     -3050.61700                
E01        22.14200       116.35700         0.00000                
E02        15.33800        80.60200         0.00000                
E03        15.33800        80.60200         0.00000                
E04        22.14200       116.35700         0.00000                
E05        15.33800        80.59900         0.00000                
E06        15.33800        80.59900         0.00000                
> 2025 04 22 14 02  8.0000000  0 16
G03  24427109.13600 128365324.90600      1596.79800                
G09  24293109.15400 127661150.24600      -485.99400                
G14  20698356.29700 108770596.48100      -290.74200                
G15  24977253.09000 131256350.89800     -4062.31800                
G18  21891556.01500 115040903.32100      2534.51400                
G19  21660079.54300 113824486.24900     -2211.10500                
G22  23626591.94600 124158578.68000      2945.98800                
G23  20761431.29800 109102057.84800     -1219.08100                
G27  21251885.09000 111679409.92200      1857.04600                
G28  24209875.83800 127223756.21700     -3050.94700                
E01        22.14200       116.35700         0.00000                
E02        15.33800        80.60200         0.00000                
E03        15.33800        80.60200         0.00000                
E04        22.14200       116.35700         0.00000                
E05        15.33800        80.59900         0.00000                
E06        15.33800        80.59900         0.00000                
> 2025 04 22 14 02  9.0000000  0 16
G03  24426805.32400 128363728.35900      1596.29100                
G09  24293201.69700 127661636.56300      -486.63900                
G14  20698411.69200 108770887.58500      -291.46500                
G15  24978026.12300 131260413.20900     -4062.32600                
G18  21891073.73300 115038368.91300      2534.29200                
G19  21660500.33400 113826697.52500     -2211.45000                
G22  23626031.36100 124155632.78300      2945.79700                
G23  20761663.31600 109103277.11300     -1219.44900                
G27  21251531.76100 111677553.16500      1856.46500                
G28  24210456.44400 127226807.32300     -3051.27700                
E01        22.14200       116.35700         0.00000                
E02        15.33800        80.60200         0.00000                
E03        15.33800        80.60200         0.00000                
E04        22.14200       116.35700         0.00000                
E05        15.33800        80.59900         0.00000                
E06        15.33800        80.59900         0.00000                
> 2025 04 22 14 02 10.0000000  0 16
G03  24426501.60700 128362132.32000      1595.78400                
G09  24293294.36300 127662123.52400      -487.28400                
G14  20698467.22500 108771179.41000      -292.18700                
G15  24978799.15600 131264475.52900     -4062.33400                
G18  21890591.49400 115035834.72900      2534.07000                
G19  21660921.19200 113828909.14400     -2211.79600                
G22  23625470.81200 124152687.07700      2945.60500                
G23  20761895.40400 109104496.74500     -1219.81700                
G27  21251178.54200 111675696.98800      1855.88400                
G28  24211037.11300 127229858.75900     -3051.60700                
E01        22.14200       116.35700         0.00000                
E02        15.33800        80.60200         0.00000                
E03        15.33800        80.60200         0.00000                
E04        22.14200       116.35700         0.00000                
E05        15.33800        80.59900         0.00000                
E06        15.33800        80.59900         0.00000                
> 2025 04 22 14 02 11.0000000  0 16
G03  24426197.98800 128360536.78700      1595.27700                
G09  24293387.15100 127662611.13000      -487.92900                
G14  20698522.89500 108771471.95800      -292.90900                
G15  24979572.19200 131268537.85800     -4062.34200                
G18  21890109.29700 115033300.76500      2533.84800                
G19  21661342.11500 113831121.10900     -2212.14100                
G22  23624910.29900 124149741.56100      2945.41400                
G23  20762127.56300 109105716.74500     -1220.18500                
G27  21250825.43400 111673841.39300      1855.30300                
G28  24211617.84500 127232910.52600     -3051.93700                
E01        22.14200       116.35700         0.00000                
E02        15.33800        80.60200         0.00000                
E03        15.33800        80.60200         0.00000                
E04        22.14200       116.35700         0.00000                
E05        15.33800        80.59900         0.00000                
E06        15.33800        80.59900         0.00000                
> 2025 04 22 14 02 12.0000000  0 16
G03  24425894.46400 128358941.76200      1594.77000                
G09  24293480.06200 127663099.38100      -488.57300                
G14  20698578.70200 108771765.22900      -293.63100                
G15  24980345.22900 131272600.19300     -4062.35000                
G18  21889627.14200 115030767.02400      2533.62600                
G19  21661763.10300 113833333.42000     -2212.48600                
G22  23624349.82200 124146796.23700      2945.22300                
G23  20762359.79100 109106937.11200     -1220.55200                
G27  21250472.43700 111671986.37800      1854.72200                
G28  24212198.63900 127235962.62200     -3052.26700                
E01        22.14200       116.35700         0.00000                
E02        15.33800        80.60200         0.00000                
E03        15.33800        80.60200         0.00000                
E04        22.14200       116.35700         0.00000                
E05        15.33800        80.59900         0.00000                
E06        15.33800        80.59900         0.00000                
> 2025 04 22 14 02 13.0000000  0 16
G03  24425591.03800 128357347.24400      1594.26300                
G09  24293573.09600 127663588.27700      -489.21800                
G14  20698634.64700 108772059.22100      -294.35400                
G15  24981118.26700 131276662.53600     -4062.35800                
G18  21889145.02900 115028233.50600      2533.40300                
G19  21662184.15800 113835546.07500     -2212.83100                
G22  23623789.38200 124143851.10400      2945.03200                
G23  20762592.08900 109108157.84700     -1220.92000                
G27  21250119.54900 111670131.94400      1854.14100                
G28  24212779.49700 127239015.04800     -3052.59700                
E01        22.14200       116.35700         0.00000                
E02        15.33800        80.60200         0.00000                
E03        15.33800        80.60200         0.00000                
E04        22.14200       116.35700         0.00000                
E05        15.33800        80.59900         0.00000                
E06        15.33800        80.59900         0.00000                
> 2025 04 22 14 02 14.0000000  0 16
G03  24425287.70700 128355753.23300      1593.75600                
G09  24293666.25200 127664077.81700      -489.86300                
G14  20698690.72900 108772353.93600      -295.07600                
G15  24981891.30600 131280724.88700     -4062.36500                
G18  21888662.95900 115025700.21000      2533.18100                
G19  21662605.27800 113837759.07600     -2213.17600                
G22  23623228.97800 124140906.16200      2944.84000                
G23  20762824.45700 109109378.95000     -1221.28700                
G27  21249766.77300 111668278.09100      1853.56000                
G28  24213360.41700 127242067.80300     -3052.92700                
E01        22.14200       116.35700         0.00000                
E02        15.33800        80.60200         0.00000                
E03        15.33800        80.60200         0.00000                
E04        22.14200       116.35700         0.00000                
E05        15.33800        80.59900         0.00000                
E06        15.33800        80.59900         0.00000                
> 2025 04 22 14 02 15.0000000  0 16
G03  24424984.47400 128354159.72900      1593.24800                
G09  24293759.53100 127664568.00200      -490.50700                
G14  20698746.94900 108772649.37300      -295.79800                
G15  24982664.34800 131284787.24600     -4062.37300                
G18  21888180.93100 115023167.13600      2532.95800                
G19  21663026.46300 113839972.42200     -2213.52200                
G22  23622668.61100 124137961.41200      2944.64900                
G23  20763056.89500 109110600.42000     -1221.65500                
G27  21249414.10700 111666424.81900      1852.97900                
G28  24213941.40000 127245120.88900     -3053.25600                
E01        22.14200       116.35700         0.00000                
E02        15.33800        80.60200         0.00000                
E03        15.33800        80.60200         0.00000                
E04        22.14200       116.35700         0.00000                
E05        15.33800        80.59900         0.00000                
E06        15.33800        80.59900         0.00000                
> 2025 04 22 14 02 16.0000000  0 16
G03  24424681.33700 128352566.73300      1592.74100                
G09  24293852.93300 127665058.83200      -491.15200                
G14  20698803.30600 108772945.53200      -296.52000                
G15  24983437.39000 131288849.61100     -4062.38000                
G18  21887698.94600 115020634.28500      2532.73600                
G19  21663447.71500 113842186.11300     -2213.86700                
G22  23622108.28000 124135016.85400      2944.45800                
G23  20763289.40300 109111822.25700     -1222.02200                
G27  21249061.55200 111664572.12800      1852.39800                
G28  24214522.44500 127248174.30400     -3053.58600                
E01        22.14200       116.35700         0.00000                
E02        15.33800        80.60200         0.00000                
E03        15.33800        80.60200         0.00000                
E04        22.14200       116.35700         0.00000                
E05        15.33800        80.59900         0.00000                
E06        15.33800        80.59900         0.00000                
> 2025 04 22 14 02 17.0000000  0 16
G03  24424378.29600 128350974.24400      1592.23300                
G09  24293946.45700 127665550.30600      -491.79600                
G14  20698859.80100 108773242.41400      -297.24300                
G15  24984210.43400 131292911.98600     -4062.38800                
G18  21887217.00200 115018101.65600      2532.51300                
G19  21663869.03200 113844400.14900     -2214.21200                
G22  23621547.98500 124132072.48600      2944.26600                
G23  20763521.98100 109113044.46200     -1222.38900                
G27  21248709.10700 111662720.01900      1851.81700                
G28  24215103.55300 127251228.04900     -3053.91500                
E01        22.14200       116.35700         0.00000                
E02        15.33800        80.60200         0.00000                
E03        15.33800        80.60200         0.00000                
E04        22.14200       116.35700         0.00000                
E05        15.33800        80.59900         0.00000                
E06        15.33800        80.59900         0.00000                
> 2025 04 22 14 02 18.0000000  0 16
G03  24424075.35200 128349382.26300      1591.72600                
G09  24294040.10500 127666042.42400      -492.44100                
G14  20698916.43300 108773540.01700      -297.96500                
G15  24984983.47900 131296974.36600     -4062.39500                
G18  21886735.10200 115015569.25000      2532.29100                
G19  21664290.41500 113846614.53000     -2214.55700                
G22  23620987.72700 124129128.31000      2944.07500                
G23  20763754.62900 109114267.03400     -1222.75700                
G27  21248356.77300 111660868.49100      1851.23500                
G28  24215684.72400 127254282.12300     -3054.24400                
E01        22.14200       116.35700         0.00000                
E02        15.33800        80.60200         0.00000                
E03        15.33800        80.60200         0.00000                
E04        22.14200       116.35700         0.00000                
E05        15.33800        80.59900         0.00000                
E06        15.33800        80.59900         0.00000                
> 2025 04 22 14 02 19.0000000  0 16
G03  24423772.50500 128347790.78900      1591.21800                
G09  24294133.87400 127666535.18700      -493.08500                
G14  20698973.20300 108773838.34300      -298.68700                
G15  24985756.52600 131301036.75400     -4062.40200                
G18  21886253.24300 115013037.06700      2532.06800                
G19  21664711.86300 113848829.25700     -2214.90200                
G22  23620427.50600 124126184.32500      2943.88400                
G23  20763987.34600 109115489.97300     -1223.12400                
G27  21248004.55000 111659017.54400      1850.65400                
G28  24216265.95800 127257336.52600     -3054.57400                
E01        22.14200       116.35700         0.00000                
E02        15.33800        80.60200         0.00000                
E03        15.33800        80.60200         0.00000                
E04        22.14200       116.35700         0.00000                
E05        15.33800        80.59900         0.00000                
E06        15.33800        80.59900         0.00000                
> 2025 04 22 14 02 20.0000000  0 16
G03  24423469.75400 128346199.82400      1590.71000                
G09  24294227.76700 127667028.59500      -493.73000                
G14  20699030.11000 108774137.39200      -299.40900                
G15  24986529.57400 131305099.14900     -4062.40900                
G18  21885771.42700 115010505.10600      2531.84500                
G19  21665133.37700 113851044.32800     -2215.24700                
G22  23619867.32000 124123240.53100      2943.69200                
G23  20764220.13400 109116713.28000     -1223.49100                
G27  21247652.43700 111657167.17900      1850.07200                
G28  24216847.25400 127260391.25800     -3054.90300                
E01        22.14200       116.35700         0.00000                
E02        15.33800        80.60200         0.00000                
E03        15.33800        80.60200         0.00000                
E04        22.14200       116.35700         0.00000                
E05        15.33800        80.59900         0.00000                
E06        15.33800        80.59900         0.00000                
> 2025 04 22 14 02 21.0000000  0 16
G03  24423167.10000 128344609.36600      1590.20200                
G09  24294321.78200 127667522.64700      -494.37400                
G14  20699087.15400 108774437.16200      -300.13200                
G15  24987302.62400 131309161.55100     -4062.41600                
G18  21885289.65300 115007973.36800      2531.62300                
G19  21665554.95700 113853259.74500     -2215.59200                
G22  23619307.17100 124120296.92900      2943.50100                
G23  20764452.99100 109117936.95400     -1223.85800                
G27  21247300.43500 111655317.39500      1849.49100                
G28  24217428.61300 127263446.31900     -3055.23200                
E01        22.14200       116.35700         0.00000                
E02        15.33800        80.60200         0.00000                
E03        15.33800        80.60200         0.00000                
E04        22.14200       116.35700         0.00000                
E05        15.33800        80.59900         0.00000                
E06        15.33800        80.59900         0.00000                
> 2025 04 22 14 02 22.0000000  0 16
G03  24422864.54300 128343019.41600      1589.69400                
G09  24294415.91900 127668017.34300      -495.01800                
G14  20699144.33600 108774737.65500      -300.85400                
G15  24988075.67400 131313223.96100     -4062.42300                
G18  21884807.92200 115005441.85300      2531.40000                
G19  21665976.60200 113855475.50600     -2215.93700                
G22  23618747.05900 124117353.51900      2943.30900                
G23  20764685.91800 109119160.99500     -1224.22500                
G27  21246948.54300 111653468.19300      1848.90900                
G28  24218010.03500 127266501.71000     -3055.56100                
E01        22.14200       116.35700         0.00000                
E02        15.33800        80.60200         0.00000                
E03        15.33800        80.60200         0.00000                
E04        22.14200       116.35700         0.00000                
E05        15.33800        80.59900         0.00000                
E06        15.33800        80.59900         0.00000                
> 2025 04 22 14 02 23.0000000  0 16
G03  24422562.08200 128341429.97500      1589.18600                
G09  24294510.17900 127668512.68300      -495.66300                
G14  20699201.65500 108775038.87000      -301.57600                
G15  24988848.72600 131317286.37600     -4062.43000                
G18  21884326.23300 115002910.56000      2531.17700                
G19  21666398.31300 113857691.61300     -2216.28200                
G22  23618186.98300 124114410.30000      2943.11800                
G23  20764918.91500 109120385.40300     -1224.59300                
G27  21246596.76200 111651619.57300      1848.32800                
G28  24218591.51900 127269557.42900     -3055.89000                
E01        22.14200       116.35700         0.00000                
E02        15.33800        80.60200         0.00000                
E03        15.33800        80.60200         0.00000                
E04        22.14200       116.35700         0.00000                
E05        15.33800        80.59900         0.00000                
E06        15.33800        80.59900         0.00000                
> 2025 04 22 14 02 24.0000000  0 16
G03  24422259.71800 128339841.04100      1588.67800                
G09  24294604.56200 127669008.66800      -496.30700                
G14  20699259.11200 108775340.80700      -302.29800                
G15  24989621.78000 131321348.79900     -4062.43600                
G18  21883844.58700 115000379.49100      2530.95400                
G19  21666820.09000 113859908.06400     -2216.62700                
G22  23617626.94400 124111467.27300      2942.92600                
G23  20765151.98200 109121610.17800     -1224.96000                
G27  21246245.09200 111649771.53400      1847.74600                
G28  24219173.06500 127272613.47700     -3056.21800                
E01        22.14200       116.35700         0.00000                
E02        15.33800        80.60200         0.00000                
E03        15.33800        80.60200         0.00000                
E04        22.14200       116.35700         0.00000                
E05        15.33800        80.59900         0.00000                
E06        15.33800        80.59900         0.00000                
> 2025 04 22 14 02 25.0000000  0 16
G03  24421957.45100 128338252.61500      1588.17000                
G09  24294699.06700 127669505.29700      -496.95100                
G14  20699316.70600 108775643.46700      -303.02100                
G15  24990394.83400 131325411.22800     -4062.44300                
G18  21883362.98200 114997848.64400      2530.73100                
G19  21667241.93200 113862124.86000     -2216.97200                
G22  23617066.94100 124108524.43700      2942.73500                
G23  20765385.11900 109122835.32000     -1225.32700                
G27  21245893.53300 111647924.07700      1847.16400                
G28  24219754.67400 127275669.85400     -3056.54700                
E01        22.14200       116.35700         0.00000                
E02        15.33800        80.60200         0.00000                
E03        15.33800        80.60200         0.00000                
E04        22.14200       116.35700         0.00000                
E05        15.33800        80.59900         0.00000                
E06        15.33800        80.59900         0.00000                
> 2025 04 22 14 02 26.0000000  0 16
G03  24421655.28000 128336664.69800      1587.66100                
G09  24294793.69500 127670002.57000      -497.59500                
G14  20699374.43800 108775946.84800      -303.74300                
G15  24991167.89000 131329473.66300     -4062.45000                
G18  21882881.42100 114995318.02100      2530.50800                
G19  21667663.84000 113864342.00200     -2217.31700                
G22  23616506.97400 124105581.79300      2942.54300                
G23  20765618.32600 109124060.82900     -1225.69300                
G27  21245542.08400 111646077.20200      1846.58200                
G28  24220336.34600 127278726.56000     -3056.87600                
E01        22.14200       116.35700         0.00000                
E02        15.33800        80.60200         0.00000                
E03        15.33800        80.60200         0.00000                
E04        22.14200       116.35700         0.00000                
E05        15.33800        80.59900         0.00000                
E06        15.33800        80.59900         0.00000                
> 2025 04 22 14 02 27.0000000  0 16
G03  24421353.20600 128335077.29000      1587.15300                
G09  24294888.44600 127670500.48800      -498.24000                
G14  20699432.30700 108776250.95200      -304.46500                
G15  24991940.94700 131333536.10600     -4062.45600                
G18  21882399.90200 114992787.62100      2530.28500                
G19  21668085.81400 113866559.48800     -2217.66200                
G22  23615947.04400 124102639.34000      2942.35100                
G23  20765851.60200 109125286.70500     -1226.06000                
G27  21245190.74600 111644230.90800      1846.00000                
G28  24220918.08000 127281783.59400     -3057.20400                
E01        22.14200       116.35700         0.00000                
E02        15.33800        80.60200         0.00000                
E03        15.33800        80.60200         0.00000                
E04        22.14200       116.35700         0.00000                
E05        15.33800        80.59900         0.00000                
E06        15.33800        80.59900         0.00000                
> 2025 04 22 14 02 28.0000000  0 16
G03  24421051.22900 128333490.38900      1586.64400                
G09  24294983.31900 127670999.04900      -498.88400                
G14  20699490.31300 108776555.77800      -305.18700                
G15  24992714.00600 131337598.55500     -4062.46200                
G18  21881918.42500 114990257.44400      2530.06100                
G19  21668507.85300 113868777.31900     -2218.00700                
G22  23615387.15000 124099697.08000      2942.16000                
G23  20766084.94900 109126512.94800     -1226.42700                
G27  21244839.51900 111642385.19700      1845.41800                
G28  24221499.87700 127284840.95600     -3057.53200                
E01        22.14200       116.35700         0.00000                
E02        15.33800        80.60200         0.00000                
E03        15.33800        80.60200         0.00000                
E04        22.14200       116.35700         0.00000                
E05        15.33800        80.59900         0.00000                
E06        15.33800        80.59900         0.00000                
> 2025 04 22 14 02 29.0000000  0 16
G03  24420749.34900 128331903.99700      1586.13600                
G09  24295078.31500 127671498.25500      -499.52800                
G14  20699548.45700 108776861.32700      -305.91000                
G15  24993487.06500 131341661.01000     -4062.46900                
G18  21881436.99100 114987727.49100      2529.83800                
G19  21668929.95800 113870995.49600     -2218.35200                
G22  23614827.29300 124096755.01000      2941.96800                
G23  20766318.36500 109127739.55800     -1226.79400                
G27  21244488.40300 111640540.06800      1844.83600                
G28  24222081.73600 127287898.64600     -3057.86100                
E01        22.14200       116.35700         0.00000                
E02        15.33800        80.60200         0.00000                
E03        15.33800        80.60200         0.00000                
E04        22.14200       116.35700         0.00000                
E05        15.33800        80.59900         0.00000                
E06        15.33800        80.59900         0.00000                
> 2025 04 22 14 02 30.0000000  0 16
G03  24420447.56500 128330318.11400      1585.62700                
G09  24295173.43300 127671998.10400      -500.17200                
G14  20699606.73900 108777167.59700      -306.63200                
G15  24994260.12600 131345723.47100     -4062.47500                
G18  21880955.59900 114985197.76000      2529.61500                
G19  21669352.12900 113873214.01600     -2218.69600                
G22  23614267.47300 124093813.13300      2941.77600                
G23  20766551.85000 109128966.53400     -1227.16100                
G27  21244137.39700 111638695.52000      1844.25400                
G28  24222663.65800 127290956.66500     -3058.18900                
E01        22.14200       116.35700         0.00000                
E02        15.33800        80.60200         0.00000                
E03        15.33800        80.60200         0.00000                
E04        22.14200       116.35700         0.00000                
E05        15.33800        80.59900         0.00000                
E06        15.33800        80.59900         0.00000                
> 2025 04 22 14 02 31.0000000  0 16
G03  24420145.87900 128328732.74000      1585.11800                
G09  24295268.67400 127672498.59800      -500.81600                
G14  20699665.15800 108777474.59000      -307.35400                
G15  24995033.18700 131349785.93800     -4062.48100                
G18  21880474.25000 114982668.25300      2529.39100                
G19  21669774.36500 113875432.88200     -2219.04100                
G22  23613707.68800 124090871.44700      2941.58400                
G23  20766785.40600 109130193.87700     -1227.52700                
G27  21243786.50200 111636851.55500      1843.67200                
G28  24223245.64200 127294015.01200     -3058.51700                
E01        22.14200       116.35700         0.00000                
E02        15.33800        80.60200         0.00000                
E03        15.33800        80.60200         0.00000                
E04        22.14200       116.35700         0.00000                
E05        15.33800        80.59900         0.00000                
E06        15.33800        80.59900         0.00000                
> 2025 04 22 14 02 32.0000000  0 16
G03  24419844.28900 128327147.87500      1584.60900                
G09  24295364.03700 127672999.73600      -501.46000                
G14  20699723.71400 108777782.30500      -308.07600                
G15  24995806.25000 131353848.41100     -4062.48700                
G18  21879992.94300 114980138.96900      2529.16800                
G19  21670196.66600 113877652.09300     -2219.38600                
G22  23613147.94100 124087929.95300      2941.39300                
G23  20767019.03100 109131421.58700     -1227.89400                
G27  21243435.71800 111635008.17200      1843.09000                
G28  24223827.68800 127297073.68700     -3058.84500                
E01        22.14200       116.35700         0.00000                
E02        15.33800        80.60200         0.00000                
E03        15.33800        80.60200         0.00000                
E04        22.14200       116.35700         0.00000                
E05        15.33800        80.59900         0.00000                
E06        15.33800        80.59900         0.00000                
> 2025 04 22 14 02 33.0000000  0 16
G03  24419542.79600 128325563.51800      1584.10000                
G09  24295459.52300 127673501.51700      -502.10400                
G14  20699782.40700 108778090.74300      -308.79800                
G15  24996579.31500 131357910.89100     -4062.49300                
G18  21879511.67900 114977609.90900      2528.94500                
G19  21670619.03400 113879871.64800     -2219.73100                
G22  23612588.22900 124084988.65100      2941.20100                
G23  20767252.72700 109132649.66300     -1228.26100                
G27  21243085.04500 111633165.37100      1842.50700                
G28  24224409.79700 127300132.69000     -3059.17300                
E01        22.14200       116.35700         0.00000                
E02        15.33800        80.60200         0.00000                
E03        15.33800        80.60200         0.00000                
E04        22.14200       116.35700         0.00000                
E05        15.33800        80.59900         0.00000                
E06        15.33800        80.59900         0.00000                
> 2025 04 22 14 02 34.0000000  0 16
G03  24419241.40000 128323979.67100      1583.59100                
G09  24295555.13100 127674003.94200      -502.74700                
G14  20699841.23800 108778399.90200      -309.52100                
G15  24997352.38000 131361973.37600     -4062.49800                
G18  21879030.45700 114975081.07200      2528.72100                
G19  21671041.46700 113882091.54800     -2220.07600                
G22  23612028.55500 124082047.54100      2941.00900                
G23  20767486.49200 109133878.10600     -1228.62700                
G27  21242734.48200 111631323.15300      1841.92500                
G28  24224991.96900 127303192.02000     -3059.50000                
E01        22.14200       116.35700         0.00000                
E02        15.33800        80.60200         0.00000                
E03        15.33800        80.60200         0.00000                
E04        22.14200       116.35700         0.00000                
E05        15.33800        80.59900         0.00000                
E06        15.33800        80.59900         0.00000                
> 2025 04 22 14 02 35.0000000  0 16
G03  24418940.10000 128322396.33200      1583.08200                
G09  24295650.86200 127674507.01200      -503.39100                
G14  20699900.20700 108778709.78400      -310.24300                
G15  24998125.44600 131366035.86700     -4062.50400                
G18  21878549.27800 114972552.45800      2528.49700                
G19  21671463.96500 113884311.79300     -2220.42000                
G22  23611468.91700 124079106.62200      2940.81700                
G23  20767720.32600 109135106.91600     -1228.99400                
G27  21242384.03000 111629481.51700      1841.34300                
G28  24225574.20200 127306251.67900     -3059.82800                
E01        22.14200       116.35700         0.00000                
E02        15.33800        80.60200         0.00000                
E03        15.33800        80.60200         0.00000                
E04        22.14200       116.35700         0.00000                
E05        15.33800        80.59900         0.00000                
E06        15.33800        80.59900         0.00000                
> 2025 04 22 14 02 36.0000000  0 16
G03  24418638.89800 128320813.50300      1582.57300                
G09  24295746.71500 127675010.72500      -504.03500                
G14  20699959.31300 108779020.38700      -310.96500                
G15  24998898.51300 131370098.36300     -4062.51000                
G18  21878068.14200 114970024.06900      2528.27400                
G19  21671886.52900 113886532.38300     -2220.76500                
G22  23610909.31500 124076165.89600      2940.62500                
G23  20767954.23100 109136336.09200     -1229.36000                
G27  21242033.69000 111627640.46400      1840.76000                
G28  24226156.49800 127309311.66400     -3060.15600                
E01        22.14200       116.35700         0.00000                
E02        15.33800        80.60200         0.00000                
E03        15.33800        80.60200         0.00000                
E04        22.14200       116.35700         0.00000                
E05        15.33800        80.59900         0.00000                
E06        15.33800        80.59900         0.00000                
> 2025 04 22 14 02 37.0000000  0 16
G03  24418337.79200 128319231.18300      1582.06400                
G09  24295842.69100 127675515.08100      -504.67900                
G14  20700018.55600 108779331.71300      -311.68700                
G15  24999671.58200 131374160.86500     -4062.51500                
G18  21877587.04800 114967495.90300      2528.05000                
G19  21672309.15900 113888753.31700     -2221.11000                
G22  23610349.75000 124073225.36100      2940.43300                
G23  20768188.20500 109137565.63400     -1229.72700                
G27  21241683.46000 111625799.99300      1840.17800                
G28  24226738.85600 127312371.97800     -3060.48300                
E01        22.14200       116.35700         0.00000                
E02        15.33800        80.60200         0.00000                
E03        15.33800        80.60200         0.00000                
E04        22.14200       116.35700         0.00000                
E05        15.33800        80.59900         0.00000                
E06        15.33800        80.59900         0.00000                
> 2025 04 22 14 02 38.0000000  0 16
G03  24418036.78400 128317649.37300      1581.55400                
G09  24295938.79000 127676020.08200      -505.32200                
G14  20700077.93700 108779643.76200      -312.40900                
G15  25000444.65100 131378223.37400     -4062.52100                
G18  21877105.99600 114964967.96100      2527.82600                
G19  21672731.85400 113890974.59600     -2221.45500                
G22  23609790.22100 124070285.01800      2940.24100                
G23  20768422.24900 109138795.54300     -1230.09300                
G27  21241333.34100 111623960.10400      1839.59500                
G28  24227321.27700 127315432.61900     -3060.81100                
E01        22.14200       116.35700         0.00000                
E02        15.33800        80.60200         0.00000                
E03        15.33800        80.60200         0.00000                
E04        22.14200       116.35700         0.00000                
E05        15.33800        80.59900         0.00000                
E06        15.33800        80.59900         0.00000                
> 2025 04 22 14 02 39.0000000  0 16
G03  24417735.87200 128316068.07200      1581.04500                
G09  24296035.01100 127676525.72600      -505.96600                
G14  20700137.45500 108779956.53200      -313.13200                
G15  25001217.72200 131382285.88600     -4062.52600                
G18  21876624.98800 114962440.24200      2527.60200                
G19  21673154.61500 113893196.22000     -2221.79900                
G22  23609230.72900 124067344.86800      2940.04900                
G23  20768656.36200 109140025.81800     -1230.45900                
G27  21240983.33200 111622120.79800      1839.01200                
G28  24227903.76000 127318493.58700     -3061.13800                
E01        22.14200       116.35700         0.00000                
E02        15.33800        80.60200         0.00000                
E03        15.33800        80.60200         0.00000                
E04        22.14200       116.35700         0.00000                
E05        15.33800        80.59900         0.00000                
E06        15.33800        80.59900         0.00000                
> 2025 04 22 14 02 40.0000000  0 16
G03  24417435.05800 128314487.28000      1580.53500                
G09  24296131.35400 127677032.01400      -506.61000                
G14  20700197.11100 108780270.02500      -313.85400                
G15  25001990.79300 131386348.40400     -4062.53100                
G18  21876144.02100 114959912.74800      2527.37800                
G19  21673577.44200 113895418.18900     -2222.14400                
G22  23608671.27400 124064404.91000      2939.85700                
G23  20768890.54600 109141256.45900     -1230.82500                
G27  21240633.43500 111620282.07500      1838.43000                
G28  24228486.30500 127321554.88300     -3061.46500                
E01        22.14200       116.35700         0.00000                
E02        15.33800        80.60200         0.00000                
E03        15.33800        80.60200         0.00000                
E04        22.14200       116.35700         0.00000                
E05        15.33800        80.59900         0.00000                
E06        15.33800        80.59900         0.00000                
> 2025 04 22 14 02 41.0000000  0 16
G03  24417134.34000 128312906.99800      1580.02600                
G09  24296227.82000 127677538.94500      -507.25300                
G14  20700256.90400 108780584.23900      -314.57600                
G15  25002763.86600 131390410.92800     -4062.53600                
G18  21875663.09800 114957385.47800      2527.15500                
G19  21674000.33400 113897640.50200     -2222.48800                
G22  23608111.85500 124061465.14300      2939.66500                
G23  20769124.79800 109142487.46700     -1231.19200                
G27  21240283.64800 111618443.93500      1837.84700                
G28  24229068.91300 127324616.50600     -3061.79200                
E01        22.14200       116.35700         0.00000                
E02        15.33800        80.60200         0.00000                
E03        15.33800        80.60200         0.00000                
E04        22.14200       116.35700         0.00000                
E05        15.33800        80.59900         0.00000                
E06        15.33800        80.59900         0.00000                
> 2025 04 22 14 02 42.0000000  0 16
G03  24416833.71900 128311327.22600      1579.51600                
G09  24296324.40800 127678046.52000      -507.89700                
G14  20700316.83500 108780899.17600      -315.29800                
G15  25003536.93900 131394473.45600     -4062.54200                
G18  21875182.21700 114954858.43100      2526.93100                
G19  21674423.29200 113899863.15900     -2222.83300                
G22  23607552.47200 124058525.56800      2939.47300                
G23  20769359.12100 109143718.84100     -1231.55800                
G27  21239933.97300 111616606.37800      1837.26400                
G28  24229651.58200 127327678.45500     -3062.11900                
E01        22.14200       116.35700         0.00000                
E02        15.33800        80.60200         0.00000                
E03        15.33800        80.60200         0.00000                
E04        22.14200       116.35700         0.00000                
E05        15.33800        80.59900         0.00000                
E06        15.33800        80.59900         0.00000                
> 2025 04 22 14 02 43.0000000  0 16
G03  24416533.19600 128309747.96300      1579.00600                
G09  24296421.11900 127678554.73800      -508.54000                
G14  20700376.90300 108781214.83600      -316.02000                
G15  25004310.01400 131398535.99000     -4062.54700                
G18  21874701.37800 114952331.60800      2526.70600                
G19  21674846.31500 113902086.16100     -2223.17800                
G22  23606993.12600 124055586.18600      2939.28100                
G23  20769593.51300 109144950.58100     -1231.92400                
G27  21239584.40800 111614769.40300      1836.68100                
G28  24230234.31400 127330740.73200     -3062.44600                
E01        22.14200       116.35700         0.00000                
E02        15.33800        80.60200         0.00000                
E03        15.33800        80.60200         0.00000                
E04        22.14200       116.35700         0.00000                
E05        15.33800        80.59900         0.00000                
E06        15.33800        80.59900         0.00000                
> 2025 04 22 14 02 44.0000000  0 16
G03  24416232.76900 128308169.21100      1578.49600                
G09  24296517.95200 127679063.60000      -509.18400                
G14  20700437.10800 108781531.21700      -316.74200                
G15  25005083.08900 131402598.52900     -4062.55100                
G18  21874220.58300 114949805.01000      2526.48200                
G19  21675269.40400 113904309.50800     -2223.52200                
G22  23606433.81700 124052646.99500      2939.08900                
G23  20769827.97500 109146182.68700     -1232.29000                
G27  21239234.95500 111612933.01200      1836.09800                
G28  24230817.10800 127333803.33500     -3062.77300                
E01        22.14200       116.35700         0.00000                
E02        15.33800        80.60200         0.00000                
E03        15.33800        80.60200         0.00000                
E04        22.14200       116.35700         0.00000                
E05        15.33800        80.59900         0.00000                
E06        15.33800        80.59900         0.00000                
> 2025 04 22 14 02 45.0000000  0 16
G03  24415932.44000 128306590.96900      1577.98600                
G09  24296614.90800 127679573.10600      -509.82700                
G14  20700497.45100 108781848.32000      -317.46500                
G15  25005856.16600 131406661.07200     -4062.55600                
G18  21873739.83000 114947278.63600      2526.25800                
G19  21675692.55800 113906533.20000     -2223.86700                
G22  23605874.54400 124049707.99700      2938.89700                
G23  20770062.50700 109147415.15900     -1232.65600                
G27  21238885.61200 111611097.20400      1835.51500                
G28  24231399.96400 127336866.26600     -3063.10000                
E01        22.14200       116.35700         0.00000                
E02        15.33800        80.60200         0.00000                
E03        15.33800        80.60200         0.00000                
E04        22.14200       116.35700         0.00000                
E05        15.33800        80.59900         0.00000                
E06        15.33800        80.59900         0.00000                
> 2025 04 22 14 02 46.0000000  0 16
G03  24415632.20700 128305013.23600      1577.47600                
G09  24296711.98600 127680083.25400      -510.47100                
G14  20700557.93100 108782166.14600      -318.18700                
G15  25006629.24300 131410723.62000     -4062.56100                
G18  21873259.11900 114944752.48600      2526.03400                
G19  21676115.77800 113908757.23500     -2224.21100                
G22  23605315.30800 124046769.19200      2938.70400                
G23  20770297.10800 109148647.99700     -1233.02200                
G27  21238536.38000 111609261.97800      1834.93200                
G28  24231982.88300 127339929.52300     -3063.42600                
E01        22.14200       116.35700         0.00000                
E02        15.33800        80.60200         0.00000                
E03        15.33800        80.60200         0.00000                
E04        22.14200       116.35700         0.00000                
E05        15.33800        80.59900         0.00000                
E06        15.33800        80.59900         0.00000                
> 2025 04 22 14 02 47.0000000  0 16
G03  24415332.07200 128303436.01400      1576.96600                
G09  24296809.18600 127680594.04700      -511.11400                
G14  20700618.54900 108782484.69400      -318.90900                
G15  25007402.32100 131414786.17300     -4062.56600                
G18  21872778.45200 114942226.56000      2525.81000                
G19  21676539.06400 113910981.61600     -2224.55600                
G22  23604756.10900 124043830.57800      2938.51200                
G23  20770531.77900 109149881.20200     -1233.38800                
G27  21238187.25900 111607427.33600      1834.34800                
G28  24232565.86300 127342993.10700     -3063.75300                
E01        22.14200       116.35700         0.00000                
E02        15.33800        80.60200         0.00000                
E03        15.33800        80.60200         0.00000                
E04        22.14200       116.35700         0.00000                
E05        15.33800        80.59900         0.00000                
E06        15.33800        80.59900         0.00000                
> 2025 04 22 14 02 48.0000000  0 16
G03  24415032.03300 128301859.30200      1576.45500                
G09  24296906.50900 127681105.48200      -511.75700                
G14  20700679.30400 108782803.96400      -319.63100                
G15  25008175.40000 131418848.73000     -4062.57000                
G18  21872297.82700 114939700.85900      2525.58500                
G19  21676962.41500 113913206.34100     -2224.90000                
G22  23604196.94600 124040892.15600      2938.32000                
G23  20770766.52000 109151114.77200     -1233.75400                
G27  21237838.25000 111605593.27700      1833.76500                
G28  24233148.90600 127346057.01700     -3064.07900                
E01        22.14200       116.35700         0.00000                
E02        15.33800        80.60200         0.00000                
E03        15.33800        80.60200         0.00000                
E04        22.14200       116.35700         0.00000                
E05        15.33800        80.59900         0.00000                
E06        15.33800        80.59900         0.00000                
> 2025 04 22 14 02 49.0000000  0 16
G03  24414732.09200 128300283.10000      1575.94500                
G09  24297003.95400 127681617.56100      -512.40100                
G14  20700740.19600 108783123.95600      -320.35300                
G15  25008948.48000 131422911.29300     -4062.57500                
G18  21871817.24400 114937175.38200      2525.36100                
G19  21677385.83100 113915431.41000     -2225.24500                
G22  23603637.81900 124037953.92700      2938.12800                
G23  20771001.33000 109152348.70700     -1234.12000                
G27  21237489.35100 111603759.80100      1833.18200                
G28  24233732.01100 127349121.25200     -3064.40500                
E01        22.14200       116.35700         0.00000                
E02        15.33800        80.60200         0.00000                
E03        15.33800        80.60200         0.00000                
E04        22.14200       116.35700         0.00000                
E05        15.33800        80.59900         0.00000                
E06        15.33800        80.59900         0.00000                
> 2025 04 22 14 02 50.0000000  0 16
G03  24414432.24800 128298707.40900      1575.43400                
G09  24297101.52200 127682130.28300      -513.04400                
G14  20700801.22600 108783444.67000      -321.07500                
G15  25009721.56000 131426973.85900     -4062.57900                
G18  21871336.70500 114934650.12900      2525.13600                
G19  21677809.31400 113917656.82400     -2225.58900                
G22  23603078.72900 124035015.89000      2937.93500                
G23  20771236.21000 109153583.00900     -1234.48600                
G27  21237140.56300 111601926.90900      1832.59900                
G28  24234315.17800 127352185.81500     -3064.73200                
E01        22.14200       116.35700         0.00000                
E02        15.33800        80.60200         0.00000                
E03        15.33800        80.60200         0.00000                
E04        22.14200       116.35700         0.00000                
E05        15.33800        80.59900         0.00000                
E06        15.33800        80.59900         0.00000                
> 2025 04 22 14 02 51.0000000  0 16
G03  24414132.50100 128297132.22900      1574.92400                
G09  24297199.21200 127682643.64800      -513.68700                
G14  20700862.39300 108783766.10600      -321.79700                
G15  25010494.64200 131431036.42900     -4062.58300                
G18  21870856.20800 114932125.10100      2524.91200                
G19  21678232.86100 113919882.58200     -2225.93400                
G22  23602519.67600 124032078.04600      2937.74300                
G23  20771471.15900 109154817.67700     -1234.85100                
G27  21236791.88600 111600094.60000      1832.01500                
G28  24234898.40700 127355250.70400     -3065.05800                
E01        22.14200       116.35700         0.00000                
E02        15.33800        80.60200         0.00000                
E03        15.33800        80.60200         0.00000                
E04        22.14200       116.35700         0.00000                
E05        15.33800        80.59900         0.00000                
E06        15.33800        80.59900         0.00000                
> 2025 04 22 14 02 52.0000000  0 16
G03  24413832.85100 128295557.55800      1574.41300                
G09  24297297.02500 127683157.65600      -514.33000                
G14  20700923.69800 108784088.26500      -322.52000                
G15  25011267.72400 131435099.00400     -4062.58700                
G18  21870375.75400 114929600.29700      2524.68700                
G19  21678656.47500 113922108.68500     -2226.27800                
G22  23601960.65900 124029140.39300      2937.55100                
G23  20771706.17800 109156052.71000     -1235.21700                
G27  21236443.32000 111598262.87400      1831.43200                
G28  24235481.69800 127358315.91900     -3065.38400                
E01        22.14200       116.35700         0.00000                
E02        15.33800        80.60200         0.00000                
E03        15.33800        80.60200         0.00000                
E04        22.14200       116.35700         0.00000                
E05        15.33800        80.59900         0.00000                
E06        15.33800        80.59900         0.00000                
> 2025 04 22 14 02 53.0000000  0 16
G03  24413533.29900 128293983.39900      1573.90200                
G09  24297394.96000 127683672.30800      -514.97300                
G14  20700985.14000 108784411.14500      -323.24200                
G15  25012040.80700 131439161.58300     -4062.59100                
G18  21869895.34200 114927075.71800      2524.46300                
G19  21679080.15300 113924335.13200     -2226.62200                
G22  23601401.67900 124026202.93300      2937.35800                
G23  20771941.26700 109157288.10900     -1235.58300                
G27  21236094.86600 111596431.73300      1830.84800                
G28  24236065.05100 127361381.46000     -3065.71000                
E01        22.14200       116.35700         0.00000                
E02        15.33800        80.60200         0.00000                
E03        15.33800        80.60200         0.00000                
E04        22.14200       116.35700         0.00000                
E05        15.33800        80.59900         0.00000                
E06        15.33800        80.59900         0.00000                
> 2025 04 22 14 02 54.0000000  0 16
G03  24413233.84400 128292409.75000      1573.39200                
G09  24297493.01700 127684187.60200      -515.61600                
G14  20701046.72000 108784734.74800      -323.96400                
G15  25012813.89100 131443224.16500     -4062.59500                
G18  21869414.97400 114924551.36400      2524.23800                
G19  21679503.89800 113926561.92400     -2226.96700                
G22  23600842.73600 124023265.66600      2937.16600                
G23  20772176.42500 109158523.87300     -1235.94800                
G27  21235746.52200 111594601.17500      1830.26400                
G28  24236648.46600 127364447.32700     -3066.03600                
E01        22.14200       116.35700         0.00000                
E02        15.33800        80.60200         0.00000                
E03        15.33800        80.60200         0.00000                
E04        22.14200       116.35700         0.00000                
E05        15.33800        80.59900         0.00000                
E06        15.33800        80.59900         0.00000                
> 2025 04 22 14 02 55.0000000  0 16
G03  24412934.48500 128290836.61300      1572.88100                
G09  24297591.19700 127684703.54000      -516.25900                
G14  20701108.43700 108785059.07300      -324.68600                
G15  25013586.97600 131447286.75300     -4062.59900                
G18  21868934.64800 114922027.23500      2524.01300                
G19  21679927.70800 113928789.06000     -2227.31100                
G22  23600283.82900 124020328.59100      2936.97300                
G23  20772411.65300 109159760.00300     -1236.31400                
G27  21235398.28900 111592771.20000      1829.68100                
G28  24237231.94300 127367513.51900     -3066.36100                
E01        22.14200       116.35700         0.00000                
E02        15.33800        80.60200         0.00000                
E03        15.33800        80.60200         0.00000                
E04        22.14200       116.35700         0.00000                
E05        15.33800        80.59900         0.00000                
E06        15.33800        80.59900         0.00000                
> 2025 04 22 14 02 56.0000000  0 16
G03  24412635.22400 128289263.98600      1572.37000                
G09  24297689.49900 127685220.12000      -516.90200                
G14  20701170.29100 108785384.12000      -325.40800                
G15  25014360.06100 131451349.34400     -4062.60300                
G18  21868454.36500 114919503.33000      2523.78800                
G19  21680351.58300 113931016.54000     -2227.65500                
G22  23599724.95900 124017391.70800      2936.78100                
G23  20772646.95000 109160996.49900     -1236.67900                
G27  21235050.16800 111590941.80900      1829.09700                
G28  24237815.48200 127370580.03700     -3066.68700                
E01        22.14200       116.35700         0.00000                
E02        15.33800        80.60200         0.00000                
E03        15.33800        80.60200         0.00000                
E04        22.14200       116.35700         0.00000                
E05        15.33800        80.59900         0.00000                
E06        15.33800        80.59900         0.00000                
> 2025 04 22 14 02 57.0000000  0 16
G03  24412336.06100 128287691.87000      1571.85900                
G09  24297787.92300 127685737.34400      -517.54500                
G14  20701232.28300 108785709.88900      -326.13000                
G15  25015133.14700 131455411.93800     -4062.60700                
G18  21867974.12500 114916979.65000      2523.56300                
G19  21680775.52400 113933244.36400     -2228.00000                
G22  23599166.12600 124014455.01900      2936.58800                
G23  20772882.31700 109162233.36000     -1237.04500                
G27  21234702.15700 111589113.00200      1828.51300                
G28  24238399.08300 127373646.88100     -3067.01300                
E01        22.14200       116.35700         0.00000                
E02        15.33800        80.60200         0.00000                
E03        15.33800        80.60200         0.00000                
E04        22.14200       116.35700         0.00000                
E05        15.33800        80.59900         0.00000                
E06        15.33800        80.59900         0.00000                
> 2025 04 22 14 02 58.0000000  0 16
G03  24412036.99400 128286120.26500      1571.34700                
G09  24297886.47000 127686255.21000      -518.18800                
G14  20701294.41200 108786036.38100      -326.85200                
G15  25015906.23400 131459474.53600     -4062.61000                
G18  21867493.92700 114914456.19500      2523.33800                
G19  21681199.53000 113935472.53300     -2228.34400                
G22  23598607.32900 124011518.52100      2936.39600                
G23  20773117.75300 109163470.58600     -1237.41000                
G27  21234354.25800 111587284.77900      1827.92900                
G28  24238982.74600 127376714.05000     -3067.33800                
E01        22.14200       116.35700         0.00000                
E02        15.33800        80.60200         0.00000                
E03        15.33800        80.60200         0.00000                
E04        22.14200       116.35700         0.00000                
E05        15.33800        80.59900         0.00000                
E06        15.33800        80.59900         0.00000                
> 2025 04 22 14 02 59.0000000  0 16
G03  24411738.02500 128284549.17200      1570.83600                
G09  24297985.13900 127686773.71900      -518.83100                
G14  20701356.67900 108786363.59400      -327.57400                
G15  25016679.32100 131463537.13700     -4062.61400                
G18  21867013.77200 114911932.96600      2523.11300                
G19  21681623.60200 113937701.04600     -2228.68800                
G22  23598048.56800 124008582.21600      2936.20300                
G23  20773353.25900 109164708.17800     -1237.77600                
G27  21234006.47000 111585457.13900      1827.34500                
G28  24239566.47000 127379781.54500     -3067.66300                
E01        22.14200       116.35700         0.00000                
E02        15.33800        80.60200         0.00000                
E03        15.33800        80.60200         0.00000                
E04        22.14200       116.35700         0.00000                
E05        15.33800        80.59900         0.00000                
E06        15.33800        80.59900         0.00000                
> 2025 04 22 14 03  0.0000000  0 16
G03  24411439.15300 128282978.59000      1570.32500                
G09  24298083.93000 127687292.87200      -519.47400                
G14  20701419.08300 108786691.52900      -328.29700                
G15  25017452.40900 131467599.74300     -4062.61700                
G18  21866533.66000 114909409.96100      2522.88800                
G19  21682047.74000 113939929.90300     -2229.03300                
G22  23597489.84500 124005646.10400      2936.01100                
G23  20773588.83500 109165946.13500     -1238.14100                
G27  21233658.79300 111583630.08500      1826.76100                
G28  24240150.25700 127382849.36500     -3067.98900                
E01        22.14200       116.35700         0.00000                
E02        15.33800        80.60200         0.00000                
E03        15.33800        80.60200         0.00000                
E04        22.14200       116.35700         0.00000                
E05        15.33800        80.59900         0.00000                
E06        15.33800        80.59900         0.00000                
> 2025 04 22 14 03  1.0000000  0 16
G03  24411140.37900 128281408.52000      1569.81300                
G09  24298182.84400 127687812.66700      -520.11600                
G14  20701481.62400 108787020.18700      -329.01900                
G15  25018225.49800 131471662.35200     -4062.62100                
G18  21866053.59100 114906887.18100      2522.66300                
G19  21682471.94300 113942159.10500     -2229.37700                
G22  23596931.15800 124002710.18400      2935.81800                
G23  20773824.48000 109167184.45800     -1238.50600                
G27  21233311.22700 111581803.61300      1826.17700                
G28  24240734.10600 127385917.51000     -3068.31400                
E01        22.14200       116.35700         0.00000                
E02        15.33800        80.60200         0.00000                
E03        15.33800        80.60200         0.00000                
E04        22.14200       116.35700         0.00000                
E05        15.33800        80.59900         0.00000                
E06        15.33800        80.59900         0.00000                
> 2025 04 22 14 03  2.0000000  0 16
G03  24410841.70200 128279838.96000      1569.30200                
G09  24298281.88000 127688333.10400      -520.75900                
G14  20701544.30300 108787349.56600      -329.74100                
G15  25018998.58700 131475724.96400     -4062.62400                
G18  21865573.56500 114904364.62600      2522.43800                
G19  21682896.21100 113944388.65000     -2229.72100                
G22  23596372.50800 123999774.45700      2935.62500                
G23  20774060.19400 109168423.14600     -1238.87100                
G27  21232963.77200 111579977.72600      1825.59300                
G28  24241318.01600 127388985.98000     -3068.63900                
E01        22.14200       116.35700         0.00000                
E02        15.33800        80.60200         0.00000                
E03        15.33800        80.60200         0.00000                
E04        22.14200       116.35700         0.00000                
E05        15.33800        80.59900         0.00000                
E06        15.33800        80.59900         0.00000                
> 2025 04 22 14 03  3.0000000  0 16
G03  24410543.12200 128278269.91300      1568.79000                
G09  24298381.03800 127688854.18500      -521.40200                
G14  20701607.11900 108787679.66800      -330.46300                
G15  25019771.67700 131479787.57900     -4062.62700                
G18  21865093.58200 114901842.29700      2522.21300                
G19  21683320.54500 113946618.54000     -2230.06500                
G22  23595813.89400 123996838.92300      2935.43300                
G23  20774295.97800 109169662.19900     -1239.23600                
G27  21232616.42900 111578152.42300      1825.00900                
G28  24241901.98900 127392054.77600     -3068.96400                
E01        22.14200       116.35700         0.00000                
E02        15.33800        80.60200         0.00000                
E03        15.33800        80.60200         0.00000                
E04        22.14200       116.35700         0.00000                
E05        15.33800        80.59900         0.00000                
E06        15.33800        80.59900         0.00000                
> 2025 04 22 14 03  4.0000000  0 16
G03  24410244.63900 128276701.37700      1568.27900                
G09  24298480.31900 127689375.90800      -522.04500                
G14  20701670.07300 108788010.49200      -331.18500                
G15  25020544.76800 131483850.19700     -4062.63000                
G18  21864613.64100 114899320.19200      2521.98800                
G19  21683744.94400 113948848.77400     -2230.40900                
G22  23595255.31700 123993903.58100      2935.24000                
G23  20774531.83100 109170901.61700     -1239.60200                
G27  21232269.19600 111576327.70400      1824.42400                
G28  24242486.02300 127395123.89600     -3069.28900                
E01        22.14200       116.35700         0.00000                
E02        15.33800        80.60200         0.00000                
E03        15.33800        80.60200         0.00000                
E04        22.14200       116.35700         0.00000                
E05        15.33800        80.59900         0.00000                
E06        15.33800        80.59900         0.00000                
> 2025 04 22 14 03  5.0000000  0 16
G03  24409946.25400 128275133.35300      1567.76700                
G09  24298579.72200 127689898.27400      -522.68700                
G14  20701733.16400 108788342.03800      -331.90700                
G15  25021317.85900 131487912.81800     -4062.63300                
G18  21864133.74400 114896798.31300      2521.76200                
G19  21684169.40900 113951079.35200     -2230.75300                
G22  23594696.77700 123990968.43200      2935.04700                
G23  20774767.75400 109172141.40000     -1239.96700                
G27  21231922.07500 111574503.57000      1823.84000                
G28  24243070.11900 127398193.34100     -3069.61300                
E01        22.14200       116.35700         0.00000                
E02        15.33800        80.60200         0.00000                
E03        15.33800        80.60200         0.00000                
E04        22.14200       116.35700         0.00000                
E05        15.33800        80.59900         0.00000                
E06        15.33800        80.59900         0.00000                
> 2025 04 22 14 03  6.0000000  0 16
G03  24409647.96700 128273565.84000      1567.25500                
G09  24298679.24700 127690421.28200      -523.33000                
G14  20701796.39300 108788674.30600      -332.62900                
G15  25022090.95100 131491975.44300     -4062.63600                
G18  21863653.88900 114894276.66000      2521.53700                
G19  21684593.94000 113953310.27500     -2231.09800                
G22  23594138.27300 123988033.47600      2934.85400                
G23  20775003.74700 109173381.54800     -1240.33200                
G27  21231575.06500 111572680.02000      1823.25600                
G28  24243654.27700 127401263.11100     -3069.93800                
E01        22.14200       116.35700         0.00000                
E02        15.33800        80.60200         0.00000                
E03        15.33800        80.60200         0.00000                
E04        22.14200       116.35700         0.00000                
E05        15.33800        80.59900         0.00000                
E06        15.33800        80.59900         0.00000                
> 2025 04 22 14 03  7.0000000  0 15
G03  24409349.77600 128271998.84000      1566.74300                
G09  24298778.89400 127690944.93300      -523.97200                
G14  20701859.75800 108789007.29600      -333.35100                
G18  21863174.07700 114891755.23200      2521.31100                
G19  21685018.53600 113955541.54100     -2231.44200                
G22  23593579.80600 123985098.71200      2934.66200                
G23  20775239.80900 109174622.06200     -1240.69700                
G27  21231228.16600 111570857.05400      1822.67100                
G28  24244238.49600 127404333.20500     -3070.26300                
E01        22.14200       116.35700         0.00000                
E02        15.33800        80.60200         0.00000                
E03        15.33800        80.60200         0.00000                
E04        22.14200       116.35700         0.00000                
E05        15.33800        80.59900         0.00000                
E06        15.33800        80.59900         0.00000                
> 2025 04 22 14 03  8.0000000  0 15
G03  24409051.68400 128270432.35200      1566.23100                
G09  24298878.66400 127691469.22600      -524.61500                
G14  20701923.26200 108789341.00800      -334.07300                
G18  21862694.30800 114889234.02900      2521.08600                
G19  21685443.19700 113957773.15200     -2231.78600                
G22  23593021.37600 123982164.14200      2934.46900                
G23  20775475.94000 109175862.94000     -1241.06200                
G27  21230881.37900 111569034.67400      1822.08700                
G28  24244822.77700 127407403.62400     -3070.58700                
E01        22.14200       116.35700         0.00000                
E02        15.33800        80.60200         0.00000                
E03        15.33800        80.60200         0.00000                
E04        22.14200       116.35700         0.00000                
E05        15.33800        80.59900         0.00000                
E06        15.33800        80.59900         0.00000                
> 2025 04 22 14 03  9.0000000  0 15
G03  24408753.68800 128268866.37500      1565.71900                
G09  24298978.55600 127691994.16200      -525.25700                
G14  20701986.90200 108789675.44200      -334.79500                
G18  21862214.58300 114886713.05300      2520.86000                
G19  21685867.92400 113960005.10700     -2232.13000                
G22  23592462.98300 123979229.76400      2934.27600                
G23  20775712.14000 109177104.18300     -1241.42700                
G27  21230534.70200 111567212.87700      1821.50200                
G28  24245407.12000 127410474.36800     -3070.91200                
E01        22.14200       116.35700         0.00000                
E02        15.33800        80.60200         0.00000                
E03        15.33800        80.60200         0.00000                
E04        22.14200       116.35700         0.00000                
E05        15.33800        80.59900         0.00000                
E06        15.33800        80.59900         0.00000                
> 2025 04 22 14 03 10.0000000  0 15
G03  24408455.79000 128267300.91100      1565.20600                
G09  24299078.57000 127692519.74000      -525.90000                
G14  20702050.68100 108790010.59900      -335.51700                
G18  21861734.89900 114884192.30100      2520.63500                
G19  21686292.71600 113962237.40500     -2232.47400                
G22  23591904.62600 123976295.57900      2934.08300                
G23  20775948.41100 109178345.79100     -1241.79100                
G27  21230188.13700 111565391.66500      1820.91700                
G28  24245991.52500 127413545.43600     -3071.23600                
E01        22.14200       116.35700         0.00000                
E02        15.33800        80.60200         0.00000                
E03        15.33800        80.60200         0.00000                
E04        22.14200       116.35700         0.00000                
E05        15.33800        80.59900         0.00000                
E06        15.33800        80.59900         0.00000                
> 2025 04 22 14 03 11.0000000  0 15
G03  24408157.99000 128265735.95900      1564.69400                
G09  24299178.70700 127693045.96100      -526.54200                
G14  20702114.59600 108790346.47700      -336.23900                
G18  21861255.25900 114881671.77600      2520.40900                
G19  21686717.57400 113964470.04800     -2232.81800                
G22  23591346.30600 123973361.58700      2933.89000                
G23  20776184.75000 109179587.76400     -1242.15600                
G27  21229841.68300 111563571.03800      1820.33300                
G28  24246575.99200 127416616.82800     -3071.56000                
E01        22.14200       116.35700         0.00000                
E02        15.33800        80.60200         0.00000                
E03        15.33800        80.60200         0.00000                
E04        22.14200       116.35700         0.00000                
E05        15.33800        80.59900         0.00000                
E06        15.33800        80.59900         0.00000                
> 2025 04 22 14 03 12.0000000  0 15
G03  24407860.28700 128264171.52000      1564.18200                
G09  24299278.96500 127693572.82400      -527.18400                
G14  20702178.64900 108790683.07700      -336.96100                
G18  21860775.66200 114879151.47500      2520.18300                
G19  21687142.49700 113966703.03500     -2233.16200                
G22  23590788.02200 123970427.78800      2933.69700                
G23  20776421.15900 109180830.10200     -1242.52100                
G27  21229495.34100 111561750.99500      1819.74800                
G28  24247160.52000 127419688.54400     -3071.88400                
E01        22.14200       116.35700         0.00000                
E02        15.33800        80.60200         0.00000                
E03        15.33800        80.60200         0.00000                
E04        22.14200       116.35700         0.00000                
E05        15.33800        80.59900         0.00000                
E06        15.33800        80.59900         0.00000                
> 2025 04 22 14 03 13.0000000  0 15
G03  24407562.68200 128262607.59300      1563.66900                
G09  24299379.34600 127694100.32900      -527.82700                
G14  20702242.83900 108791020.40000      -337.68300                
G18  21860296.10800 114876631.40200      2519.95700                
G19  21687567.48600 113968936.36500     -2233.50600                
G22  23590229.77600 123967494.18200      2933.50400                
G23  20776657.63800 109182072.80400     -1242.88600                
G27  21229149.10900 111559931.53800      1819.16300                
G28  24247745.11000 127422760.58300     -3072.20800                
E01        22.14200       116.35700         0.00000                
E02        15.33800        80.60200         0.00000                
E03        15.33800        80.60200         0.00000                
E04        22.14200       116.35700         0.00000                
E05        15.33800        80.59900         0.00000                
E06        15.33800        80.59900         0.00000                
> 2025 04 22 14 03 14.0000000  0 15
G03  24407265.17400 128261044.17800      1563.15700                
G09  24299479.85000 127694628.47700      -528.46900                
G14  20702307.16700 108791358.44400      -338.40500                
G18  21859816.59700 114874111.55300      2519.73100                
G19  21687992.54000 113971170.04000     -2233.85000                
G22  23589671.56600 123964560.76900      2933.31100                
G23  20776894.18500 109183315.87100     -1243.25000                
G27  21228802.99000 111558112.66500      1818.57800                
G28  24248329.76100 127425832.94800     -3072.53200                
E01        22.14200       116.35700         0.00000                
E02        15.33800        80.60200         0.00000                
E03        15.33800        80.60200         0.00000                
E04        22.14200       116.35700         0.00000                
E05        15.33800        80.59900         0.00000                
E06        15.33800        80.59900         0.00000                
> 2025 04 22 14 03 15.0000000  0 15
G03  24406967.76300 128259481.27600      1562.64400                
G09  24299580.47500 127695157.26700      -529.11100                
G14  20702371.63200 108791697.21000      -339.12800                
G18  21859337.12900 114871591.93100      2519.50500                
G19  21688417.66000 113973404.05900     -2234.19400                
G22  23589113.39200 123961627.54900      2933.11800                
G23  20777130.80300 109184559.30300     -1243.61500                
G27  21228456.98100 111556294.37800      1817.99300                
G28  24248914.47400 127428905.63600     -3072.85600                
E01        22.14200       116.35700         0.00000                
E02        15.33800        80.60200         0.00000                
E03        15.33800        80.60200         0.00000                
E04        22.14200       116.35700         0.00000                
E05        15.33800        80.59900         0.00000                
E06        15.33800        80.59900         0.00000                
> 2025 04 22 14 03 16.0000000  0 15
G03  24406670.45000 128257918.88700      1562.13100                
G09  24299681.22200 127695686.69900      -529.75300                
G14  20702436.23500 108792036.69900      -339.85000                
G18  21858857.70400 114869072.53500      2519.27900                
G19  21688842.84500 113975638.42100     -2234.53800                
G22  23588555.25600 123958694.52200      2932.92500                
G23  20777367.48900 109185803.09900     -1243.97900                
G27  21228111.08400 111554476.67500      1817.40800                
G28  24249499.24900 127431978.64700     -3073.17900                
E01        22.14200       116.35700         0.00000                
E02        15.33800        80.60200         0.00000                
E03        15.33800        80.60200         0.00000                
E04        22.14200       116.35700         0.00000                
E05        15.33800        80.59900         0.00000                
E06        15.33800        80.59900         0.00000                
> 2025 04 22 14 03 17.0000000  0 15
G03  24406373.23500 128256357.01100      1561.61800                
G09  24299782.09200 127696216.77300      -530.39500                
G14  20702500.97500 108792376.90900      -340.57200                
G18  21858378.32100 114866553.36400      2519.05300                
G19  21689268.09500 113977873.12700     -2234.88100                
G22  23587997.15600 123955761.68800      2932.73200                
G23  20777604.24500 109187047.26000     -1244.34400                
G27  21227765.29800 111552659.55700      1816.82300                
G28  24250084.08500 127435051.98300     -3073.50300                
E01        22.14200       116.35700         0.00000                
E02        15.33800        80.60200         0.00000                
E03        15.33800        80.60200         0.00000                
E04        22.14200       116.35700         0.00000                
E05        15.33800        80.59900         0.00000                
E06        15.33800        80.59900         0.00000                
> 2025 04 22 14 03 18.0000000  0 15
G03  24406076.11800 128254795.64700      1561.10500                
G09  24299883.08400 127696747.48900      -531.03700                
G14  20702565.85200 108792717.84200      -341.29400                
G18  21857898.98200 114864034.41900      2518.82700                
G19  21689693.41100 113980108.17800     -2235.22500                
G22  23587439.09300 123952829.04700      2932.53900                
G23  20777841.07000 109188291.78500     -1244.70800                
G27  21227419.62300 111550843.02400      1816.23800                
G28  24250668.98300 127438125.64100     -3073.82700                
E01        22.14200       116.35700         0.00000                
E02        15.33800        80.60200         0.00000                
E03        15.33800        80.60200         0.00000                
E04        22.14200       116.35700         0.00000                
E05        15.33800        80.59900         0.00000                
E06        15.33800        80.59900         0.00000                
> 2025 04 22 14 03 19.0000000  0 15
G03  24405779.09800 128253234.79700      1560.59200                
G09  24299984.19800 127697278.84800      -531.68000                
G14  20702630.86700 108793059.49700      -342.01600                
G18  21857419.68600 114861515.70100      2518.60100                
G19  21690118.79200 113982343.57200     -2235.56900                
G22  23586881.06700 123949896.59900      2932.34600                
G23  20778077.96500 109189536.67500     -1245.07300                
G27  21227074.06000 111549027.07700      1815.65300                
G28  24251253.94200 127441199.62400     -3074.15000                
E01        22.14200       116.35700         0.00000                
E02        15.33800        80.60200         0.00000                
E03        15.33800        80.60200         0.00000                
E04        22.14200       116.35700         0.00000                
E05        15.33800        80.59900         0.00000                
E06        15.33800        80.59900         0.00000                
> 2025 04 22 14 03 20.0000000  0 15
G03  24405482.17500 128251674.46000      1560.07900                
G09  24300085.43500 127697810.84800      -532.32200                
G14  20702696.01900 108793401.87300      -342.73800                
G18  21856940.43300 114858997.21000      2518.37500                
G19  21690544.23900 113984579.31000     -2235.91300                
G22  23586323.07700 123946964.34500      2932.15300                
G23  20778314.92900 109190781.92900     -1245.43700                
G27  21226728.60800 111547211.71500      1815.06700                
G28  24251838.96300 127444273.93000     -3074.47300                
E01        22.14200       116.35700         0.00000                
E02        15.33800        80.60200         0.00000                
E03        15.33800        80.60200         0.00000                
E04        22.14200       116.35700         0.00000                
E05        15.33800        80.59900         0.00000                
E06        15.33800        80.59900         0.00000                
> 2025 04 22 14 03 21.0000000  0 15
G03  24405185.35100 128250114.63500      1559.56600                
G09  24300186.79300 127698343.49000      -532.96300                
G14  20702761.30800 108793744.97200      -343.46000                
G18  21856461.22300 114856478.94400      2518.14900                
G19  21690969.75100 113986815.39100     -2236.25700                
G22  23585765.12500 123944032.28300      2931.95900                
G23  20778551.96200 109192027.54700     -1245.80200                
G27  21226383.26700 111545396.93800      1814.48200                
G28  24252424.04600 127447348.55900     -3074.79700                
E01        22.14200       116.35700         0.00000                
E02        15.33800        80.60200         0.00000                
E03        15.33800        80.60200         0.00000                
E04        22.14200       116.35700         0.00000                
E05        15.33800        80.59900         0.00000                
E06        15.33800        80.59900         0.00000                
> 2025 04 22 14 03 22.0000000  0 15
G03  24404888.62400 128248555.32400      1559.05300                
G09  24300288.27400 127698876.77500      -533.60500                
G14  20702826.73500 108794088.79200      -344.18200                
G18  21855982.05600 114853960.90400      2517.92200                
G19  21691395.32900 113989051.81700     -2236.60100                
G22  23585207.20900 123941100.41500      2931.76600                
G23  20778789.06500 109193273.53000     -1246.16600                
G27  21226038.03800 111543582.74700      1813.89700                
G28  24253009.19000 127450423.51100     -3075.12000                
E01        22.14200       116.35700         0.00000                
E02        15.33800        80.60200         0.00000                
E03        15.33800        80.60200         0.00000                
E04        22.14200       116.35700         0.00000                
E05        15.33800        80.59900         0.00000                
E06        15.33800        80.59900         0.00000                
> 2025 04 22 14 03 23.0000000  0 15
G03  24404591.99400 128246996.52600      1558.53900                
G09  24300389.87600 127699410.70100      -534.24700                
G14  20702892.29900 108794433.33500      -344.90400                
G18  21855502.93200 114851443.09100      2517.69600                
G19  21691820.97200 113991288.58600     -2236.94400                
G22  23584649.32900 123938168.74000      2931.57300                
G23  20779026.23700 109194519.87700     -1246.53000                
G27  21225692.92000 111541769.14100      1813.31100                
G28  24253594.39500 127453498.78600     -3075.44300                
E01        22.14200       116.35700         0.00000                
E02        15.33800        80.60200         0.00000                
E03        15.33800        80.60200         0.00000                
E04        22.14200       116.35700         0.00000                
E05        15.33800        80.59900         0.00000                
E06        15.33800        80.59900         0.00000                
> 2025 04 22 14 03 24.0000000  0 15
G03  24404295.46300 128245438.24200      1558.02600                
G09  24300491.60100 127699945.26900      -534.88900                
G14  20702958.00100 108794778.59900      -345.62600                
G18  21855023.85100 114848925.50500      2517.46900                
G19  21692246.68100 113993525.69900     -2237.28800                
G22  23584091.48700 123935237.25900      2931.38000                
G23  20779263.47800 109195766.58800     -1246.89400                
G27  21225347.91400 111539956.12000      1812.72600                
G28  24254179.66200 127456574.38400     -3075.76600                
E01        22.14200       116.35700         0.00000                
E02        15.33800        80.60200         0.00000                
E03        15.33800        80.60200         0.00000                
E04        22.14200       116.35700         0.00000                
E05        15.33800        80.59900         0.00000                
E06        15.33800        80.59900         0.00000                
> 2025 04 22 14 03 25.0000000  0 15
G03  24403999.02900 128243880.47100      1557.51200                
G09  24300593.44800 127700480.47900      -535.53100                
G14  20703023.84000 108795124.58600      -346.34800                
G18  21854544.81300 114846408.14400      2517.24300                
G19  21692672.45400 113995763.15600     -2237.63200                
G22  23583533.68100 123932305.97000      2931.18600                
G23  20779500.78900 109197013.66300     -1247.25800                
G27  21225003.01900 111538143.68500      1812.14000                
G28  24254764.99000 127459650.30500     -3076.08800                
E01        22.14200       116.35700         0.00000                
E02        15.33800        80.60200         0.00000                
E03        15.33800        80.60200         0.00000                
E04        22.14200       116.35700         0.00000                
E05        15.33800        80.59900         0.00000                
E06        15.33800        80.59900         0.00000                
> 2025 04 22 14 03 26.0000000  0 15
G03  24403702.69300 128242323.21400      1556.99900                
G09  24300695.41800 127701016.33000      -536.17300                
G14  20703089.81600 108795471.29400      -347.07000                
G18  21854065.81900 114843891.01100      2517.01600                
G19  21693098.29400 113998000.95700     -2237.97600                
G22  23582975.91300 123929374.87500      2930.99300                
G23  20779738.16800 109198261.10300     -1247.62200                
G27  21224658.23600 111536331.83600      1811.55400                
G28  24255350.38000 127462726.54900     -3076.41100                
E01        22.14200       116.35700         0.00000                
E02        15.33800        80.60200         0.00000                
E03        15.33800        80.60200         0.00000                
E04        22.14200       116.35700         0.00000                
E05        15.33800        80.59900         0.00000                
E06        15.33800        80.59900         0.00000                
> 2025 04 22 14 03 27.0000000  0 15
G03  24403406.45400 128240766.47100      1556.48500                
G09  24300797.50900 127701552.82400      -536.81400                
G14  20703155.93000 108795818.72500      -347.79200                
G18  21853586.86700 114841374.10400      2516.79000                
G19  21693524.19800 114000239.10100     -2238.31900                
G22  23582418.18100 123926443.97300      2930.80000                
G23  20779975.61800 109199508.90700     -1247.98600                
G27  21224313.56400 111534520.57200      1810.96900                
G28  24255935.83100 127465803.11600     -3076.73400                
E01        22.14200       116.35700         0.00000                
E02        15.33800        80.60200         0.00000                
E03        15.33800        80.60200         0.00000                
E04        22.14200       116.35700         0.00000                
E05        15.33800        80.59900         0.00000                
E06        15.33800        80.59900         0.00000                
> 2025 04 22 14 03 28.0000000  0 15
G03  24403110.31300 128239210.24100      1555.97100                
G09  24300899.72200 127702089.95900      -537.45600                
G14  20703222.18100 108796166.87700      -348.51300                
G18  21853107.95900 114838857.42400      2516.56300                
G19  21693950.16900 114002477.58900     -2238.66300                
G22  23581860.48500 123923513.26500      2930.60600                
G23  20780213.13600 109200757.07400     -1248.35000                
G27  21223969.00300 111532709.89400      1810.38300                
G28  24256521.34400 127468880.00500     -3077.05600                
E01        22.14200       116.35700         0.00000                
E02        15.33800        80.60200         0.00000                
E03        15.33800        80.60200         0.00000                
E04        22.14200       116.35700         0.00000                
E05        15.33800        80.59900         0.00000                
E06        15.33800        80.59900         0.00000                
> 2025 04 22 14 03 29.0000000  0 15
G03  24402814.27100 128237654.52500      1555.45700                
G09  24301002.05800 127702627.73600      -538.09800                
G14  20703288.57000 108796515.75200      -349.23500                
G18  21852629.09400 114836340.97000      2516.33600                
G19  21694376.20400 114004716.42100     -2239.00700                
G22  23581302.82700 123920582.75100      2930.41300                
G23  20780450.72400 109202005.60500     -1248.71400                
G27  21223624.55400 111530899.80200      1809.79700                
G28  24257106.91800 127471957.21600     -3077.37900                
E01        22.14200       116.35700         0.00000                
E02        15.33800        80.60200         0.00000                
E03        15.33800        80.60200         0.00000                
E04        22.14200       116.35700         0.00000                
E05        15.33800        80.59900         0.00000                
E06        15.33800        80.59900         0.00000                
> 2025 04 22 14 03 30.0000000  0 15
G03  24402518.32600 128236099.32300      1554.94300                
G09  24301104.51500 127703166.15400      -538.73900                
G14  20703355.09600 108796865.34800      -349.95700                
G18  21852150.27200 114833824.74300      2516.10900                
G19  21694802.30500 114006955.59600     -2239.35000                
G22  23580745.20500 123917652.42900      2930.21900                
G23  20780688.38100 109203254.50100     -1249.07800                
G27  21223280.21600 111529090.29600      1809.21100                
G28  24257692.55300 127475034.75100     -3077.70100                
E01        22.14200       116.35700         0.00000                
E02        15.33800        80.60200         0.00000                
E03        15.33800        80.60200         0.00000                
E04        22.14200       116.35700         0.00000                
E05        15.33800        80.59900         0.00000                
E06        15.33800        80.59900         0.00000                
> 2025 04 22 14 03 31.0000000  0 15
G03  24402222.47800 128234544.63500      1554.42900                
G09  24301207.09500 127703705.21400      -539.38100                
G14  20703421.75900 108797215.66600      -350.67900                
G18  21851671.49300 114831308.74300      2515.88200                
G19  21695228.47100 114009195.11500     -2239.69400                
G22  23580187.62000 123914722.30100      2930.02600                
G23  20780926.10700 109204503.76000     -1249.44200                
G27  21222935.99000 111527281.37600      1808.62500                
G28  24258278.24900 127478112.60700     -3078.02300                
E01        22.14200       116.35700         0.00000                
E02        15.33800        80.60200         0.00000                
E03        15.33800        80.60200         0.00000                
E04        22.14200       116.35700         0.00000                
E05        15.33800        80.59900         0.00000                
E06        15.33800        80.59900         0.00000                
> 2025 04 22 14 03 32.0000000  0 15
G03  24401926.72900 128232990.46200      1553.91500                
G09  24301309.79700 127704244.91500      -540.02200                
G14  20703488.56000 108797566.70700      -351.40100                
G18  21851192.75700 114828792.97000      2515.65600                
G19  21695654.70300 114011434.97700     -2240.03700                
G22  23579630.07200 123911792.36700      2929.83200                
G23  20781163.90200 109205753.38300     -1249.80600                
G27  21222591.87600 111525473.04200      1808.03900                
G28  24258864.00700 127481190.78600     -3078.34600                
E01        22.14200       116.35700         0.00000                
E02        15.33800        80.60200         0.00000                
E03        15.33800        80.60200         0.00000                
E04        22.14200       116.35700         0.00000                
E05        15.33800        80.59900         0.00000                
E06        15.33800        80.59900         0.00000                
> 2025 04 22 14 03 33.0000000  0 15
G03  24401631.07700 128231436.80200      1553.40100                
G09  24301412.62100 127704785.25800      -540.66400                
G14  20703555.49800 108797918.46900      -352.12300                
G18  21850714.06500 114826277.42400      2515.42900                
G19  21696081.00000 114013675.18300     -2240.38100                
G22  23579072.56100 123908862.62600      2929.63900                
G23  20781401.76700 109207003.37000     -1250.17000                
G27  21222247.87300 111523665.29400      1807.45300                
G28  24259449.82700 127484269.28700     -3078.66800                
E01        22.14200       116.35700         0.00000                
E02        15.33800        80.60200         0.00000                
E03        15.33800        80.60200         0.00000                
E04        22.14200       116.35700         0.00000                
E05        15.33800        80.59900         0.00000                
E06        15.33800        80.59900         0.00000                
> 2025 04 22 14 03 34.0000000  0 15
G03  24401335.52400 128229883.65700      1552.88700                
G09  24301515.56700 127705326.24300      -541.30500                
G14  20703622.57400 108798270.95300      -352.84500                
G18  21850235.41600 114823762.10500      2515.20200                
G19  21696507.36200 114015915.73300     -2240.72400                
G22  23578515.08700 123905933.07900      2929.44500                
G23  20781639.70000 109208253.72100     -1250.53300                
G27  21221903.98100 111521858.13200      1806.86700                
G28  24260035.70700 127487348.10900     -3078.99000                
E01        22.14200       116.35700         0.00000                
E02        15.33800        80.60200         0.00000                
E03        15.33800        80.60200         0.00000                
E04        22.14200       116.35700         0.00000                
E05        15.33800        80.59900         0.00000                
E06        15.33800        80.59900         0.00000                
> 2025 04 22 14 03 35.0000000  0 15
G03  24401040.06800 128228331.02500      1552.37200                
G09  24301618.63500 127705867.86800      -541.94700                
G14  20703689.78700 108798624.15900      -353.56700                
G18  21849756.80900 114821247.01300      2514.97400                
G19  21696933.79000 114018156.62600     -2241.06800                
G22  23577957.65000 123903003.72500      2929.25100                
G23  20781877.70300 109209504.43500     -1250.89700                
G27  21221560.20100 111520051.55600      1806.28100                
G28  24260621.64900 127490427.25300     -3079.31200                
E01        22.14200       116.35700         0.00000                
E02        15.33800        80.60200         0.00000                
E03        15.33800        80.60200         0.00000                
E04        22.14200       116.35700         0.00000                
E05        15.33800        80.59900         0.00000                
E06        15.33800        80.59900         0.00000                
> 2025 04 22 14 03 36.0000000  0 15
G03  24400744.71000 128226778.90900      1551.85800                
G09  24301721.82500 127706410.13600      -542.58800                
G14  20703757.13700 108798978.08700      -354.28900                
G18  21849278.24700 114818732.14900      2514.74700                
G19  21697360.28300 114020397.86300     -2241.41100                
G22  23577400.24900 123900074.56500      2929.05800                
G23  20782115.77600 109210755.51300     -1251.26100                
G27  21221216.53300 111518245.56600      1805.69400                
G28  24261207.65200 127493506.72000     -3079.63300                
E01        22.14200       116.35700         0.00000                
E02        15.33800        80.60200         0.00000                
E03        15.33800        80.60200         0.00000                
E04        22.14200       116.35700         0.00000                
E05        15.33800        80.59900         0.00000                
E06        15.33800        80.59900         0.00000                
> 2025 04 22 14 03 37.0000000  0 15
G03  24400449.45000 128225227.30700      1551.34300                
G09  24301825.13700 127706953.04400      -543.22900                
G14  20703824.62500 108799332.73700      -355.01100                
G18  21848799.72700 114816217.51100      2514.52000                
G19  21697786.84200 114022639.44300     -2241.75500                
G22  23576842.88500 123897145.59800      2928.86400                
G23  20782353.91700 109212006.95400     -1251.62400                
G27  21220872.97600 111516440.16400      1805.10800                
G28  24261793.71600 127496586.50800     -3079.95500                
E01        22.14200       116.35700         0.00000                
E02        15.33800        80.60200         0.00000                
E03        15.33800        80.60200         0.00000                
E04        22.14200       116.35700         0.00000                
E05        15.33800        80.59900         0.00000                
E06        15.33800        80.59900         0.00000                
> 2025 04 22 14 03 38.0000000  0 15
G03  24400154.28800 128223676.22000      1550.82800                
G09  24301928.57100 127707496.59400      -543.87100                
G14  20703892.25000 108799688.10900      -355.73300                
G18  21848321.25100 114813703.10000      2514.29300                
G19  21698213.46600 114024881.36600     -2242.09800                
G22  23576285.55800 123894216.82500      2928.67100                
G23  20782592.12800 109213258.75900     -1251.98800                
G27  21220529.53100 111514635.34700      1804.52200                
G28  24262379.84100 127499666.61800     -3080.27700                
E01        22.14200       116.35700         0.00000                
E02        15.33800        80.60200         0.00000                
E03        15.33800        80.60200         0.00000                
E04        22.14200       116.35700         0.00000                
E05        15.33800        80.59900         0.00000                
E06        15.33800        80.59900         0.00000                
> 2025 04 22 14 03 39.0000000  0 15
G03  24399859.22300 128222125.64700      1550.31400                
G09  24302032.12700 127708040.78500      -544.51200                
G14  20703960.01200 108800044.20300      -356.45500                
G18  21847842.81700 114811188.91800      2514.06500                
G19  21698640.15500 114027123.63300     -2242.44200                
G22  23575728.26800 123891288.24700      2928.47700                
G23  20782830.40700 109214510.92800     -1252.35100                
G27  21220186.19700 111512831.11600      1803.93500                
G28  24262966.02800 127502747.04900     -3080.59800                
E01        22.14200       116.35700         0.00000                
E02        15.33800        80.60200         0.00000                
E03        15.33800        80.60200         0.00000                
E04        22.14200       116.35700         0.00000                
E05        15.33800        80.59900         0.00000                
E06        15.33800        80.59900         0.00000                
> 2025 04 22 14 03 40.0000000  0 15
G03  24399564.25700 128220575.59000      1549.79900                
G09  24302135.80500 127708585.61700      -545.15300                
G14  20704027.91200 108800401.01800      -357.17700                
G18  21847364.42800 114808674.96200      2513.83800                
G19  21699066.90900 114029366.24400     -2242.78500                
G22  23575171.01500 123888359.86100      2928.28300                
G23  20783068.75600 109215763.46000     -1252.71500                
G27  21219842.97500 111511027.47200      1803.34900                
G28  24263552.27600 127505827.80200     -3080.91900                
E01        22.14200       116.35700         0.00000                
E02        15.33800        80.60200         0.00000                
E03        15.33800        80.60200         0.00000                
E04        22.14200       116.35700         0.00000                
E05        15.33800        80.59900         0.00000                
E06        15.33800        80.59900         0.00000                
> 2025 04 22 14 03 41.0000000  0 15
G03  24399269.38900 128219026.04700      1549.28400                
G09  24302239.60500 127709131.09000      -545.79400                
G14  20704095.94900 108800758.55600      -357.89900                
G18  21846886.08100 114806161.23300      2513.61100                
G19  21699493.72900 114031609.19700     -2243.12900                
G22  23574613.79900 123885431.67000      2928.08900                
G23  20783307.17400 109217016.35500     -1253.07800                
G27  21219499.86500 111509224.41500      1802.76200                
G28  24264138.58500 127508908.87600     -3081.24100                
E01        22.14200       116.35700         0.00000                
E02        15.33800        80.60200         0.00000                
E03        15.33800        80.60200         0.00000                
E04        22.14200       116.35700         0.00000                
E05        15.33800        80.59900         0.00000                
E06        15.33800        80.59900         0.00000                
> 2025 04 22 14 03 42.0000000  0 15
G03  24398974.61900 128217477.01900      1548.76900                
G09  24302343.52700 127709677.20500      -546.43500                
G14  20704164.12300 108801116.81500      -358.62000                
G18  21846407.77800 114803647.73200      2513.38300                
G19  21699920.61500 114033852.49500     -2243.47200                
G22  23574056.61900 123882503.67200      2927.89500                
G23  20783545.66200 109218269.61400     -1253.44100                
G27  21219156.86600 111507421.94500      1802.17500                
G28  24264724.95500 127511990.27100     -3081.56200                
E01        22.14200       116.35700         0.00000                
E02        15.33800        80.60200         0.00000                
E03        15.33800        80.60200         0.00000                
E04        22.14200       116.35700         0.00000                
E05        15.33800        80.59900         0.00000                
E06        15.33800        80.59900         0.00000                
> 2025 04 22 14 03 43.0000000  0 15
G03  24398679.94700 128215928.50600      1548.25400                
G09  24302447.57100 127710223.96000      -547.07600                
G14  20704232.43500 108801475.79600      -359.34200                
G18  21845929.51800 114801134.45900      2513.15500                
G19  21700347.56500 114036096.13500     -2243.81500                
G22  23573499.47700 123879575.86800      2927.70200                
G23  20783784.21800 109219523.23600     -1253.80500                
G27  21218813.97900 111505620.06100      1801.58900                
G28  24265311.38600 127515071.98800     -3081.88300                
E01        22.14200       116.35700         0.00000                
E02        15.33800        80.60200         0.00000                
E03        15.33800        80.60200         0.00000                
E04        22.14200       116.35700         0.00000                
E05        15.33800        80.59900         0.00000                
E06        15.33800        80.59900         0.00000                
> 2025 04 22 14 03 44.0000000  0 15
G03  24398385.37300 128214380.50900      1547.73900                
G09  24302551.73700 127710771.35700      -547.71700                
G14  20704300.88400 108801835.50000      -360.06400                
G18  21845451.30100 114798621.41400      2512.92800                
G19  21700774.58100 114038340.11900     -2244.15900                
G22  23572942.37100 123876648.25800      2927.50800                
G23  20784022.84300 109220777.22100     -1254.16800                
G27  21218471.20400 111503818.76300      1801.00200                
G28  24265897.87800 127518154.02500     -3082.20400                
E01        22.14200       116.35700         0.00000                
E02        15.33800        80.60200         0.00000                
E03        15.33800        80.60200         0.00000                
E04        22.14200       116.35700         0.00000                
E05        15.33800        80.59900         0.00000                
E06        15.33800        80.59900         0.00000                
> 2025 04 22 14 03 45.0000000  0 15
G03  24398090.89600 128212833.02600      1547.22300                
G09  24302656.02500 127711319.39400      -548.35800                
G14  20704369.47100 108802195.92500      -360.78600                
G18  21844973.12800 114796108.59500      2512.70000                
G19  21701201.66200 114040584.44600     -2244.50200                
G22  23572385.30200 123873720.84200      2927.31400                
G23  20784261.53800 109222031.57000     -1254.53100                
G27  21218128.54000 111502018.05300      1800.41500                
G28  24266484.43100 127521236.38300     -3082.52500                
E01        22.14200       116.35700         0.00000                
E02        15.33800        80.60200         0.00000                
E03        15.33800        80.60200         0.00000                
E04        22.14200       116.35700         0.00000                
E05        15.33800        80.59900         0.00000                
E06        15.33800        80.59900         0.00000                
> 2025 04 22 14 03 46.0000000  0 15
G03  24397796.51800 128211286.05900      1546.70800                
G09  24302760.43600 127711868.07300      -548.99900                
G14  20704438.19500 108802557.07200      -361.50800                
G18  21844494.99800 114793596.00600      2512.47200                
G19  21701628.80900 114042829.11700     -2244.84500                
G22  23571828.27000 123870793.61900      2927.12000                
G23  20784500.30200 109223286.28100     -1254.89400                
G27  21217785.98800 111500217.92900      1799.82800                
G28  24267071.04600 127524319.06300     -3082.84600                
E01        22.14200       116.35700         0.00000                
E02        15.33800        80.60200         0.00000                
E03        15.33800        80.60200         0.00000                
E04        22.14200       116.35700         0.00000                
E05        15.33800        80.59900         0.00000                
E06        15.33800        80.59900         0.00000                
> 2025 04 22 14 03 47.0000000  0 15
G03  24397502.23800 128209739.60800      1546.19200                
G09  24302864.96700 127712417.39200      -549.64000                
G14  20704507.05600 108802918.94100      -362.23000                
G18  21844016.91100 114791083.64300      2512.24500                
G19  21702056.02100 114045074.13100     -2245.18900                
G22  23571271.27500 123867866.59000      2926.92600                
G23  20784739.13400 109224541.35600     -1255.25700                
G27  21217443.54700 111498418.39300      1799.24100                
G28  24267657.72100 127527402.06300     -3083.16600                
E01        22.14200       116.35700         0.00000                
E02        15.33800        80.60200         0.00000                
E03        15.33800        80.60200         0.00000                
E04        22.14200       116.35700         0.00000                
E05        15.33800        80.59900         0.00000                
E06        15.33800        80.59900         0.00000                
> 2025 04 22 14 03 48.0000000  0 15
G03  24397208.05700 128208193.67200      1545.67700                
G09  24302969.62100 127712967.35200      -550.28100                
G14  20704576.05500 108803281.53100      -362.95200                
G18  21843538.86800 114788571.50800      2512.01700                
G19  21702483.29800 114047319.48800     -2245.53200                
G22  23570714.31700 123864939.75700      2926.73200                
G23  20784978.03600 109225796.79400     -1255.62000                
G27  21217101.21800 111496619.44300      1798.65400                
G28  24268244.45700 127530485.38400     -3083.48700                
E01        22.14200       116.35700         0.00000                
E02        15.33800        80.60200         0.00000                
E03        15.33800        80.60200         0.00000                
E04        22.14200       116.35700         0.00000                
E05        15.33800        80.59900         0.00000                
E06        15.33800        80.59900         0.00000                
> 2025 04 22 14 03 49.0000000  0 15
G03  24396913.97300 128206648.25100      1545.16100                
G09  24303074.39700 127713517.95300      -550.92200                
G14  20704645.19100 108803644.84400      -363.67300                
G18  21843060.86800 114786059.60200      2511.78900                
G19  21702910.64100 114049565.18800     -2245.87500                
G22  23570157.39600 123862013.11600      2926.53800                
G23  20785217.00700 109227052.59500     -1255.98300                
G27  21216759.00100 111494821.08100      1798.06700                
G28  24268831.25500 127533569.02400     -3083.80700                
E01        22.14200       116.35700         0.00000                
E02        15.33800        80.60200         0.00000                
E03        15.33800        80.60200         0.00000                
E04        22.14200       116.35700         0.00000                
E05        15.33800        80.59900         0.00000                
E06        15.33800        80.59900         0.00000                
> 2025 04 22 14 03 50.0000000  0 15
G03  24396619.98700 128205103.34600      1544.64500                
G09  24303179.29500 127714069.19500      -551.56200                
G14  20704714.46500 108804008.87800      -364.39500                
G18  21842582.91100 114783547.92300      2511.56100                
G19  21703338.04900 114051811.23100     -2246.21800                
G22  23569600.51200 123859086.66900      2926.34400                
G23  20785456.04700 109228308.75800     -1256.34600                
G27  21216416.89600 111493023.30500      1797.48000                
G28  24269418.11300 127536652.98600     -3084.12800                
E01        22.14200       116.35700         0.00000                
E02        15.33800        80.60200         0.00000                
E03        15.33800        80.60200         0.00000                
E04        22.14200       116.35700         0.00000                
E05        15.33800        80.59900         0.00000                
E06        15.33800        80.59900         0.00000                
> 2025 04 22 14 03 51.0000000  0 15
G03  24396326.10000 128203558.95700      1544.13000                
G09  24303284.31500 127714621.07800      -552.20300                
G14  20704783.87500 108804373.63400      -365.11700                
G18  21842104.99800 114781036.47200      2511.33300                
G19  21703765.52200 114054057.61800     -2246.56100                
G22  23569043.66400 123856160.41700      2926.15000                
G23  20785695.15600 109229565.28500     -1256.70900                
G27  21216074.90300 111491226.11700      1796.89200                
G28  24270005.03300 127539737.26800     -3084.44800                
E01        22.14200       116.35700         0.00000                
E02        15.33800        80.60200         0.00000                
E03        15.33800        80.60200         0.00000                
E04        22.14200       116.35700         0.00000                
E05        15.33800        80.59900         0.00000                
E06        15.33800        80.59900         0.00000                
> 2025 04 22 14 03 52.0000000  0 15
G03  24396032.31000 128202015.08400      1543.61400                
G09  24303389.45700 127715173.60100      -552.84400                
G14  20704853.42400 108804739.11200      -365.83900                
G18  21841627.12800 114778525.24900      2511.10500                
G19  21704193.06000 114056304.34800     -2246.90500                
G22  23568486.85400 123853234.35800      2925.95600                
G23  20785934.33400 109230822.17500     -1257.07200                
G27  21215733.02100 111489429.51700      1796.30500                
G28  24270592.01300 127542821.87100     -3084.76800                
E01        22.14200       116.35700         0.00000                
E02        15.33800        80.60200         0.00000                
E03        15.33800        80.60200         0.00000                
E04        22.14200       116.35700         0.00000                
E05        15.33800        80.59900         0.00000                
E06        15.33800        80.59900         0.00000                
> 2025 04 22 14 03 53.0000000  0 15
G03  24395738.61900 128200471.72700      1543.09800                
G09  24303494.72000 127715726.76500      -553.48400                
G14  20704923.10900 108805105.31200      -366.56100                
G18  21841149.30200 114776014.25500      2510.87700                
G19  21704620.66400 114058551.42100     -2247.24800                
G22  23567930.08100 123850308.49500      2925.76200                
G23  20786173.58200 109232079.42700     -1257.43500                
G27  21215391.25100 111487633.50300      1795.71800                
G28  24271179.05400 127545906.79300     -3085.08900                
E01        22.14200       116.35700         0.00000                
E02        15.33800        80.60200         0.00000                
E03        15.33800        80.60200         0.00000                
E04        22.14200       116.35700         0.00000                
E05        15.33800        80.59900         0.00000                
E06        15.33800        80.59900         0.00000                
> 2025 04 22 14 03 54.0000000  0 15
G03  24395445.02600 128198928.88500      1542.58200                
G09  24303600.10600 127716280.57000      -554.12500                
G14  20704992.93200 108805472.23400      -367.28300                
G18  21840671.51900 114773503.48800      2510.64800                
G19  21705048.33300 114060798.83700     -2247.59100                
G22  23567373.34400 123847382.82400      2925.56800                
G23  20786412.89800 109233337.04200     -1257.79800                
G27  21215049.59300 111485838.07700      1795.13000                
G28  24271766.15600 127548992.03600     -3085.40900                
E01        22.14200       116.35700         0.00000                
E02        15.33800        80.60200         0.00000                
E03        15.33800        80.60200         0.00000                
E04        22.14200       116.35700         0.00000                
E05        15.33800        80.59900         0.00000                
E06        15.33800        80.59900         0.00000                
> 2025 04 22 14 03 55.0000000  0 15
G03  24395151.53200 128197386.56000      1542.06600                
G09  24303705.61300 127716835.01500      -554.76600                
G14  20705062.89200 108805839.87700      -368.00400                
G18  21840193.77900 114770992.95000      2510.42000                
G19  21705476.06700 114063046.59700     -2247.93400                
G22  23566816.64500 123844457.34800      2925.37300                
G23  20786652.28300 109234595.02000     -1258.16000                
G27  21214708.04600 111484043.23800      1794.54300                
G28  24272353.31900 127552077.59800     -3085.72800                
E01        22.14200       116.35700         0.00000                
E02        15.33800        80.60200         0.00000                
E03        15.33800        80.60200         0.00000                
E04        22.14200       116.35700         0.00000                
E05        15.33800        80.59900         0.00000                
E06        15.33800        80.59900         0.00000                
> 2025 04 22 14 03 56.0000000  0 15
G03  24394858.13500 128195844.75100      1541.54900                
G09  24303811.24200 127717390.10000      -555.40600                
G14  20705132.99000 108806208.24200      -368.72600                
G18  21839716.08300 114768482.64000      2510.19200                
G19  21705903.86700 114065294.69900     -2248.27700                
G22  23566259.98200 123841532.06600      2925.17900                
G23  20786891.73700 109235853.36100     -1258.52300                
G27  21214366.61200 111482248.98700      1793.95500                
G28  24272940.54300 127555163.48100     -3086.04800                
E01        22.14200       116.35700         0.00000                
E02        15.33800        80.60200         0.00000                
E03        15.33800        80.60200         0.00000                
E04        22.14200       116.35700         0.00000                
E05        15.33800        80.59900         0.00000                
E06        15.33800        80.59900         0.00000                
> 2025 04 22 14 03 57.0000000  0 15
G03  24394564.83700 128194303.45900      1541.03300                
G09  24303916.99400 127717945.82600      -556.04700                
G14  20705203.22500 108806577.33000      -369.44800                
G18  21839238.43000 114765972.55900      2509.96300                
G19  21706331.73200 114067543.14400     -2248.62000                
G22  23565703.35600 123838606.97900      2924.98500                
G23  20787131.26100 109237112.06400     -1258.88600                
G27  21214025.28900 111480455.32300      1793.36800                
G28  24273527.82800 127558249.68300     -3086.36800                
E01        22.14200       116.35700         0.00000                
E02        15.33800        80.60200         0.00000                
E03        15.33800        80.60200         0.00000                
E04        22.14200       116.35700         0.00000                
E05        15.33800        80.59900         0.00000                
E06        15.33800        80.59900         0.00000                
> 2025 04 22 14 03 58.0000000  0 15
G03  24394271.63700 128192762.68300      1540.51700                
G09  24304022.86700 127718502.19300      -556.68700                
G14  20705273.59700 108806947.13800      -370.17000                
G18  21838760.82100 114763462.70500      2509.73500                
G19  21706759.66200 114069791.93300     -2248.96300                
G22  23565146.76800 123835682.08600      2924.79100                
G23  20787370.85300 109238371.13000     -1259.24800                
G27  21213684.07800 111478662.24700      1792.78000                
G28  24274115.17300 127561336.20400     -3086.68800                
E01        22.14200       116.35700         0.00000                
E02        15.33800        80.60200         0.00000                
E03        15.33800        80.60200         0.00000                
E04        22.14200       116.35700         0.00000                
E05        15.33800        80.59900         0.00000                
E06        15.33800        80.59900         0.00000                
> 2025 04 22 14 03 59.0000000  0 15
G03  24393978.53500 128191222.42300      1540.00000                
G09  24304128.86200 127719059.20000      -557.32700                
G14  20705344.10700 108807317.66900      -370.89200                
G18  21838283.25600 114760953.08100      2509.50600                
G19  21707187.65800 114072041.06400     -2249.30600                
G22  23564590.21600 123832757.38700      2924.59600                
G23  20787610.51400 109239630.55800     -1259.61100                
G27  21213342.97800 111476869.75900      1792.19200                
G28  24274702.58000 127564423.04600     -3087.00700                
E01        22.14200       116.35700         0.00000                
E02        15.33800        80.60200         0.00000                
E03        15.33800        80.60200         0.00000                
E04        22.14200       116.35700         0.00000                
E05        15.33800        80.59900         0.00000                
E06        15.33800        80.59900         0.00000                
> 2025 04 22 14 04  0.0000000  0 15
G03  24393685.53200 128189682.68000      1539.48300                
G09  24304234.97800 127719616.84700      -557.96800                
G14  20705414.75400 108807688.92200      -371.61300                
G18  21837805.73300 114758443.68500      2509.27800                
G19  21707615.71900 114074290.53900     -2249.64900                
G22  23564033.70100 123829832.88200      2924.40200                
G23  20787850.24400 109240890.34900     -1259.97300                
G27  21213001.99100 111475077.85800      1791.60500                
G28  24275290.04700 127567510.20700     -3087.32700                
E01        22.14200       116.35700         0.00000                
E02        15.33800        80.60200         0.00000                
E03        15.33800        80.60200         0.00000                
E04        22.14200       116.35700         0.00000                
E05        15.33800        80.59900         0.00000                
E06        15.33800        80.59900         0.00000                
> 2025 04 22 14 04  1.0000000  0 15
G03  24393392.62700 128188143.45300      1538.96700                
G09  24304341.21700 127720175.13500      -558.60800                
G14  20705485.53800 108808060.89600      -372.33500                
G18  21837328.25500 114755934.51800      2509.04900                
G19  21708043.84500 114076540.35700     -2249.99200                
G22  23563477.22300 123826908.57100      2924.20800                
G23  20788090.04300 109242150.50200     -1260.33500                
G27  21212661.11600 111473286.54600      1791.01700                
G28  24275877.57500 127570597.68800     -3087.64600                
E01        22.14200       116.35700         0.00000                
E02        15.33800        80.60200         0.00000                
E03        15.33800        80.60200         0.00000                
E04        22.14200       116.35700         0.00000                
E05        15.33800        80.59900         0.00000                
E06        15.33800        80.59900         0.00000                
> 2025 04 22 14 04  2.0000000  0 15
G03  24393099.82000 128186604.74300      1538.45000                
G09  24304447.57700 127720734.06300      -559.24800                
G14  20705556.46000 108808433.59200      -373.05700                
G18  21836850.82000 114753425.57900      2508.82000                
G19  21708472.03600 114078790.51700     -2250.33500                
G22  23562920.78200 123823984.45500      2924.01300                
G23  20788329.91200 109243411.01800     -1260.69800                
G27  21212320.35200 111471495.82100      1790.42900                
G28  24276465.16400 127573685.48800     -3087.96500                
E01        22.14200       116.35700         0.00000                
E02        15.33800        80.60200         0.00000                
E03        15.33800        80.60200         0.00000                
E04        22.14200       116.35700         0.00000                
E05        15.33800        80.59900         0.00000                
E06        15.33800        80.59900         0.00000                
> 2025 04 22 14 04  3.0000000  0 15
G03  24392807.11200 128185066.55000      1537.93300                
G09  24304554.06000 127721293.63100      -559.88800                
G14  20705627.51900 108808807.00900      -373.77900                
G18  21836373.42800 114750916.86900      2508.59200                
G19  21708900.29200 114081041.02100     -2250.67800                
G22  23562364.37900 123821060.53400      2923.81900                
G23  20788569.84900 109244671.89600     -1261.06000                
G27  21211979.70000 111469705.68400      1789.84100                
G28  24277052.81300 127576773.60600     -3088.28400                
E01        22.14200       116.35700         0.00000                
E02        15.33800        80.60200         0.00000                
E03        15.33800        80.60200         0.00000                
E04        22.14200       116.35700         0.00000                
E05        15.33800        80.59900         0.00000                
E06        15.33800        80.59900         0.00000                
> 2025 04 22 14 04  4.0000000  0 15
G03  24392514.50200 128183528.87400      1537.41600                
G09  24304660.66400 127721853.83900      -560.52900                
G14  20705698.71500 108809181.14900      -374.50000                
G18  21835896.08000 114748408.38800      2508.36300                
G19  21709328.61400 114083291.86700     -2251.02100                
G22  23561808.01200 123818136.80600      2923.62500                
G23  20788809.85500 109245933.13600     -1261.42200                
G27  21211639.16000 111467916.13500      1789.25300                
G28  24277640.52300 127579862.04400     -3088.60300                
E01        22.14200       116.35700         0.00000                
E02        15.33800        80.60200         0.00000                
E03        15.33800        80.60200         0.00000                
E04        22.14200       116.35700         0.00000                
E05        15.33800        80.59900         0.00000                
E06        15.33800        80.59900         0.00000                
> 2025 04 22 14 04  5.0000000  0 15
G03  24392221.99000 128181991.71500      1536.89900                
G09  24304767.39000 127722414.68800      -561.16900                
G14  20705770.04900 108809556.01000      -375.22200                
G18  21835418.77500 114745900.13600      2508.13400                
G19  21709757.00100 114085543.05600     -2251.36400                
G22  23561251.68200 123815213.27400      2923.43000                
G23  20789049.93000 109247194.73900     -1261.78500                
G27  21211298.73300 111466127.17400      1788.66500                
G28  24278228.29400 127582950.80100     -3088.92200                
E01        22.14200       116.35700         0.00000                
E02        15.33800        80.60200         0.00000                
E03        15.33800        80.60200         0.00000                
E04        22.14200       116.35700         0.00000                
E05        15.33800        80.59900         0.00000                
E06        15.33800        80.59900         0.00000                
> 2025 04 22 14 04  6.0000000  0 15
G03  24391929.57700 128180455.07300      1536.38200                
G09  24304874.23700 127722976.17600      -561.80900                
G14  20705841.52000 108809931.59300      -375.94400                
G18  21834941.51400 114743392.11200      2507.90500                
G19  21710185.45400 114087794.58800     -2251.70700                
G22  23560695.38900 123812289.93500      2923.23600                
G23  20789290.07400 109248456.70400     -1262.14700                
G27  21210958.41700 111464338.80100      1788.07700                
G28  24278816.12600 127586039.87700     -3089.24100                
E01        22.14200       116.35700         0.00000                
E02        15.33800        80.60200         0.00000                
E03        15.33800        80.60200         0.00000                
E04        22.14200       116.35700         0.00000                
E05        15.33800        80.59900         0.00000                
E06        15.33800        80.59900         0.00000                
> 2025 04 22 14 04  7.0000000  0 15
G03  24391637.26200 128178918.94800      1535.86500                
G09  24304981.20700 127723538.30500      -562.44900                
G14  20705913.12800 108810307.89800      -376.66600                
G18  21834464.29700 114740884.31700      2507.67600                
G19  21710613.97100 114090046.46300     -2252.05000                
G22  23560139.13400 123809366.79200      2923.04100                
G23  20789530.28700 109249719.03100     -1262.50900                
G27  21210618.21200 111462551.01600      1787.48800                
G28  24279404.01800 127589129.27100     -3089.56000                
E01        22.14200       116.35700         0.00000                
E02        15.33800        80.60200         0.00000                
E03        15.33800        80.60200         0.00000                
E04        22.14200       116.35700         0.00000                
E05        15.33800        80.59900         0.00000                
E06        15.33800        80.59900         0.00000                
> 2025 04 22 14 04  8.0000000  0 15
G03  24391345.04600 128177383.34000      1535.34800                
G09  24305088.29800 127724101.07400      -563.08900                
G14  20705984.87400 108810684.92400      -377.38700                
G18  21833987.12300 114738376.75200      2507.44700                
G19  21711042.55400 114092298.68100     -2252.39200                
G22  23559582.91500 123806443.84200      2922.84700                
G23  20789770.56800 109250981.72000     -1262.87100                
G27  21210278.12000 111460763.82000      1786.90000                
G28  24279991.97100 127592218.98500     -3089.87900                
E01        22.14200       116.35700         0.00000                
E02        15.33800        80.60200         0.00000                
E03        15.33800        80.60200         0.00000                
E04        22.14200       116.35700         0.00000                
E05        15.33800        80.59900         0.00000                
E06        15.33800        80.59900         0.00000                
> 2025 04 22 14 04  9.0000000  0 15
G03  24391052.92800 128175848.25000      1534.83000                
G09  24305195.51100 127724664.48200      -563.72900                
G14  20706056.75700 108811062.67300      -378.10900                
G18  21833509.99300 114735869.41500      2507.21800                
G19  21711471.20200 114094551.24200     -2252.73500                
G22  23559026.73300 123803521.08700      2922.65200                
G23  20790010.91900 109252244.77100     -1263.23300                
G27  21209938.14000 111458977.21200      1786.31200                
G28  24280579.98500 127595309.01700     -3090.19700                
E01        22.14200       116.35700         0.00000                
E02        15.33800        80.60200         0.00000                
E03        15.33800        80.60200         0.00000                
E04        22.14200       116.35700         0.00000                
E05        15.33800        80.59900         0.00000                
E06        15.33800        80.59900         0.00000                
> 2025 04 22 14 04 10.0000000  0 15
G03  24390760.90800 128174313.67700      1534.31300                
G09  24305302.84600 127725228.53100      -564.36900                
G14  20706128.77700 108811441.14200      -378.83100                
G18  21833032.90600 114733362.30800      2506.98900                
G19  21711899.91500 114096804.14500     -2253.07800                
G22  23558470.58800 123800598.52700      2922.45700                
G23  20790251.33800 109253508.18400     -1263.59500                
G27  21209598.27200 111457191.19300      1785.72300                
G28  24281168.05900 127598399.36800     -3090.51600                
E01        22.14200       116.35700         0.00000                
E02        15.33800        80.60200         0.00000                
E03        15.33800        80.60200         0.00000                
E04        22.14200       116.35700         0.00000                
E05        15.33800        80.59900         0.00000                
E06        15.33800        80.59900         0.00000                
> 2025 04 22 14 04 11.0000000  0 15
G03  24390468.98700 128172779.62200      1533.79500                
G09  24305410.30300 127725793.21900      -565.00900                
G14  20706200.93500 108811820.33400      -379.55300                
G18  21832555.86300 114730855.43000      2506.76000                
G19  21712328.69400 114099057.39200     -2253.42100                
G22  23557914.48100 123797676.16100      2922.26300                
G23  20790491.82700 109254771.95900     -1263.95700                
G27  21209258.51600 111455405.76100      1785.13500                
G28  24281756.19400 127601490.03600     -3090.83400                
E01        22.14200       116.35700         0.00000                
E02        15.33800        80.60200         0.00000                
E03        15.33800        80.60200         0.00000                
E04        22.14200       116.35700         0.00000                
E05        15.33800        80.59900         0.00000                
E06        15.33800        80.59900         0.00000                
> 2025 04 22 14 04 12.0000000  0 15
G03  24390177.16400 128171246.08400      1533.27800                
G09  24305517.88100 127726358.54800      -565.64800                
G14  20706273.23000 108812200.24700      -380.27400                
G18  21832078.86400 114728348.78100      2506.53000                
G19  21712757.53800 114101310.98100     -2253.76400                
G22  23557358.41000 123794753.99100      2922.06800                
G23  20790732.38400 109256036.09600     -1264.31900                
G27  21208918.87100 111453620.91800      1784.54600                
G28  24282344.38900 127604581.02400     -3091.15200                
E01        22.14200       116.35700         0.00000                
E02        15.33800        80.60200         0.00000                
E03        15.33800        80.60200         0.00000                
E04        22.14200       116.35700         0.00000                
E05        15.33800        80.59900         0.00000                
E06        15.33800        80.59900         0.00000                
> 2025 04 22 14 04 13.0000000  0 15
G03  24389885.44000 128169713.06300      1532.76000                
G09  24305625.58100 127726924.51600      -566.28800                
G14  20706345.66300 108812580.88200      -380.99600                
G18  21831601.90800 114725842.36100      2506.30100                
G19  21713186.44700 114103564.91300     -2254.10600                
G22  23556802.37700 123791832.01500      2921.87400                
G23  20790973.01000 109257300.59500     -1264.68100                
G27  21208579.33900 111451836.66500      1783.95800                
G28  24282932.64500 127607672.32900     -3091.47100                
E01        22.14200       116.35700         0.00000                
E02        15.33800        80.60200         0.00000                
E03        15.33800        80.60200         0.00000                
E04        22.14200       116.35700         0.00000                
E05        15.33800        80.59900         0.00000                
E06        15.33800        80.59900         0.00000                
> 2025 04 22 14 04 14.0000000  0 15
G03  24389593.81500 128168180.56100      1532.24200                
G09  24305733.40300 127727491.12400      -566.92800                
G14  20706418.23300 108812962.23900      -381.71800                
G18  21831124.99600 114723336.17100      2506.07200                
G19  21713615.42100 114105819.18700     -2254.44900                
G22  23556246.38000 123788910.23300      2921.67900                
G23  20791213.70500 109258565.45600     -1265.04300                
G27  21208239.91900 111450052.99900      1783.36900                
G28  24283520.96100 127610763.95300     -3091.78900                
E01        22.14200       116.35700         0.00000                
E02        15.33800        80.60200         0.00000                
E03        15.33800        80.60200         0.00000                
E04        22.14200       116.35700         0.00000                
E05        15.33800        80.59900         0.00000                
E06        15.33800        80.59900         0.00000                
> 2025 04 22 14 04 15.0000000  0 15
G03  24389302.28800 128166648.57600      1531.72400                
G09  24305841.34700 127728058.37100      -567.56800                
G14  20706490.94000 108813344.31700      -382.43900                
G18  21830648.12700 114720830.21000      2505.84200                
G19  21714044.46000 114108073.80400     -2254.79200                
G22  23555690.42000 123785988.64600      2921.48400                
G23  20791454.46900 109259830.67800     -1265.40400                
G27  21207900.61000 111448269.92200      1782.78100                
G28  24284109.33800 127613855.89500     -3092.10700                
E01        22.14200       116.35700         0.00000                
E02        15.33800        80.60200         0.00000                
E03        15.33800        80.60200         0.00000                
E04        22.14200       116.35700         0.00000                
E05        15.33800        80.59900         0.00000                
E06        15.33800        80.59900         0.00000                
> 2025 04 22 14 04 16.0000000  0 15
G03  24389010.85900 128165117.11000      1531.20600                
G09  24305949.41200 127728626.25900      -568.20700                
G14  20706563.78400 108813727.11700      -383.16100                
G18  21830171.30200 114718324.47900      2505.61300                
G19  21714473.56500 114110328.76400     -2255.13400                
G22  23555134.49800 123783067.25400      2921.28900                
G23  20791695.30200 109261096.26300     -1265.76600                
G27  21207561.41400 111446487.43400      1782.19200                
G28  24284697.77600 127616948.15400     -3092.42500                
E01        22.14200       116.35700         0.00000                
E02        15.33800        80.60200         0.00000                
E03        15.33800        80.60200         0.00000                
E04        22.14200       116.35700         0.00000                
E05        15.33800        80.59900         0.00000                
E06        15.33800        80.59900         0.00000                
> 2025 04 22 14 04 17.0000000  0 15
G03  24388719.53000 128163586.16100      1530.68800                
G09  24306057.59900 127729194.78500      -568.84700                
G14  20706636.76600 108814110.63900      -383.88300                
G18  21829694.52100 114715818.97700      2505.38300                
G19  21714902.73500 114112584.06700     -2255.47700                
G22  23554578.61300 123780146.05700      2921.09400                
G23  20791936.20300 109262362.20900     -1266.12800                
G27  21207222.33000 111444705.53500      1781.60300                
G28  24285286.27400 127620040.73200     -3092.74200                
E01        22.14200       116.35700         0.00000                
E02        15.33800        80.60200         0.00000                
E03        15.33800        80.60200         0.00000                
E04        22.14200       116.35700         0.00000                
E05        15.33800        80.59900         0.00000                
E06        15.33800        80.59900         0.00000                
> 2025 04 22 14 04 18.0000000  0 15
G03  24388428.29800 128162055.73100      1530.17000                
G09  24306165.90800 127729763.95200      -569.48600                
G14  20706709.88500 108814494.88300      -384.60400                
G18  21829217.78400 114713313.70500      2505.15300                
G19  21715331.97000 114114839.71200     -2255.82000                
G22  23554022.76400 123777225.05400      2920.90000                
G23  20792177.17400 109263628.51600     -1266.48900                
G27  21206883.35800 111442924.22400      1781.01400                
G28  24285874.83200 127623133.62700     -3093.06000                
E01        22.14200       116.35700         0.00000                
E02        15.33800        80.60200         0.00000                
E03        15.33800        80.60200         0.00000                
E04        22.14200       116.35700         0.00000                
E05        15.33800        80.59900         0.00000                
E06        15.33800        80.59900         0.00000                
> 2025 04 22 14 04 19.0000000  0 15
G03  24388137.16600 128160525.81900      1529.65200                
G09  24306274.33900 127730333.75800      -570.12600                
G14  20706783.14100 108814879.84800      -385.32600                
G18  21828741.09000 114710808.66200      2504.92400                
G19  21715761.27000 114117095.70000     -2256.16200                
G22  23553466.95300 123774304.24700      2920.70500                
G23  20792418.21300 109264895.18600     -1266.85100                
G27  21206544.49800 111441143.50300      1780.42500                
G28  24286463.45100 127626226.84000     -3093.37800                
E01        22.14200       116.35700         0.00000                
E02        15.33800        80.60200         0.00000                
E03        15.33800        80.60200         0.00000                
E04        22.14200       116.35700         0.00000                
E05        15.33800        80.59900         0.00000                
E06        15.33800        80.59900         0.00000                
> 2025 04 22 14 04 20.0000000  0 15
G03  24387846.13200 128158996.42500      1529.13300                
G09  24306382.89100 127730904.20400      -570.76600                
G14  20706856.53500 108815265.53400      -386.04800                
G18  21828264.44000 114708303.85000      2504.69400                
G19  21716190.63500 114119352.03000     -2256.50500                
G22  23552911.17900 123771383.63400      2920.51000                
G23  20792659.32100 109266162.21600     -1267.21200                
G27  21206205.75000 111439363.37000      1779.83600                
G28  24287052.13000 127629320.37000     -3093.69500                
E01        22.14200       116.35700         0.00000                
E02        15.33800        80.60200         0.00000                
E03        15.33800        80.60200         0.00000                
E04        22.14200       116.35700         0.00000                
E05        15.33800        80.59900         0.00000                
E06        15.33800        80.59900         0.00000                
> 2025 04 22 14 04 21.0000000  0 15
G03  24387555.19600 128157467.54900      1528.61500                
G09  24306491.56500 127731475.28900      -571.40500                
G14  20706930.06600 108815651.94300      -386.76900                
G18  21827787.83400 114705799.26600      2504.46400                
G19  21716620.06600 114121608.70300     -2256.84700                
G22  23552355.44200 123768463.21600      2920.31500                
G23  20792900.49700 109267429.60800     -1267.57400                
G27  21205867.11400 111437583.82700      1779.24700                
G28  24287640.87000 127632414.21800     -3094.01300                
E01        22.14200       116.35700         0.00000                
E02        15.33800        80.60200         0.00000                
E03        15.33800        80.60200         0.00000                
E04        22.14200       116.35700         0.00000                
E05        15.33800        80.59900         0.00000                
E06        15.33800        80.59900         0.00000                
> 2025 04 22 14 04 22.0000000  0 15
G03  24387264.36000 128155939.19200      1528.09600                
G09  24306600.36000 127732047.01300      -572.04400                
G14  20707003.73400 108816039.07300      -387.49100                
G18  21827311.27100 114703294.91300      2504.23400                
G19  21717049.56100 114123865.71800     -2257.19000                
G22  23551799.74200 123765542.99300      2920.12000                
G23  20793141.74300 109268697.36200     -1267.93500                
G27  21205528.59000 111435804.87200      1778.65800                
G28  24288229.67000 127635508.38400     -3094.33000                
E01        22.14200       116.35700         0.00000                
E02        15.33800        80.60200         0.00000                
E03        15.33800        80.60200         0.00000                
E04        22.14200       116.35700         0.00000                
E05        15.33800        80.59900         0.00000                
E06        15.33800        80.59900         0.00000                
> 2025 04 22 14 04 23.0000000  0 15
G03  24386973.62200 128154411.35300      1527.57800                
G09  24306709.27700 127732619.37700      -572.68400                
G14  20707077.54000 108816426.92400      -388.21200                
G18  21826834.75200 114700790.79000      2504.00400                
G19  21717479.12200 114126123.07600     -2257.53200                
G22  23551244.07900 123762622.96500      2919.92500                
G23  20793383.05700 109269965.47700     -1268.29700                
G27  21205190.17900 111434026.50700      1778.06900                
G28  24288818.53000 127638602.86600     -3094.64700                
E01        22.14200       116.35700         0.00000                
E02        15.33800        80.60200         0.00000                
E03        15.33800        80.60200         0.00000                
E04        22.14200       116.35700         0.00000                
E05        15.33800        80.59900         0.00000                
E06        15.33800        80.59900         0.00000                
> 2025 04 22 14 04 24.0000000  0 15
G03  24386682.98200 128152884.03300      1527.05900                
G09  24306818.31600 127733192.38000      -573.32300                
G14  20707151.48300 108816815.49700      -388.93400                
G18  21826358.27700 114698286.89700      2503.77400                
G19  21717908.74900 114128380.77700     -2257.87500                
G22  23550688.45300 123759703.13200      2919.73000                
G23  20793624.44000 109271233.95400     -1268.65800                
G27  21204851.87900 111432248.73100      1777.47900                
G28  24289407.45100 127641697.66500     -3094.96400                
E01        22.14200       116.35700         0.00000                
E02        15.33800        80.60200         0.00000                
E03        15.33800        80.60200         0.00000                
E04        22.14200       116.35700         0.00000                
E05        15.33800        80.59900         0.00000                
E06        15.33800        80.59900         0.00000                
> 2025 04 22 14 04 25.0000000  0 15
G03  24386392.44200 128151357.23200      1526.54000                
G09  24306927.47700 127733766.02300      -573.96200                
G14  20707225.56400 108817204.79200      -389.65600                
G18  21825881.84600 114695783.23300      2503.54400                
G19  21718338.44000 114130638.82000     -2258.21700                
G22  23550132.86500 123756783.49500      2919.53500                
G23  20793865.89200 109272502.79100     -1269.01900                
G27  21204513.69200 111430471.54500      1776.89000                
G28  24289996.43200 127644792.78200     -3095.28100                
E01        22.14200       116.35700         0.00000                
E02        15.33800        80.60200         0.00000                
E03        15.33800        80.60200         0.00000                
E04        22.14200       116.35700         0.00000                
E05        15.33800        80.59900         0.00000                
E06        15.33800        80.59900         0.00000                
> 2025 04 22 14 04 26.0000000  0 15
G03  24386102.00000 128149830.94900      1526.02200                
G09  24307036.75900 127734340.30400      -574.60200                
G14  20707299.78100 108817594.80800      -390.37700                
G18  21825405.45800 114693279.80000      2503.31400                
G19  21718768.19600 114132897.20500     -2258.56000                
G22  23549577.31300 123753864.05100      2919.34000                
G23  20794107.41300 109273771.99000     -1269.38100                
G27  21204175.61700 111428694.94700      1776.30100                
G28  24290585.47400 127647888.21600     -3095.59800                
E01        22.14200       116.35700         0.00000                
E02        15.33800        80.60200         0.00000                
E03        15.33800        80.60200         0.00000                
E04        22.14200       116.35700         0.00000                
E05        15.33800        80.59900         0.00000                
E06        15.33800        80.59900         0.00000                
> 2025 04 22 14 04 27.0000000  0 15
G03  24385811.65700 128148305.18600      1525.50300                
G09  24307146.16300 127734915.22500      -575.24100                
G14  20707374.13600 108817985.54600      -391.09900                
G18  21824929.11500 114690776.59700      2503.08400                
G19  21719198.01800 114135155.93300     -2258.90200                
G22  23549021.79900 123750944.80300      2919.14500                
G23  20794349.00200 109275041.55100     -1269.74200                
G27  21203837.65400 111426918.93900      1775.71100                
G28  24291174.57500 127650983.96700     -3095.91500                
E01        22.14200       116.35700         0.00000                
E02        15.33800        80.60200         0.00000                
E03        15.33800        80.60200         0.00000                
E04        22.14200       116.35700         0.00000                
E05        15.33800        80.59900         0.00000                
E06        15.33800        80.59900         0.00000                
> 2025 04 22 14 04 28.0000000  0 15
G03  24385521.41200 128146779.94100      1524.98400                
G09  24307255.68800 127735490.78500      -575.88000                
G14  20707448.62800 108818377.00600      -391.82000                
G18  21824452.81500 114688273.62400      2502.85400                
G19  21719627.90500 114137415.00300     -2259.24500                
G22  23548466.32200 123748025.75000      2918.95000                
G23  20794590.66000 109276311.47200     -1270.10300                
G27  21203499.80300 111425143.52100      1775.12200                
G28  24291763.73700 127654080.03400     -3096.23200                
E01        22.14200       116.35700         0.00000                
E02        15.33800        80.60200         0.00000                
E03        15.33800        80.60200         0.00000                
E04        22.14200       116.35700         0.00000                
E05        15.33800        80.59900         0.00000                
E06        15.33800        80.59900         0.00000                
> 2025 04 22 14 04 29.0000000  0 15
G03  24385231.26700 128145255.21500      1524.46500                
G09  24307365.33500 127736066.98500      -576.51900                
G14  20707523.25800 108818769.18700      -392.54200                
G18  21823976.55900 114685770.88100      2502.62400                
G19  21720057.85700 114139674.41600     -2259.58700                
G22  23547910.88100 123745106.89300      2918.75500                
G23  20794832.38700 109277581.75400     -1270.46400                
G27  21203162.06400 111423368.69200      1774.53200                
G28  24292352.96000 127657176.41800     -3096.54800                
E01        22.14200       116.35700         0.00000                
E02        15.33800        80.60200         0.00000                
E03        15.33800        80.60200         0.00000                
E04        22.14200       116.35700         0.00000                
E05        15.33800        80.59900         0.00000                
E06        15.33800        80.59900         0.00000                
> 2025 04 22 14 04 30.0000000  0 15
G03  24384941.22000 128143731.00900      1523.94500                
G09  24307475.10400 127736643.82300      -577.15800                
G14  20707598.02500 108819162.09000      -393.26400                
G18  21823500.34600 114683268.36900      2502.39300                
G19  21720487.87400 114141934.17100     -2259.92900                
G22  23547355.47900 123742188.23100      2918.56000                
G23  20795074.18200 109278852.39800     -1270.82500                
G27  21202824.43700 111421594.45300      1773.94200                
G28  24292942.24200 127660273.11900     -3096.86500                
E01        22.14200       116.35700         0.00000                
E02        15.33800        80.60200         0.00000                
E03        15.33800        80.60200         0.00000                
E04        22.14200       116.35700         0.00000                
E05        15.33800        80.59900         0.00000                
E06        15.33800        80.59900         0.00000                
