     3.05           OBSERVATION DATA    M                   RINEX VERSION / TYPE
GSPF V1.7.0                             20250903 135311 UTC PGM / RUN BY / DATE
S101                                                        MARKER NAME
NON_GEODETIC                                                MARKER TYPE
                                                            OBSERVER / AGENCY
                                                            REC # / TYPE / VERS
                                                            ANT # / TYPE
  4181982.8803   860747.9921  4723076.5361                  APPROX POSITION XYZ
        0.0000        0.0000        0.0000                  ANTENNA: DELTA H/E/N
G    4 C1C L1C D1C S1C                                      SYS / # / OBS TYPES
E    4 C1B L1B D1B S1B                                      SYS / # / OBS TYPES
  2025     4    22    14     0    1.0000000     GPS         TIME OF FIRST OBS
G L1C  0.00000   0                                          SYS / PHASE SHIFT
E L1B  0.00000   0                                          SYS / PHASE SHIFT
 C1C    0.000 C1P    0.000 C2C    0.000 C2P    0.000        GLONASS COD/PHS/BIS
                                                            END OF HEADER
> 2025 04 22 14 00  1.0000000  0 14
G03  24466494.08100 128572294.18800      1666.84800                
G09  24282335.84500 127604536.12400      -395.40700                
G14  20692427.50400 108739440.46300      -201.92500                
G15  24879106.92100 130740589.29800     -4074.81100                
G18  21953129.43800 115364473.84100      2566.13600                
G19  21607192.88200 113546564.97200     -2168.97600                
G22  23698060.89100 124534150.51800      2962.16600                
G23  20732544.74700 108950258.00100     -1168.46000                
G27  21297663.49500 111919977.06600      1922.52100                
G28  24136669.74500 126839055.60500     -2995.75800                
E02        43.59200       229.07600         8.98000                
E03        23.66300       124.35000        14.39000                
E04         5.45100        28.64500        -9.34900                
E05        28.98000       152.29000       -13.50800                
> 2025 04 22 14 00  2.0000000  0 14
G03  24466176.77900 128570626.75300      1668.00300                
G09  24282411.30200 127604932.65300      -397.67000                
G14  20692466.08400 108739643.20300      -203.54800                
G15  24879882.25100 130744663.68500     -4073.95000                
G18  21952641.26200 115361908.46300      2564.60300                
G19  21607605.53100 113548733.45600     -2167.99400                
G22  23697497.36400 124531189.16400      2960.55100                
G23  20732767.08800 108951426.40900     -1168.36700                
G27  21297297.62700 111918054.41300      1922.79900                
G28  24137239.76000 126842051.05100     -2995.17800                
E02        41.80700       219.69500         9.77500                
E03        20.89200       109.78900        14.71800                
E04         7.66200        40.26200       -13.20700                
E05        31.50000       165.53500       -12.97300                
> 2025 04 22 14 00  3.0000000  0 14
G03  24465859.26700 128568958.21800      1669.04100                
G09  24282487.19900 127605331.49600      -400.03000                
G14  20692504.96800 108739847.54000      -205.11500                
G15  24880657.39900 130748737.11400     -4072.89700                
G18  21952153.38300 115359344.63900      2563.03200                
G19  21608017.99200 113550900.95200     -2167.00400                
G22  23696934.13200 124528229.36100      2959.06900                
G23  20732989.41600 108952594.75300     -1168.33200                
G27  21296931.69500 111916131.43000      1923.17700                
G28  24137809.68200 126845046.01400     -2994.79200                
E02        39.87400       209.53800        10.53300                
E03        18.06800        94.94700        14.94600                
E04        10.32200        54.24400       -14.52700                
E05        33.91400       178.21800       -12.38400                
> 2025 04 22 14 00  4.0000000  0 14
G03  24465541.57100 128567288.71300      1669.94100                
G09  24282563.55300 127605732.73700      -402.46300                
G14  20692544.14400 108740053.41100      -206.61500                
G15  24881432.32900 130752809.40000     -4071.66600                
G18  21951665.80400 115356782.39600      2561.44500                
G19  21608430.26500 113553067.46100     -2166.02400                
G22  23696371.16800 124525270.96400      2957.74000                
G23  20733211.74400 108953763.09200     -1168.36000                
G27  21296565.68300 111914208.02600      1923.64000                
G28  24138379.55000 126848040.69100     -2994.60800                
E02        37.80000       198.64200        11.25000                
E03        15.21300        79.94300        15.03400                
E04        13.13700        69.03300       -14.96300                
E05        36.21000       190.28600       -11.74400                
> 2025 04 22 14 00  5.0000000  0 14
G03  24465223.71800 128565618.38600      1670.68200                
G09  24282640.37400 127606136.43800      -404.94400                
G14  20692583.59800 108740260.74400      -208.03700                
G15  24882207.01000 130756880.37300     -4070.27700                
G18  21951178.52800 115354221.74000      2559.86000                
G19  21608842.35400 113555233.00500     -2165.07500                
G22  23695808.44100 124522313.81400      2956.57900                
G23  20733434.08300 108954931.49300     -1168.45600                
G27  21296199.57700 111912284.12100      1924.17400                
G28  24138949.40400 126851035.29000     -2994.63600                
E02        35.59500       187.05100        11.92400                
E03        12.36000        64.95400        14.89300                
E04        15.99400        84.05000       -15.02700                
E05        38.38000       201.69000       -11.05800                
> 2025 04 22 14 00  6.0000000  0 14
G03  24464905.74100 128563947.40400      1671.24700                
G09  24282717.67000 127606542.63200      -407.44500                
G14  20692623.31500 108740469.45600      -209.37000                
G15  24882981.41200 130760949.88600     -4068.74800                
G18  21950691.55100 115351662.65900      2558.29800                
G19  21609254.26700 113557397.62100     -2164.17400                
G22  23695245.91800 124519357.73400      2955.60100                
G23  20733656.44800 108956100.02600     -1168.62400                
G27  21295833.36300 111910359.65400      1924.76200                
G28  24139519.28200 126854030.02300     -2994.87800                
E02        33.26500       174.81000        12.55000                
E03         9.57300        50.30500        14.29200                
E04        18.84400        99.02300       -14.89500                
E05        40.41600       212.38800       -10.32900                
> 2025 04 22 14 00  7.0000000  0 14
G03  24464587.67400 128562275.95200      1671.62100                
G09  24282795.44200 127606951.32600      -409.94100                
G14  20692663.27500 108740679.45100      -210.60500                
G15  24883755.51200 130765017.80900     -4067.10300                
G18  21950204.86800 115349105.12200      2556.77700                
G19  21609666.01400 113559561.37000     -2163.34000                
G22  23694683.56200 124516402.53700      2954.81600                
G23  20733878.85100 108957268.76400     -1168.86700                
G27  21295467.03300 111908434.57900      1925.38800                
G28  24140089.22800 126857025.10800     -2995.33700                
E02        30.82100       161.96800        13.12500                
E03         6.99200        36.74200        12.52600                
E04        21.65500       113.79800       -14.63700                
E05        42.30900       222.33600        -9.56100                
> 2025 04 22 14 00  8.0000000  0 14
G03  24464269.55600 128560604.22800      1671.79000                
G09  24282873.68700 127607362.50200      -412.40400                
G14  20692703.46100 108740890.63000      -211.73500                
G15  24884529.29000 130769084.04000     -4065.36500                
G18  21949718.46800 115346549.07700      2555.31700                
G19  21610077.61100 113561724.32400     -2162.58900                
G22  23694121.33700 124513448.02400      2954.23300                
G23  20734101.30800 108958437.78400     -1169.18700                
G27  21295100.58200 111906508.86700      1926.03400                
G28  24140659.28100 126860020.75900     -2996.01200                
E02        28.27300       148.57800        13.64400                
E03         5.01300        26.34600         7.39600                
E04        24.40800       128.26600       -14.28600                
E05        44.05300       231.49800        -8.75700                
> 2025 04 22 14 00  9.0000000  0 15
G03  24463951.42500 128558932.44000      1671.74600                
G09  24282952.39400 127607776.11400      -414.80800                
G14  20692743.85200 108741102.88500      -212.75500                
G15  24885302.73100 130773148.49600     -4063.56000                
G18  21949232.34000 115343994.45400      2553.93400                
G19  21610489.07400 113563886.57500     -2161.93800                
G22  23693559.20300 124510493.99000      2953.85900                
G23  20734323.83400 108959607.16300     -1169.58600                
G27  21294734.00800 111904582.50600      1926.68300                
G28  24141229.48300 126863017.19000     -2996.89600                
E01        44.79200       235.38200         8.38100                
E02        25.63200       134.70000        14.10200                
E03         4.55300        23.92600        -3.06500                
E04        27.08700       142.34500       -13.85900                
E05        45.64000       239.83800        -7.91900                
> 2025 04 22 14 00 10.0000000  0 14
G03  24463633.32400 128557260.80600      1671.48100                
G09  24283031.55200 127608192.09000      -417.12900                
G14  20692784.42600 108741316.10100      -213.65900                
G15  24886075.82300 130777211.12600     -4061.71400                
G18  21948746.46600 115341441.16800      2552.64700                
G19  21610900.42300 113566048.23200     -2161.40100                
G22  23692997.12000 124507540.22500      2953.69500                
G23  20734546.44200 108960776.97900     -1170.06100                
G27  21294367.31100 111902655.50100      1927.31700                
G28  24141799.87300 126866014.60700     -2997.98300                
E01        43.11800       226.58800         9.20100                
E02        22.91100       120.39800        14.48900                
E03         5.97700        31.41200       -10.83800                
E04        29.67900       155.96300       -13.36700                
> 2025 04 22 14 00 11.0000000  0 14
G03  24463315.29400 128555589.54900      1670.99300                
G09  24283111.14100 127608610.33500      -419.34100                
G14  20692825.16000 108741530.16300      -214.44500                
G15  24886848.56300 130781271.89900     -4059.85300                
G18  21948260.82600 115338889.11500      2551.47000                
G19  21611311.68200 113568209.41300     -2160.98900                
G22  23692435.04900 124504586.51900      2953.74100                
G23  20734769.14900 108961947.31000     -1170.61300                
G27  21294000.49700 111900727.87700      1927.91900                
G28  24142370.48800 126869013.20800     -2999.26100                
E01        41.29200       216.99200         9.98600                
E02        20.12400       105.75000        14.79200                
E03         8.36200        43.94200       -13.71500                
E04        32.17100       169.06000       -12.81700                
> 2025 04 22 14 00 12.0000000  0 14
G03  24462997.37900 128553918.89200      1670.28100                
G09  24283191.14000 127609030.72900      -421.42300                
G14  20692866.03300 108741744.95200      -215.11300                
G15  24887620.94900 130785330.81600     -4058.00500                
G18  21947775.39900 115336338.17900      2550.41700                
G19  21611722.87600 113570370.25100     -2160.71600                
G22  23691872.94900 124501632.66300      2953.99400                
G23  20734991.96700 108963118.22900     -1171.23900                
G27  21293633.57200 111898799.67400      1928.47200                
G28  24142941.36300 126872013.17800     -3000.71800                
E01        39.32000       206.62900        10.73300                
E02        17.28800        90.85000        14.98700                
E03        11.08200        58.23700       -14.70200                
E04        34.55300       181.57900       -12.21300                
> 2025 04 22 14 00 13.0000000  0 14
G03  24462679.62000 128552249.05700      1669.34900                
G09  24283271.52000 127609453.13100      -423.35400                
G14  20692907.02200 108741960.34900      -215.66200                
G15  24888392.98700 130789387.90200     -4056.19700                
G18  21947290.15900 115333788.22700      2549.50100                
G19  21612134.03200 113572530.88700     -2160.58800                
G22  23691310.78100 124498678.45300      2954.44800                
G23  20735214.91200 108964289.80900     -1171.93500                
G27  21293266.54800 111896870.94900      1928.96000                
G28  24143512.53100 126875014.68700     -3002.33700                
E01        37.21000       195.53900        11.43900                
E02        14.43000        75.82800        15.02400                
E03        13.91600        73.12700       -15.00700                
E04        36.81600       193.47000       -11.56100                
> 2025 04 22 14 00 14.0000000  0 14
G03  24462362.05800 128550580.26200      1668.20200                
G09  24283352.25200 127609877.38100      -425.11600                
G14  20692948.10400 108742176.23800      -216.09700                
G15  24889164.68600 130793443.21100     -4054.45500                
G18  21946805.08000 115331239.11900      2548.73100                
G19  21612545.17700 113574691.47300     -2160.61400                
G22  23690748.50900 124495723.69200      2955.09300                
G23  20735437.99500 108965462.11900     -1172.69600                
G27  21292899.43800 111894941.77600      1929.36700                
G28  24144084.02200 126878017.88900     -3004.10000                
E01        34.96900       183.76600        12.10000                
E02        11.58700        60.89000        14.79100                
E03        16.77500        88.15100       -15.00700                
E04        38.95000       204.68600       -10.86300                
> 2025 04 22 14 00 15.0000000  0 14
G03  24462044.73500 128548912.71700      1666.85100                
G09  24283433.30200 127610303.30100      -426.69200                
G14  20692989.25900 108742392.50500      -216.42000                
G15  24889936.06300 130797496.82100     -4052.80300                
G18  21946320.13300 115328690.70600      2548.11500                
G19  21612956.34300 113576852.16300     -2160.79800                
G22  23690186.09700 124492768.19500      2955.91800                
G23  20735661.22800 108966635.22000     -1173.51700                
G27  21292532.26000 111893012.24100      1929.68000                
G28  24144655.85900 126881022.91800     -3005.98700                
E01        32.60800       171.35500        12.71300                
E02         8.83600        46.43300        13.97800                
E03        19.61600       103.08400       -14.83500                
E04        40.94800       215.18200       -10.12300                
> 2025 04 22 14 00 16.0000000  0 14
G03  24461727.68800 128547246.62100      1665.30700                
G09  24283514.63300 127610730.69800      -428.06800                
G14  20693030.46400 108742609.04200      -216.63700                
G15  24890707.13600 130801548.83500     -4051.26700                
G18  21945835.28800 115326142.82800      2547.65800                
G19  21613367.55900 113579013.11700     -2161.14200                
G22  23689623.51100 124489811.79000      2956.90700                
G23  20735884.62400 108967809.16900     -1174.39200                
G27  21292165.03200 111891082.44700      1929.88500                
G28  24145228.06600 126884029.88500     -3007.97400                
E01        30.13500       158.35800        13.27300                
E02         6.36200        33.43200        11.60900                
E03        22.41400       117.78400       -14.54900                
E04        42.80100       224.91900        -9.34500                
> 2025 04 22 14 00 17.0000000  0 14
G03  24461410.95100 128545582.15900      1663.58500                
G09  24283596.20600 127611159.36700      -429.23500                
G14  20693071.70200 108742825.74700      -216.75600                
G15  24891477.92900 130805599.37900     -4049.86800                
G18  21945350.51500 115323595.32700      2547.36500                
G19  21613778.85500 113581174.49400     -2161.64600                
G22  23689060.72400 124486854.32000      2958.04400                
G23  20736108.19000 108968984.01700     -1175.31300                
G27  21291797.77700 111889152.50700      1929.97100                
G28  24145800.65900 126887038.88000     -3010.03900                
E01        27.56000       144.82900        13.77600                
E02         4.69000        24.64600         4.93300                
E03        25.14800       132.15400       -14.17600                
E04        44.50200       233.85900        -8.53100                
> 2025 04 22 14 00 18.0000000  0 14
G03  24461094.55800 128543919.50100      1661.70400                
G09  24283677.98100 127611589.09600      -430.18600                
G14  20693112.95300 108743042.52400      -216.78600                
G15  24892248.47000 130809648.60300     -4048.62700                
G18  21944865.78200 115321048.03500      2547.23700                
G19  21614190.26300 113583336.45600     -2162.30900                
G22  23688497.70700 124483895.64800      2959.31000                
G23  20736331.93500 108970159.80600     -1176.27300                
G27  21291430.51700 111887222.54300      1929.93000                
G28  24146373.65000 126890049.96800     -3012.15600                
E01        24.89600       130.82800        14.21500                
E02         4.78600        25.15000        -5.83200                
E03        27.80400       146.11300       -13.73100                
E06        44.34900       233.05800         8.60900                
> 2025 04 22 14 00 19.0000000  0 14
G03  24460778.53600 128542258.79400      1659.68300                
G09  24283759.91500 127612019.66500      -430.91500                
G14  20693154.20300 108743259.29100      -216.73600                
G15  24893018.79200 130813696.67200     -4047.56300                
G18  21944381.05700 115318500.79000      2547.27100                
G19  21614601.81100 113585499.15700     -2163.12500                
G22  23687934.43900 124480935.65400      2960.68400                
G23  20736555.86600 108971336.57100     -1177.26200                
G27  21291063.27800 111885292.68800      1929.75200                
G28  24146947.04700 126893063.19000     -3014.30100                
E01        22.15500       116.42400        14.58000                
E02         6.57200        34.53500       -11.95300                
E03        30.37000       159.59500       -13.22300                
E06        42.63400       224.04100         9.41900                
> 2025 04 22 14 00 20.0000000  0 14
G03  24460462.91000 128540600.17100      1657.54400                
G09  24283841.96700 127612450.85100      -431.42100                
G14  20693195.43600 108743475.97300      -216.61700                
G15  24893788.93000 130817743.77200     -4046.68900                
G18  21943896.31100 115315953.43000      2547.46500                
G19  21615013.52900 113587662.74800     -2164.08800                
G22  23687370.90100 124477974.24100      2962.14300                
G23  20736779.98700 108972514.33700     -1178.27400                
G27  21290696.08600 111883363.08000      1929.43400                
G28  24147520.85300 126896078.55900     -3016.44600                
E01        19.35200       101.69700        14.85700                
E02         9.08600        47.74700       -14.09500                
E03        32.83300       172.53900       -12.65700                
E06        40.76700       214.23100        10.19400                
> 2025 04 22 14 00 21.0000000  0 14
G03  24460147.70100 128538943.73400      1655.31100                
G09  24283924.09500 127612882.43300      -431.70700                
G14  20693236.64100 108743692.50700      -216.44300                
G15  24894558.92000 130821790.09900     -4046.02100                
G18  21943411.51300 115313405.80000      2547.81300                
G19  21615425.44300 113589827.37200     -2165.18900                
G22  23686807.07900 124475011.33600      2963.66400                
G23  20737004.30200 108973693.12000     -1179.29700                
G27  21290328.96800 111881433.86400      1928.97000                
G28  24148095.06400 126899096.06200     -3018.56700                
E01        16.50800        86.74900        15.01500                
E02        11.85100        62.27600       -14.83000                
E03        35.18400       184.89200       -12.04000                
E06        38.75600       203.66500        10.93000                
> 2025 04 22 14 00 22.0000000  0 14
G03  24459832.92400 128537289.56900      1653.00800                
G09  24284006.25600 127613314.19300      -431.77800                
G14  20693277.80800 108743908.84400      -216.22500                
G15  24895328.80300 130825835.86300     -4045.56600                
G18  21942926.63400 115310857.74800      2548.30600                
G19  21615837.57900 113591993.16200     -2166.41700                
G22  23686242.96300 124472046.89000      2965.22200                
G23  20737228.81200 108974872.92900     -1180.32300                
G27  21289961.95200 111879505.18400      1928.36000                
G28  24148669.67500 126902115.66300     -3020.63700                
E01        13.64900        71.72500        14.99500                
E02        14.69700        77.23400       -15.02900                
E03        37.41200       196.60300       -11.37500                
E06        36.61000       192.38400        11.62400                
> 2025 04 22 14 00 23.0000000  0 14
G03  24459518.58900 128535637.72900      1650.66300                
G09  24284088.41100 127613745.92000      -431.64200                
G14  20693318.93100 108744124.94600      -215.97700                
G15  24896098.62100 130829881.28400     -4045.33300                
G18  21942441.64900 115308309.13500      2548.93400                
G19  21616249.96000 113594160.23900     -2167.76000                
G22  23685678.55000 124469080.87600      2966.79300                
G23  20737453.51700 108976053.76200     -1181.34200                
G27  21289595.06700 111877577.18800      1927.60400                
G28  24149244.67400 126905137.29900     -3022.63200                
E01        10.82100        56.86500        14.64800                
E02        17.55500        92.25100       -14.97400                
E03        39.51000       207.62700       -10.66500                
E06        34.33500       180.43200        12.27200                
> 2025 04 22 14 00 24.0000000  0 14
G03  24459204.70300 128533988.24600      1648.30000                
G09  24284170.52100 127614177.41100      -431.31000                
G14  20693360.00500 108744340.79200      -215.71400                
G15  24896868.41600 130833926.58400     -4045.32400                
G18  21941956.53300 115305759.83100      2549.68500                
G19  21616662.60700 113596328.71100     -2169.20400                
G22  23685113.83800 124466113.29700      2968.35000                
G23  20737678.41500 108977235.60600     -1182.34500                
G27  21289228.33900 111875650.02000      1926.70400                
G28  24149820.04200 126908160.88200     -3024.52700                
E01         8.11900        42.66700        13.55800                
E02        20.38600       107.13200       -14.76700                
E03        41.46900       217.92000        -9.91400                
E06        31.94200       167.85600        12.87100                
> 2025 04 22 14 00 25.0000000  0 14
G03  24458891.26500 128532341.12200      1645.94800                
G09  24284252.55000 127614608.47900      -430.79700                
G14  20693401.02900 108744556.37300      -215.44900                
G15  24897638.23100 130837971.98700     -4045.54100                
G18  21941471.26300 115303209.72000      2550.54500                
G19  21617075.53600 113598498.67000     -2170.73200                
G22  23684548.83400 124463144.17800      2969.86900                
G23  20737903.50100 108978418.44200     -1183.32400                
G27  21288861.79600 111873723.82200      1925.66600                
G28  24150395.76000 126911186.30100     -3026.30100                
E01         5.78800        30.41800        10.37700                
E02        23.16800       121.75000       -14.45500                
E03        43.28100       227.44300        -9.12600                
E06        29.44000       154.70800        13.41600                
> 2025 04 22 14 00 26.0000000  0 15
G03  24458578.27300 128530696.33300      1643.63400                
G09  24284334.46600 127615038.95100      -430.12000                
G14  20693442.00300 108744771.69400      -215.19700                
G15  24898408.10800 130842017.71900     -4045.98000                
G18  21940985.82000 115300658.70100      2551.49900                
G19  21617488.76300 113600670.19200     -2172.32900                
G22  23683983.54500 124460173.56800      2971.32600                
G23  20738128.77000 108979602.24000     -1184.26800                
G27  21288495.46200 111871798.72800      1924.49600                
G28  24150971.80300 126914213.42500     -3027.93200                
E01         4.50700        23.68300         2.04000                
E02        25.88300       136.01500       -14.06200                
E03        44.94000       236.16000        -8.30300                
E05        45.49800       239.09200         7.99900                
E06        26.84000       141.04400        13.90200                
> 2025 04 22 14 00 27.0000000  0 14
G03  24458265.71500 128529053.83000      1641.38200                
G09  24284416.23900 127615468.67000      -429.29600                
G14  20693482.93200 108744986.77500      -214.97200                
G15  24899178.08900 130846063.99700     -4046.63500                
G18  21940500.18800 115298106.68800      2552.53000                
G19  21617902.29900 113602843.33800     -2173.97500                
G22  23683417.98800 124457201.54400      2972.69600                
G23  20738354.21600 108980786.96300     -1185.17100                
G27  21288129.36400 111869874.86600      1923.20300                
G28  24151548.14100 126917242.10100     -3029.40300                
E01         5.15000        27.06500        -8.11900                
E02        28.51600       149.85000       -13.59800                
E05        43.89600       230.67300         8.83300                
E06        24.15300       126.92600        14.32200                
> 2025 04 22 14 00 28.0000000  0 14
G03  24457953.57700 128527413.53700      1639.21900                
G09  24284497.84300 127615897.50200      -428.34900                
G14  20693523.82100 108745201.65000      -214.78700                
G15  24899948.21500 130850111.03600     -4047.49600                
G18  21940014.35500 115295553.61400      2553.61900                
G19  21618316.15100 113605018.14600     -2175.65200                
G22  23682852.18000 124454228.20100      2973.95800                
G23  20738579.82800 108981972.56400     -1186.02400                
G27  21287763.52200 111867952.35400      1921.79700                
G28  24152124.74200 126920272.16000     -3030.69600                
E01         7.21500        37.91700       -12.78100                
E02        31.05400       163.19100       -13.07400                
E05        42.13800       221.43600         9.63500                
E06        21.39400       112.42500        14.66500                
> 2025 04 22 14 00 29.0000000  0 14
G03  24457641.84100 128525775.35200      1637.16800                
G09  24284579.25700 127616325.33300      -427.30000                
G14  20693564.68000 108745416.36700      -214.65600                
G15  24900718.52400 130854159.03500     -4048.55300                
G18  21939528.30900 115292999.42800      2554.74900                
G19  21618730.32400 113607194.63900     -2177.34100                
G22  23682286.14400 124451253.66100      2975.09000                
G23  20738805.59700 108983158.99000     -1186.82000                
G27  21287397.95800 111866031.30100      1920.29000                
G28  24152701.57100 126923303.41800     -3031.79900                
E01         9.82600        51.63700       -14.38000                
E02        33.48800       175.97900       -12.49400                
E05        40.23100       211.41600        10.39900                
E06        18.57800        97.62600        14.91400                
> 2025 04 22 14 00 30.0000000  0 14
G03  24457330.48300 128524139.15200      1635.25200                
G09  24284660.46300 127616752.07600      -426.17400                
G14  20693605.52100 108745630.98500      -214.59100                
G15  24901489.05100 130858208.18200     -4049.79000                
G18  21939042.04700 115290444.10100      2555.89900                
G19  21619144.81800 113609372.82000     -2179.02400                
G22  23681719.90600 124448278.06100      2976.07300                
G23  20739031.51200 108984346.18200     -1187.55400                
G27  21287032.68800 111864111.79900      1918.69600                
G28  24153278.59100 126926335.67900     -3032.69900                
E01        12.62400        66.33900       -14.92100                
E02        35.80600       188.16200       -11.86300                
E05        38.18300       200.65100        11.12400                
E06        15.72600        82.64100        15.03100                
> 2025 04 22 14 00 31.0000000  0 14
G03  24457019.47400 128522504.79200      1633.49200                
G09  24284741.45000 127617177.66400      -424.99700                
G14  20693646.35600 108745845.57500      -214.60400                
G15  24902259.82900 130862258.64800     -4051.18900                
G18  21938555.56500 115287887.62300      2557.05000                
G19  21619559.63000 113611552.67200     -2180.68000                
G22  23681153.49600 124445301.55900      2976.89100                
G23  20739257.56100 108985534.07400     -1188.22000                
G27  21286667.73000 111862193.92800      1917.02900                
G28  24153855.76300 126929368.73600     -3033.39000                
E01        15.47800        81.34000       -15.03400                
E02        38.00000       199.68900       -11.18500                
E05        36.00000       189.18300        11.80600                
E06        12.87000        67.63100        14.94200                
> 2025 04 22 14 00 32.0000000  0 14
G03  24456708.78500 128520872.10700      1631.90500                
G09  24284822.21000 127617602.06100      -423.79500                
G14  20693687.20200 108746060.22100      -214.70400                
G15  24903030.88700 130866310.58700     -4052.73100                
G18  21938068.86500 115285329.99900      2558.18300                
G19  21619974.75300 113613734.15900     -2182.29100                
G22  23680586.94800 124442324.32700      2977.53000                
G23  20739483.72900 108986722.59500     -1188.81300                
G27  21286303.09400 111860277.75500      1915.30600                
G28  24154433.04500 126932402.37600     -3033.86600                
E01        18.33200        96.33500       -14.93000                
E02        40.06000       210.51700       -10.46400                
E05        33.69300       177.05500        12.44100                
E06        10.06400        52.88500        14.45400                
> 2025 04 22 14 00 33.0000000  0 14
G03  24456398.37900 128519240.91600      1630.50700                
G09  24284902.74100 127618025.25400      -422.59400                
G14  20693728.07600 108746275.01500      -214.90100                
G15  24903802.25100 130870364.13000     -4054.39300                
G18  21937581.95400 115282771.26100      2559.27800                
G19  21620390.17700 113615917.22600     -2183.83800                
G22  23680020.29600 124439346.55100      2977.97700                
G23  20739710.00300 108987911.67300     -1189.33100                
G27  21285938.79000 111858363.32600      1913.54200                
G28  24155010.39800 126935436.38300     -3034.12400                
E01        21.15200       111.15500       -14.69100                
E02        41.97900       220.60400        -9.70200                
E05        31.26900       164.31800        13.02500                
E06         7.42800        39.03400        12.99600                
> 2025 04 22 14 00 34.0000000  0 14
G03  24456088.22100 128517611.02300      1629.31100                
G09  24284983.04600 127618447.25900      -421.42200                
G14  20693768.99700 108746490.05700      -215.20200                
G15  24904573.94000 130874419.38500     -4056.15200                
G18  21937094.83900 115280211.45500      2560.31500                
G19  21620805.88800 113618101.80200     -2185.30500                
G22  23679453.57800 124436368.42800      2978.22300                
G23  20739936.36800 108989101.23000     -1189.77200                
G27  21285574.82500 111856450.67400      1911.75500                
G28  24155587.77900 126938470.54100     -3034.16700                
E01        23.91700       125.68500       -14.35500                
E02        43.75000       229.91000        -8.90400                
E05        28.73900       151.02300        13.55500                
E06         5.28900        27.79600         8.73700                
> 2025 04 22 14 00 35.0000000  0 13
G03  24455778.27000 128515982.22000      1628.32800                
G09  24285063.13200 127618868.11600      -420.30500                
G14  20693809.98600 108746705.45500      -215.61300                
G15  24905345.97200 130878476.43800     -4057.98400                
G18  21936607.53300 115277650.64700      2561.27900                
G19  21621221.87000 113620287.79800     -2186.67600                
G22  23678886.83300 124433390.16200      2978.26300                
G23  20740162.81000 108990291.18800     -1190.13300                
G27  21285211.20000 111854539.81300      1909.96200                
G28  24156165.14700 126941504.63500     -3033.99800                
E01        26.61100       139.84000       -13.94200                
E05        26.11400       137.22900        14.02400                
E06         4.48100        23.54900        -1.06500                
> 2025 04 22 14 00 36.0000000  0 14
G03  24455468.48500 128514354.29100      1627.56300                
G09  24285143.01300 127619287.89400      -419.26700                
G14  20693851.06400 108746921.32200      -216.13900                
G15  24906118.35600 130882535.34600     -4059.86000                
G18  21936120.05300 115275088.92000      2562.15000                
G19  21621638.10100 113622475.11000     -2187.93500                
G22  23678320.10000 124430411.96100      2978.09200                
G23  20740389.31200 108991481.46900     -1190.41700                
G27  21284847.91600 111852630.74100      1908.18200                
G28  24156742.46500 126944538.45700     -3033.62500                
E01        29.21900       153.54600       -13.46100                
E04        43.43100       228.22900         9.05600                
E05        23.40600       122.99800        14.42400                
E06         5.62200        29.54100        -9.90700                
> 2025 04 22 14 00 37.0000000  0 14
G03  24455158.82500 128512727.01600      1627.02200                
G09  24285222.70700 127619706.68500      -418.33400                
G14  20693892.25300 108747137.77300      -216.78300                
G15  24906891.10000 130886596.14400     -4061.75600                
G18  21935632.41700 115272526.37500      2562.91400                
G19  21622054.56100 113624663.62000     -2189.07000                
G22  23677753.42000 124427434.03600      2977.71100                
G23  20740615.86200 108992671.99400     -1190.62200                
G27  21284484.96800 111850723.43600      1906.43000                
G28  24157319.69200 126947571.80700     -3033.05700                
E01        31.73000       166.74200       -12.92100                
E04        41.63100       218.77400         9.84700                
E05        20.62900       108.40700        14.74400                
E06         7.89800        41.50200       -13.39800                
> 2025 04 22 14 00 38.0000000  0 14
G03  24454849.24700 128511100.16900      1626.70400                
G09  24285302.23400 127620124.60400      -417.52700                
G14  20693933.57600 108747354.92800      -217.54600                
G15  24907664.20500 130890658.83600     -4063.64400                
G18  21935144.64600 115269963.12400      2563.55700                
G19  21622471.22400 113626853.19800     -2190.06800                
G22  23677186.83200 124424456.59700      2977.12200                
G23  20740842.44300 108993862.68700     -1190.75300                
G27  21284122.34900 111848817.86100      1904.72500                
G28  24157896.79400 126950604.49900     -3032.30900                
E01        34.13300       179.36900       -12.32600                
E04        39.68500       208.54700        10.60100                
E05        17.80100        93.54500        14.96100                
E06        10.58100        55.60100       -14.59300                
> 2025 04 22 14 00 39.0000000  0 14
G03  24454539.70700 128509473.53000      1626.60700                
G09  24285381.62200 127620541.78900      -416.86900                
G14  20693975.05600 108747572.90500      -218.42700                
G15  24908437.66600 130894723.40100     -4065.49700                
G18  21934656.76600 115267399.29800      2564.06500                
G19  21622888.06300 113629043.70300     -2190.92200                
G22  23676620.37500 124421479.84800      2976.33200                
G23  20741069.04300 108995053.47500     -1190.81300                
G27  21283760.04900 111846913.96000      1903.08200                
G28  24158473.73800 126953636.35800     -3031.39500                
E01        36.41800       191.37700       -11.68200                
E04        37.59900       197.58500        11.31500                
E05        14.94400        78.53400        15.03200                
E06        13.40200        70.42900       -14.98100                
> 2025 04 22 14 00 40.0000000  0 14
G03  24454230.16600 128507846.88000      1626.72600                
G09  24285460.90000 127620958.39800      -416.37800                
G14  20694016.71400 108747791.82100      -219.42400                
G15  24909211.47400 130898789.78900     -4067.28900                
G18  21934168.80300 115264835.03300      2564.43000                
G19  21623305.05000 113631234.98600     -2191.62300                
G22  23676054.08800 124418503.98700      2975.34800                
G23  20741295.64700 108996244.28800     -1190.80500                
G27  21283398.05400 111845011.66500      1901.51800                
G28  24159050.49300 126956667.22900     -3030.33400                
E01        38.57600       202.71800       -10.99200                
E04        35.38200       185.93200        11.98400                
E05        12.09500        63.56000        14.86200                
E06        16.26100        85.45100       -15.02200                
> 2025 04 22 14 00 41.0000000  0 14
G03  24453920.58200 128506220.00600      1627.05100                
G09  24285540.10100 127621374.60600      -416.07000                
G14  20694058.57300 108748011.79100      -220.53300                
G15  24909985.61500 130902857.92800     -4068.99400                
G18  21933680.78500 115262270.48000      2564.64200                
G19  21623722.15600 113633426.89100     -2192.16700                
G22  23675488.00500 124415529.20200      2974.18200                
G23  20741522.24400 108997435.06200     -1190.73500                
G27  21283036.34800 111843110.88900      1900.04500                
G28  24159627.03400 126959696.97300     -3029.14600                
E01        40.59900       213.34800       -10.26000                
E04        33.04100       173.63300        12.60600                
E05         9.31900        48.97100        14.19400                
E06        19.10800       100.41200       -14.87600                
> 2025 04 22 14 00 42.0000000  0 14
G03  24453610.91800 128504592.71000      1627.57000                
G09  24285619.26300 127621790.60300      -415.95900                
G14  20694100.65300 108748232.92400      -221.74900                
G15  24910760.07000 130906927.71900     -4070.58700                
G18  21933192.74100 115259705.79400      2564.69600                
G19  21624139.35000 113635619.26000     -2192.55000                
G22  23674922.16000 124412555.66700      2972.84900                
G23  20741748.82200 108998625.73800     -1190.61000                
G27  21282674.91300 111841211.53500      1898.67800                
G28  24160203.33900 126962725.47400     -3027.85200                
E01        42.47800       223.22500        -9.48800                
E04        30.58700       160.73800        13.17600                
E05         6.77100        35.58200        12.24200                
E06        21.91500       115.16300       -14.60800                
> 2025 04 22 14 00 43.0000000  0 14
G03  24453301.13800 128502964.80400      1628.26900                
G09  24285698.42300 127622206.59300      -416.05600                
G14  20694142.97400 108748455.32200      -223.06400                
G15  24911534.81700 130910999.03700     -4072.04700                
G18  21932704.70300 115257141.13500      2564.58700                
G19  21624556.60100 113637811.93100     -2192.77200                
G22  23674356.58400 124409583.54300      2971.36500                
G23  20741975.37100 108999816.26400     -1190.43700                
G27  21282313.72700 111839313.49100      1897.42600                
G28  24160779.38900 126965752.63800     -3026.47700                
E01        44.20700       232.31100        -8.68000                
E04        28.03000       147.30100        13.68900                
E05         4.88800        25.68900         6.61000                
E06        24.66200       129.59800       -14.24900                
> 2025 04 22 14 00 44.0000000  0 13
G03  24452991.20900 128501336.11500      1629.13000                
G09  24285777.62200 127622622.78800      -416.36900                
G14  20694185.55400 108748679.08100      -224.46900                
G15  24912309.82600 130915071.74100     -4073.35200                
G18  21932216.70100 115254576.66600      2564.31400                
G19  21624973.88000 113640004.74500     -2192.83500                
G22  23673791.30300 124406612.97100      2969.74800                
G23  20742201.88400 109001006.59700     -1190.22300                
G27  21281952.76800 111837416.63600      1896.30100                
G28  24161355.17200 126968778.39700     -3025.04500                
E04        25.38100       133.38000        14.14000                
E05         4.61600        24.25800        -4.05700                
E06        27.33300       143.63700       -13.81600                
> 2025 04 22 14 00 45.0000000  0 14
G03  24452681.10200 128499706.49300      1630.13400                
G09  24285856.90200 127623039.40600      -416.90300                
G14  20694228.41000 108748904.28700      -225.95600                
G15  24913085.06800 130919145.66400     -4074.48400                
G18  21931728.76600 115252012.55300      2563.87800                
G19  21625391.15500 113642197.54300     -2192.74200                
G22  23673226.34000 124403644.07400      2968.01800                
G23  20742428.35300 109002196.69800     -1189.97700                
G27  21281592.01000 111835520.83900      1895.31000                
G28  24161930.67900 126971802.70600     -3023.58100                
E03        42.95500       225.72900         9.27600                
E04        22.65300       119.04300        14.52000                
E05         6.17400        32.44500       -11.25700                
E06        29.91600       157.20900       -13.31900                
> 2025 04 22 14 00 46.0000000  0 14
G03  24452370.79200 128498075.80400      1631.26000                
G09  24285936.30500 127623456.66900      -417.66000                
G14  20694271.55500 108749131.01500      -227.51200                
G15  24913860.50700 130923220.62500     -4075.42700                
G18  21931240.93000 115249448.95500      2563.28200                
G19  21625808.39900 113644390.17400     -2192.50100                
G22  23672661.71600 124400676.95300      2966.19900                
G23  20742654.77300 109003386.54200     -1189.70800                
G27  21281231.42700 111833625.96400      1894.46000                
G28  24162505.90600 126974825.54500     -3022.11100                
E03        41.11500       216.06000        10.05700                
E04        19.86100       104.36800        14.81400                
E05         8.60700        45.23200       -13.85800                
E06        32.39800       170.25500       -12.76300                
> 2025 04 22 14 00 47.0000000  0 14
G03  24452060.25800 128496443.93700      1632.48300                
G09  24286015.87200 127623874.79900      -418.63700                
G14  20694315.00100 108749359.33000      -229.12600                
G15  24914636.10700 130927296.42900     -4076.16700                
G18  21930753.22200 115246886.03200      2562.53200                
G19  21626225.58300 113646582.49200     -2192.11900                
G22  23672097.44400 124397711.68600      2964.31400                
G23  20742881.14000 109004576.10900     -1189.42500                
G27  21280870.99200 111831731.86700      1893.75300                
G28  24163080.85500 126977846.92300     -3020.66200                
E03        39.13000       205.62800        10.80100                
E04        17.02200        89.45100        14.99700                
E05        11.34400        59.61400       -14.75100                
E06        34.77000       182.71800       -12.15500                
> 2025 04 22 14 00 48.0000000  0 14
G03  24451749.48500 128494810.81000      1633.77900                
G09  24286095.64600 127624294.01500      -419.83000                
G14  20694358.76000 108749589.28200      -230.78500                
G15  24915411.82800 130931372.86800     -4076.69400                
G18  21930265.67000 115244323.93300      2561.63400                
G19  21626642.68200 113648774.36200     -2191.60700                
G22  23671533.53600 124394748.32800      2962.38600                
G23  20743107.45200 109005765.38900     -1189.13700                
G27  21280510.67900 111829838.40500      1893.19100                
G28  24163655.53200 126980866.87300     -3019.25900                
E03        37.00700       194.47300        11.50200                
E04        14.16300        74.42700        15.01600                
E05        14.18300        74.53100       -15.01700                
E06        37.02100       194.54800       -11.49800                
> 2025 04 22 14 00 49.0000000  0 14
G03  24451438.45900 128493176.36100      1635.12200                
G09  24286175.66800 127624714.52900      -421.23200                
G14  20694402.83700 108749820.91100      -232.47600                
G15  24916187.62700 130935449.72300     -4077.00100                
G18  21929778.30300 115241762.80100      2560.60000                
G19  21627059.67300 113650965.66000     -2190.97700                
G22  23670969.99700 124391786.90900      2960.44100                
G23  20743333.71000 109006954.38300     -1188.85400                
G27  21280150.45800 111827945.43200      1892.77600                
G28  24164229.94900 126983885.45300     -3017.92700                
E03        34.75500       182.63800        12.15900                
E04        11.32500        59.51300        14.74700                
E05        17.04200        89.55500       -14.99700                
E06        39.14300       205.69900       -10.79600                
> 2025 04 22 14 00 50.0000000  0 14
G03  24451127.17600 128491540.55500      1636.48600                
G09  24286255.97400 127625136.54400      -422.83100                
G14  20694447.23800 108750054.23900      -234.18400                
G15  24916963.46400 130939526.77400     -4077.08300                
G18  21929291.14500 115239202.76700      2559.44100                
G19  21627476.53300 113653156.27600     -2190.24300                
G22  23670406.82700 124388827.43200      2958.50400                
G23  20743559.91500 109008143.10000     -1188.58600                
G27  21279790.30200 111826052.80200      1892.50300                
G28  24164804.12100 126986902.74700     -3016.69000                
E03        32.38200       170.17100        12.76700                
E04         8.58900        45.13600        13.84700                
E05        19.88000       104.47100       -14.81300                
E06        41.12700       216.12600       -10.05200                
> 2025 04 22 14 00 51.0000000  0 14
G03  24450815.63300 128489903.38700      1637.84400                
G09  24286336.60300 127625560.25200      -424.61400                
G14  20694491.96500 108750289.27900      -235.89500                
G15  24917739.29600 130943603.79500     -4076.94000                
G18  21928804.21800 115236643.94900      2558.16900                
G19  21627893.24500 113655346.11100     -2189.42100                
G22  23669844.02300 124385869.87800      2956.60100                
G23  20743786.07200 109009331.56000     -1188.34000                
G27  21279430.18500 111824160.37500      1892.36900                
G28  24165378.06800 126989918.86100     -3015.57100                
E03        29.89900       157.12200        13.32200                
E04         6.15900        32.36800        11.22800                
E05        22.67200       119.14500       -14.51800                
E06        42.96600       225.79000        -9.27000                
> 2025 04 22 14 00 52.0000000  0 14
G03  24450503.83500 128488264.87500      1639.16800                
G09  24286417.58800 127625985.82800      -426.56400                
G14  20694537.01600 108750526.02500      -237.59500                
G15  24918515.07800 130947680.55900     -4076.57400                
G18  21928317.54200 115234086.45200      2556.80200                
G19  21628309.79300 113657535.08800     -2188.52700                
G22  23669281.57700 124382914.20100      2954.75500                
G23  20744012.18400 109010519.79000     -1188.12700                
G27  21279070.08100 111822268.01500      1892.36800                
G28  24165951.81600 126992933.92400     -3014.59100                
E03        27.31600       143.54600        13.81900                
E04         4.61100        24.23100         3.98500                
E05        25.40000       133.47900       -14.13800                
E06        44.65300       234.65500        -8.45300                
> 2025 04 22 14 00 53.0000000  0 14
G03  24450191.78900 128486625.06700      1640.43300                
G09  24286498.95800 127626413.42900      -428.66300                
G14  20694582.38900 108750764.46000      -239.26900                
G15  24919290.77000 130951756.84800     -4075.98900                
G18  21927831.13500 115231530.36400      2555.35400                
G19  21628726.16600 113659723.14200     -2187.58000                
G22  23668719.47400 124379960.33000      2952.99100                
G23  20744238.26000 109011707.82600     -1187.95500                
G27  21278709.96500 111820375.59400      1892.49000                
G28  24166525.39200 126995948.08500     -3013.76900                
E02        44.19700       232.25500         8.68600                
E03        24.64400       129.50400        14.25200                
E04         4.89700        25.73600        -6.67100                
E05        28.04900       147.39600       -13.68600                
> 2025 04 22 14 00 54.0000000  0 14
G03  24449879.51100 128484984.03400      1641.61300                
G09  24286580.73900 127626843.19500      -430.88900                
G14  20694628.07700 108751004.55100      -240.90500                
G15  24920066.33100 130955832.44700     -4075.19600                
G18  21927345.00900 115228975.75600      2553.84400                
G19  21629142.35500 113661910.23000     -2186.59700                
G22  23668157.69700 124377008.17400      2951.33100                
G23  20744464.30800 109012895.71500     -1187.83200                
G27  21278349.81500 111818482.99200      1892.72700                
G28  24167098.82700 126998961.51000     -3013.12200                
E02        42.46600       223.16200         9.49300                
E03        21.89600       115.06600        14.61000                
E04         6.78700        35.66800       -12.26400                
E05        30.60500       160.83100       -13.17200                
> 2025 04 22 14 00 55.0000000  0 14
G03  24449567.01800 128483341.87300      1642.68400                
G09  24286662.95500 127627275.24200      -433.22000                
G14  20694674.07100 108751246.25300      -242.48900                
G15  24920841.72100 130959907.15200     -4074.20500                
G18  21926859.17500 115226422.68100      2552.29100                
G19  21629558.35500 113664096.32500     -2185.59900                
G22  23667596.22500 124374057.61600      2949.79600                
G23  20744690.33700 109014083.50700     -1187.76400                
G27  21277989.61000 111816590.10100      1893.06600                
G28  24167672.15700 127001974.38000     -3012.66300                
E02        40.58600       213.28000        10.26500                
E03        19.08900       100.31400        14.87700                
E04         9.33800        49.07100       -14.20200                
E05        33.05800       173.72200       -12.60200                
> 2025 04 22 14 00 56.0000000  0 14
G03  24449254.33400 128481698.70600      1643.62400                
G09  24286745.62300 127627709.66300      -435.63200                
G14  20694720.36100 108751489.50700      -244.00800                
G15  24921616.90600 130963980.77400     -4073.03100                
G18  21926373.64000 115223871.17400      2550.71300                
G19  21629974.16500 113666281.42200     -2184.60300                
G22  23667035.03100 124371108.52300      2948.40600                
G23  20744916.35900 109015271.26200     -1187.75800                
G27  21277629.33200 111814696.82600      1893.49400                
G28  24168245.41900 127004986.89100     -3012.40500                
E02        38.56200       202.64600        10.99700                
E03        16.24200        85.35200        15.02300                
E04        12.11500        63.66400       -14.86500                
E05        35.39800       186.01700       -11.98000                
> 2025 04 22 14 00 57.0000000  0 14
G03  24448941.48500 128480054.67300      1644.41100                
G09  24286828.75500 127628146.52500      -438.09900                
G14  20694766.93200 108751734.24300      -245.45100                
G15  24922391.85100 130968053.13800     -4071.69000                
G18  21925888.40500 115221321.24900      2549.13000                
G19  21630389.78800 113668465.53300     -2183.63000                
G22  23666474.08600 124368160.73900      2947.17800                
G23  20745142.38700 109016459.04400     -1187.82000                
G27  21277268.96500 111812803.08400      1893.99600                
G28  24168818.65200 127007999.24700     -3012.35500                
E02        36.40300       191.30000        11.68700                
E03        13.38300        70.33000        14.98000                
E04        14.96500        78.64000       -15.03300                
E05        37.61400       197.66500       -11.31000                
> 2025 04 22 14 00 58.0000000  0 14
G03  24448628.50200 128478409.93700      1645.02700                
G09  24286912.35900 127628585.87100      -440.59500                
G14  20694813.77100 108751980.38000      -246.80700                
G15  24923166.52600 130972124.08500     -4070.20400                
G18  21925403.47100 115218772.90200      2547.56200                
G19  21630805.22900 113670648.69000     -2182.69900                
G22  23665913.35900 124365214.09700      2946.12600                
G23  20745368.43300 109017646.92500     -1187.95500                
G27  21276908.49600 111810908.81000      1894.55700                
G28  24169391.89500 127011011.66100     -3012.51900                
E02        34.11700       179.28700        12.33100                
E03        10.56200        55.50500        14.58900                
E04        17.82100        93.65100       -14.96000                
E05        39.69900       208.62200       -10.59600                
> 2025 04 22 14 00 59.0000000  0 14
G03  24448315.42000 128476764.67800      1645.45600                
G09  24286996.44000 127629027.71600      -443.09400                
G14  20694860.85800 108752227.82600      -248.06800                
G15  24923940.90700 130976193.48200     -4068.59200                
G18  21924918.83200 115216226.10600      2546.02800                
G19  21631220.49800 113672830.94400     -2181.82700                
G22  23665352.81400 124362268.41300      2945.26400                
G23  20745594.51200 109018834.97700     -1188.16400                
G27  21276547.91700 111809013.95100      1895.16100                
G28  24169965.19000 127014024.34700     -3012.90100                
E02        31.71300       166.65600        12.92500                
E03         7.88100        41.41400        13.38400                
E04        20.64900       108.51100       -14.74200                
E05        41.64500       218.84400        -9.84200                
> 2025 04 22 14 01  0.0000000  0 14
G03  24448002.27400 128475119.08800      1645.68500                
G09  24287080.99400 127629472.05100      -445.56800                
G14  20694908.17500 108752476.48100      -249.22500                
G15  24924714.97100 130980261.21500     -4066.87900                
G18  21924434.48000 115213680.82000      2544.54600                
G19  21631635.60800 113675012.36400     -2181.03200                
G22  23664792.41400 124359323.49100      2944.60100                
G23  20745820.63800 109020023.27700     -1188.45200                
G27  21276187.22000 111807118.47500      1895.79000                
G28  24170538.57800 127017037.52300     -3013.49900                
E02        29.20200       153.45600        13.46400                
E03         5.60900        29.47800         9.86800                
E04        23.42500       123.10000       -14.42200                
E05        43.44300       228.29300        -9.05000                
> 2025 04 22 14 01  1.0000000  0 15
G03  24447689.10600 128473473.37500      1645.70300                
G09  24287166.01400 127629918.83600      -447.99200                
G14  20694955.70300 108752726.23800      -250.27200                
G15  24925488.70100 130984327.19400     -4065.08900                
G18  21923950.40300 115211136.98100      2543.13700                
G19  21632050.57600 113677193.03500     -2180.33200                
G22  23664232.12100 124356379.13100      2944.14300                
G23  20746046.82600 109021211.90500     -1188.81800                
G27  21275826.40100 111805222.36300      1896.42800                
G28  24171112.10100 127020051.40300     -3014.30900                
E01        45.35500       238.34400         8.07900                
E02        26.59300       139.74600        13.94500                
E03         4.48100        23.54600         0.98800                
E04        26.13300       137.32800       -14.02100                
E05        45.08700       236.93300        -8.22400                
> 2025 04 22 14 01  2.0000000  0 14
G03  24447375.95400 128471827.75300      1645.50200                
G09  24287251.48900 127630368.00800      -450.33900                
G14  20695003.41800 108752976.98600      -251.20500                
G15  24926262.08500 130988391.35600     -4063.24900                
G18  21923466.58700 115208594.51000      2541.81500                
G19  21632465.42100 113679373.05800     -2179.74000                
G22  23663671.89500 124353435.12400      2943.89500                
G23  20746273.09200 109022400.93900     -1189.26400                
G27  21275465.46300 111803325.61700      1897.05600                
G28  24171685.79700 127023066.19800     -3015.32500                
E01        43.73900       229.84700         8.91000                
E02        23.89900       125.58900        14.35800                
E03         5.30100        27.85900        -8.78300                
E04        28.75700       151.11900       -13.55100                
> 2025 04 22 14 01  3.0000000  0 14
G03  24447062.86200 128470182.44200      1645.07800                
G09  24287337.40100 127630819.48000      -452.58500                
G14  20695051.30100 108753228.60800      -252.02000                
G15  24927035.11700 130992453.66400     -4061.38400                
G18  21922983.01300 115206053.30900      2540.59700                
G19  21632880.16400 113681552.54900     -2179.27000                
G22  23663111.69600 124350491.25900      2943.85700                
G23  20746499.45000 109023590.45800     -1189.78900                
G27  21275104.40700 111801428.25500      1897.65700                
G28  24172259.70500 127026082.10800     -3016.53700                
E01        41.96700       220.53600         9.70800                
E02        21.13300       111.05600        14.69400                
E03         7.44500        39.12500       -13.01200                
E04        31.28600       164.41000       -13.02100                
> 2025 04 22 14 01  4.0000000  0 14
G03  24446749.87200 128468537.66700      1644.43100                
G09  24287423.72900 127631273.13800      -454.70800                
G14  20695099.32600 108753480.98600      -252.71600                
G15  24927807.79300 130996514.10500     -4059.52300                
G18  21922499.65900 115203513.26800      2539.49800                
G19  21633294.83100 113683731.63700     -2178.93500                
G22  23662551.48500 124347547.32800      2944.02800                
G23  20746725.91500 109024780.54000     -1190.38900                
G27  21274743.24000 111799530.31200      1898.21500                
G28  24172833.86200 127029099.32200     -3017.93200                
E01        40.04600       210.44400        10.46900                
E02        18.31300        96.23400        14.93100                
E03        10.08300        52.98700       -14.46000                
E04        33.70900       177.14400       -12.43600                
> 2025 04 22 14 01  5.0000000  0 14
G03  24446437.02600 128466893.65100      1643.56200                
G09  24287510.44800 127631728.84800      -456.68600                
G14  20695147.47400 108753734.00100      -253.29400                
G15  24928580.11700 131000572.69800     -4057.69100                
G18  21922016.50200 115200974.26100      2538.53000                
G19  21633709.44700 113685910.46000     -2178.74300                
G22  23661991.22100 124344603.12600      2944.40100                
G23  20746952.50100 109025971.25900     -1191.06200                
G27  21274381.97300 111797631.84000      1898.71300                
G28  24173408.30100 127032118.01700     -3019.49600                
E01        37.98500       199.61100        11.19000                
E02        15.45900        81.23800        15.03400                
E03        12.89000        67.73600       -14.94400                
E04        36.01600       189.26600       -11.80100                
> 2025 04 22 14 01  6.0000000  0 14
G03  24446124.36600 128465250.61200      1642.47700                
G09  24287597.52800 127632186.45500      -458.49900                
G14  20695195.71900 108753987.53500      -253.75500                
G15  24929352.09800 131004629.48500     -4055.91600                
G18  21921533.51600 115198436.15300      2537.70300                
G19  21634124.04100 113688089.16700     -2178.70300                
G22  23661430.86900 124341658.45100      2944.96900                
G23  20747179.22200 109027162.68500     -1191.80400                
G27  21274020.61800 111795732.90700      1899.13500                
G28  24173983.05200 127035138.35200     -3021.21000                
E01        35.79000       188.07900        11.86700                
E02        12.60500        66.23800        14.91900                
E03        15.74600        82.74600       -15.03100                
E04        38.19800       200.73000       -11.11900                
> 2025 04 22 14 01  7.0000000  0 14
G03  24445811.93200 128463608.76300      1641.18300                
G09  24287684.93600 127632645.78600      -460.13200                
G14  20695244.04200 108754241.47300      -254.10400                
G15  24930123.74900 131008684.53500     -4054.22300                
G18  21921050.67300 115195898.79700      2537.02700                
G19  21634538.64200 113690267.91200     -2178.82000                
G22  23660870.39000 124338713.11600      2945.72000                
G23  20747406.09000 109028354.88600     -1192.60900                
G27  21273659.19100 111793833.59600      1899.46800                
G28  24174558.14100 127038160.46900     -3023.05400                
E01        33.47100       175.89200        12.49800                
E02         9.80800        51.54000        14.37400                
E03        18.59700        97.73000       -14.91200                
E04        40.24500       211.49000       -10.39400                
> 2025 04 22 14 01  8.0000000  0 14
G03  24445499.76400 128461968.30700      1639.69300                
G09  24287772.63600 127633106.65300      -461.56900                
G14  20695292.42100 108754495.70600      -254.34500                
G15  24930895.08700 131012737.94500     -4052.63600                
G18  21920567.94400 115193362.03800      2536.50800                
G19  21634953.28100 113692446.85500     -2179.09800                
G22  23660309.75200 124335766.94200      2946.64300                
G23  20747633.11700 109029547.92100     -1193.47100                
G27  21273297.71000 111791934.00200      1899.69700                
G28  24175133.59200 127041184.48600     -3025.00800                
E01        31.03700       163.10000        13.07800                
E02         7.19900        37.83100        12.76300                
E03        21.41300       112.52700       -14.66300                
E04        42.15100       221.50400        -9.62900                
> 2025 04 22 14 01  9.0000000  0 14
G03  24445187.89700 128460329.43400      1638.02100                
G09  24287860.59000 127633568.85400      -462.79900                
G14  20695340.83600 108754750.13000      -254.48600                
G15  24931666.13500 131016789.83100     -4051.18000                
G18  21920085.29900 115190825.71800      2536.15100                
G19  21635367.98900 113694626.15500     -2179.53700                
G22  23659748.92300 124332819.76800      2947.71900                
G23  20747860.31300 109030741.84300     -1194.38300                
G27  21272936.19700 111790034.23500      1899.81200                
G28  24175709.42400 127044210.50100     -3027.04700                
E01        28.49700       149.75500        13.60200                
E02         5.14000        27.01100         8.06700                
E03        24.17200       127.02600       -14.32000                
E04        43.90800       230.73600        -8.82800                
> 2025 04 22 14 01 10.0000000  0 15
G03  24444876.36400 128458692.31800      1636.18300                
G09  24287948.75800 127634032.18000      -463.81500                
G14  20695389.27000 108755004.64800      -254.53500                
G15  24932436.92000 131020840.33300     -4049.87400                
G18  21919602.70500 115188289.67400      2535.95700                
G19  21635782.79500 113696805.97500     -2180.13600                
G22  23659187.87600 124329871.44700      2948.93200                
G23  20748087.68700 109031936.70000     -1195.33800                
G27  21272574.67300 111788134.41500      1899.80200                
G28  24176285.65000 127047238.58800     -3029.14700                
E01        25.86400       135.91700        14.06500                
E02         4.51000        23.70000        -2.11700                
E03        26.85800       141.14100       -13.89900                
E04        45.50800       239.14900        -7.99300                
E06        44.92900       236.10200         8.30900                
> 2025 04 22 14 01 11.0000000  0 14
G03  24444565.19500 128457057.11400      1634.19900                
G09  24288037.09800 127634496.41100      -464.61000                
G14  20695437.70400 108755259.17200      -254.50200                
G15  24933207.47300 131024889.61400     -4048.73800                
G18  21919120.13400 115185753.74300      2535.92500                
G19  21636197.73000 113698986.47400     -2180.89300                
G22  23658626.58700 124326921.85300      2950.26100                
G23  20748315.24600 109033132.52900     -1196.32600                
G27  21272213.16400 111786234.67000      1899.66000                
G28  24176862.27900 127050268.79600     -3031.28300                
E01        23.14900       121.64900        14.45800                
E02         5.80300        30.49200       -10.41300                
E03        29.45800       154.80200       -13.41200                
E06        43.26900       227.37900         9.13200                
> 2025 04 22 14 01 12.0000000  0 14
G03  24444254.41600 128455423.95900      1632.09000                
G09  24288125.56800 127634961.32500      -465.18300                
G14  20695486.12500 108755513.62700      -254.39700                
G15  24933977.82600 131028937.85000     -4047.78900                
G18  21918637.55300 115183217.76200      2536.05400                
G19  21636612.82300 113701167.80500     -2181.80000                
G22  23658065.03600 124323970.88200      2951.68400                
G23  20748542.99500 109034329.35900     -1197.34000                
G27  21271851.69400 111784335.13700      1899.37900                
G28  24177439.31600 127053301.14600     -3033.42900                
E01        20.36700       107.02800        14.76900                
E02         8.13800        42.76300       -13.57000                
E03        31.95900       167.94600       -12.86700                
E06        41.45600       217.85000         9.92000                
> 2025 04 22 14 01 13.0000000  0 14
G03  24443944.04800 128453792.96500      1629.87900                
G09  24288214.12600 127635426.70200      -465.53400                
G14  20695534.52100 108755767.94700      -254.23300                
G15  24934748.01900 131032985.23800     -4047.03900                
G18  21918154.93200 115180681.57500      2536.33800                
G19  21637028.10300 113703350.11500     -2182.84900                
G22  23657503.20700 124321018.45000      2953.17900                
G23  20748770.93900 109035527.21100     -1198.36900                
G27  21271490.29200 111782435.95500      1898.95500                
G28  24178016.76100 127056335.63700     -3035.55900                
E01        17.53500        92.14600        14.97500                
E02        10.84100        56.96800       -14.65200                
E03        34.35100       180.51800       -12.26800                
E06        39.49600       207.55200        10.67000                
> 2025 04 22 14 01 14.0000000  0 14
G03  24443634.10900 128452164.22200      1627.59200                
G09  24288302.73100 127635892.32100      -465.66800                
G14  20695582.88000 108756022.07800      -254.02300                
G15  24935518.08800 131037031.97900     -4046.50100                
G18  21917672.24400 115178145.02900      2536.76900                
G19  21637443.59500 113705533.54200     -2184.03200                
G22  23656941.08900 124318064.49800      2954.72000                
G23  20748999.07900 109036726.09700     -1199.40500                
G27  21271128.98400 111780537.27000      1898.38600                
G28  24178594.60700 127059372.23800     -3037.64600                
E01        14.67700        77.12800        15.02900                
E02        13.66900        71.83000       -14.99600                
E03        36.62500       192.46600       -11.61900                
E06        37.39700       196.52400        11.37900                
> 2025 04 22 14 01 15.0000000  0 14
G03  24443324.61000 128450537.79500      1625.25300                
G09  24288391.34000 127636357.96800      -465.59200                
G14  20695631.19600 108756275.98100      -253.77900                
G15  24936288.07600 131041078.29200     -4046.18300                
G18  21917189.46000 115175607.98200      2537.34000                
G19  21637859.32400 113707718.21300     -2185.33500                
G22  23656378.67400 124315108.99200      2956.28300                
G23  20749227.41600 109037926.01800     -1200.43700                
G27  21270767.79900 111778639.22700      1897.67200                
G28  24179172.84400 127062410.89500     -3039.66600                
E01        11.83100        62.17100        14.82700                
E02        16.52800        86.85400       -15.01500                
E03        38.77100       203.74200       -10.92500                
E06        35.16800       184.80800        12.04400                
> 2025 04 22 14 01 16.0000000  0 14
G03  24443015.55900 128448913.72200      1622.88900                
G09  24288479.91600 127636823.43900      -465.31700                
G14  20695679.46400 108756529.62900      -253.51600                
G15  24937058.02400 131045124.39800     -4046.08800                
G18  21916706.55500 115173070.29900      2538.03700                
G19  21638275.31200 113709904.24300     -2186.74600                
G22  23655815.96300 124312151.92200      2957.84300                
G23  20749455.94900 109039126.96500     -1201.45700                
G27  21270406.76300 111776741.97000      1896.81400                
G28  24179751.45700 127065451.52800     -3041.59500                
E01         9.06700        47.64700        14.08700                
E02        19.37200       101.80100       -14.85500                
E03        40.78000       214.30200       -10.18900                
E06        32.81600       172.45100        12.66100                
> 2025 04 22 14 01 17.0000000  0 14
G03  24442706.95800 128447292.01300      1620.52700                
G09  24288568.42200 127637288.54000      -464.85600                
G14  20695727.68100 108756783.01100      -253.24800                
G15  24937827.97600 131049170.52300     -4046.21900                
G18  21916223.50600 115170531.86200      2538.84800                
G19  21638691.57700 113712091.73000     -2188.24800                
G22  23655252.95600 124309193.30400      2959.37500                
G23  20749684.67400 109040328.92200     -1202.45400                
G27  21270045.90300 111774845.64100      1895.81700                
G28  24180330.42700 127068494.03500     -3043.40900                
E01         6.55600        34.45000        11.92900                
E02        22.17400       116.52600       -14.57800                
E03        42.64600       224.10700        -9.41400                
E06        30.35200       159.50200        13.22600                
> 2025 04 22 14 01 18.0000000  0 14
G03  24442398.80400 128445672.65400      1618.19400                
G09  24288656.82400 127637753.09500      -464.22500                
G14  20695775.84800 108757036.12900      -252.99000                
G15  24938597.97400 131053216.89000     -4046.57300                
G18  21915740.29300 115167992.56200      2539.75800                
G19  21639108.13500 113714280.75800     -2189.82600                
G22  23654689.66300 124306233.17900      2960.85300                
G23  20749913.58600 109041531.86200     -1203.42100                
G27  21269685.24700 111772950.37600      1894.68700                
G28  24180909.72900 127071538.28900     -3045.08800                
E01         4.77800        25.10700         5.76700                
E02        24.91500       130.92700       -14.21200                
E03        44.36100       233.11800        -8.60300                
E06        27.78600       146.01700        13.73400                
> 2025 04 22 14 01 19.0000000  0 14
G03  24442091.09000 128444055.60300      1615.91600                
G09  24288745.09100 127638216.94000      -463.44200                
G14  20695823.96700 108757288.99900      -252.75500                
G15  24939368.06000 131057263.72100     -4047.14600                
G18  21915256.89900 115165452.30900      2540.75200                
G19  21639524.99900 113716471.39400     -2191.46100                
G22  23654126.09600 124303271.61300      2962.25500                
G23  20750142.67800 109042735.74900     -1204.34800                
G27  21269324.81700 111771056.30400      1893.43200                
G28  24181489.33700 127074584.14600     -3046.61100                
E01         4.69600        24.67800        -5.00200                
E02        27.57800       144.92500       -13.77200                
E05        44.49000       233.79900         8.53700                
E06        25.12900       132.05400        14.17900                
> 2025 04 22 14 01 20.0000000  0 14
G03  24441783.80100 128442440.79100      1613.71900                
G09  24288833.19600 127638679.93500      -462.52800                
G14  20695872.04500 108757541.65100      -252.55800                
G15  24940138.27600 131061311.23100     -4047.93000                
G18  21914773.31000 115162911.02900      2541.81000                
G19  21639942.17900 113718663.68700     -2193.13500                
G22  23653562.27100 124300308.69200      2963.55700                
G23  20750371.94200 109043940.53900     -1205.22700                
G27  21268964.63700 111769163.54600      1892.06100                
G28  24182069.21800 127077631.44200     -3047.96200                
E01         6.37700        33.51000       -11.63500                
E02        30.15200       158.45100       -13.26900                
E05        42.78800       224.85300         9.35000                
E06        22.39400       117.68200        14.55200                
> 2025 04 22 14 01 21.0000000  0 14
G03  24441476.92100 128440828.12600      1611.62700                
G09  24288921.11600 127639141.96000      -461.50600                
G14  20695920.09100 108757794.13100      -252.41100                
G15  24940908.66000 131065359.62700     -4048.91400                
G18  21914289.51400 115160368.66500      2542.91600                
G19  21640359.67900 113720857.66500     -2194.82900                
G22  23652998.20900 124297344.52800      2964.73700                
G23  20750601.36800 109045146.18200     -1206.05100                
G27  21268604.72800 111767272.21200      1890.58700                
G28  24182649.33800 127080679.99600     -3049.12600                
E01         8.85400        46.52800       -13.98700                
E02        32.62500       171.44400       -12.70800                
E05        40.93400       215.11000        10.12800                
E06        19.59600       102.98000        14.83700                
> 2025 04 22 14 01 22.0000000  0 14
G03  24441170.42800 128439217.49100      1609.66400                
G09  24289008.83400 127639602.91800      -460.39900                
G14  20695968.11400 108758046.49400      -252.32700                
G15  24941679.24900 131069409.10200     -4050.08400                
G18  21913805.50500 115157825.18000      2544.04900                
G19  21640777.50200 113723053.33900     -2196.52400                
G22  23652433.93600 124294379.25300      2965.77700                
G23  20750830.94500 109046352.61800     -1206.81300                
G27  21268245.10800 111765382.39800      1889.02200                
G28  24183229.66200 127083729.61600     -3050.09100                
E01        11.60600        60.99000       -14.79400                
E02        34.98600       183.85000       -12.09500                
E05        38.93600       204.60900        10.86800                
E06        16.75500        88.04600        15.00700                
> 2025 04 22 14 01 23.0000000  0 14
G03  24440864.29400 128437608.74600      1607.84900                
G09  24289096.33500 127640062.73700      -459.23200                
G14  20696016.12800 108758298.81000      -252.31900                
G15  24942450.07800 131073459.83100     -4051.42300                
G18  21913321.27900 115155280.55600      2545.19100                
G19  21641195.64600 113725250.70000     -2198.20000                
G22  23651869.48000 124291413.01500      2966.65800                
G23  20751060.66100 109047559.78400     -1207.50800                
G27  21267885.79400 111763494.19000      1887.38000                
G28  24183810.14900 127086780.09800     -3050.84900                
E01        14.44900        75.93000       -15.02500                
E02        37.22500       195.61900       -11.43400                
E05        36.80100       193.38800        11.56600                
E06        13.89600        73.02200        15.00600                
> 2025 04 22 14 01 24.0000000  0 14
G03  24440558.48900 128436001.73400      1606.20200                
G09  24289183.61000 127640521.37200      -458.03300                
G14  20696064.14800 108758551.16000      -252.39600                
G15  24943221.17500 131077511.97600     -4052.91200                
G18  21912836.83700 115152734.79300      2546.32200                
G19  21641614.10500 113727449.72000     -2199.83800                
G22  23651304.87200 124288445.98300      2967.36500                
G23  20751290.50200 109048767.60800     -1208.13100                
G27  21267526.79800 111761607.65500      1885.67700                
G28  24184390.76000 127089831.23100     -3051.39200                
E01        17.30700        90.95100       -14.98600                
E02        39.33400       206.70400       -10.72800                
E05        34.53700       181.49300        12.21800                
E06        11.06300        58.13400        14.69800                
> 2025 04 22 14 01 25.0000000  0 14
G03  24440252.98100 128434396.27700      1604.74000                
G09  24289270.65600 127640978.80100      -456.82700                
G14  20696112.19300 108758803.63300      -252.56700                
G15  24943992.56900 131081565.67600     -4054.52900                
G18  21912352.18100 115150187.91300      2547.42300                
G19  21642032.87100 113729650.35100     -2201.42000                
G22  23650740.14800 124285478.33600      2967.88600                
G23  20751520.45500 109049976.01800     -1208.67800                
G27  21267168.13100 111759722.84700      1883.92900                
G28  24184971.45400 127092882.79900     -3051.71900                
E01        20.14300       105.85000       -14.79000                
E02        41.30500       217.06200        -9.98100                
E05        32.15400       168.96900        12.82100                
E06         8.34400        43.84600        13.70400                
> 2025 04 22 14 01 26.0000000  0 14
G03  24439947.73300 128432792.18500      1603.47600                
G09  24289357.47300 127641435.03200      -455.64100                
G14  20696160.27900 108759056.32900      -252.84200                
G15  24944764.28100 131085621.05000     -4056.25300                
G18  21911867.32100 115147639.95600      2548.47400                
G19  21642451.93200 113731852.52900     -2202.92800                
G22  23650175.34300 124282510.26600      2968.20900                
G23  20751750.50500 109051184.93600     -1209.14700                
G27  21266809.80000 111757839.80200      1882.15200                
G28  24185552.19000 127095934.58400     -3051.82800                
E01        22.92900       120.49500       -14.48600                
E02        43.13100       226.65300        -9.19600                
E05        29.66100       155.86800        13.37100                
E06         5.96300        31.33500        10.80600                
> 2025 04 22 14 01 27.0000000  0 13
G03  24439642.70500 128431189.25200      1602.42100                
G09  24289444.07000 127641890.09800      -454.50200                
G14  20696208.42800 108759309.35300      -253.22500                
G15  24945536.32800 131089678.18800     -4058.05700                
G18  21911382.26700 115145090.98000      2549.45700                
G19  21642871.27100 113734056.17000     -2204.34500                
G22  23649610.49600 124279541.97400      2968.32800                
G23  20751980.63600 109052394.28300     -1209.53600                
G27  21266451.80800 111755958.54100      1880.36500                
G28  24186132.92600 127098986.37100     -3051.72400                
E01        25.65000       134.79400       -14.09900                
E05        27.06900       142.24700        13.86200                
E06         4.54800        23.90100         2.99100                
> 2025 04 22 14 01 28.0000000  0 14
G03  24439337.85700 128429587.26700      1601.58400                
G09  24289530.45600 127642344.05900      -453.43500                
G14  20696256.66000 108759562.81700      -253.72300                
G15  24946308.72500 131093737.16200     -4059.91700                
G18  21910897.03400 115142541.06200      2550.35600                
G19  21643290.87000 113736261.17600     -2205.65500                
G22  23649045.64600 124276573.66800      2968.23900                
G23  20752210.83300 109053603.97900     -1209.84400                
G27  21266094.15600 111754079.06500      1878.58500                
G28  24186713.62200 127102037.95000     -3051.41200                
E01        28.29100       148.66900       -13.64100                
E04        44.04100       231.43500         8.76200                
E05        24.38900       128.16500        14.28900                
E06         5.02200        26.39300        -7.45100                
> 2025 04 22 14 01 29.0000000  0 14
G03  24439033.14700 128427986.00800      1600.96900                
G09  24289616.64700 127642797.00000      -452.46500                
G14  20696304.99900 108759816.83800      -254.33800                
G15  24947081.47900 131097798.01100     -4061.80600                
G18  21910411.63900 115139990.29400      2551.15300                
G19  21643710.70700 113738467.43400     -2206.84600                
G22  23648480.83300 124273605.55700      2967.93900                
G23  20752441.08200 109054813.94300     -1210.07400                
G27  21265736.84000 111752201.36000      1876.82800                
G28  24187294.23900 127105089.11700     -3050.90200                
E01        30.83800       162.05500       -13.12100                
E04        42.29600       222.26800         9.56600                
E05        21.63500       113.69500        14.63900                
E06         7.00700        36.82400       -12.54600                
> 2025 04 22 14 01 30.0000000  0 14
G03  24438728.53400 128426385.25200      1600.57700                
G09  24289702.66600 127643249.02900      -451.61500                
G14  20696353.46600 108760071.53300      -255.07200                
G15  24947854.59300 131101860.75300     -4063.69600                
G18  21909926.10300 115137438.78500      2551.83500                
G19  21644130.75800 113740674.81800     -2207.90400                
G22  23647916.09700 124270637.84900      2967.43000                
G23  20752671.36600 109056024.09800     -1210.22600                
G27  21265379.85500 111750325.39200      1875.11200                
G28  24187874.74200 127108139.68000     -3050.20600                
E01        33.28100       174.89400       -12.54600                
E04        40.40200       212.31400        10.33400                
E05        18.82300        98.91800        14.89600                
E06         9.59100        50.39900       -14.29900                
> 2025 04 22 14 01 31.0000000  0 14
G03  24438423.97300 128424784.77600      1600.40700                
G09  24289788.53600 127643700.27800      -450.90800                
G14  20696402.08400 108760327.02100      -255.92500                
G15  24948628.06500 131105925.37400     -4065.56100                
G18  21909440.44900 115134886.65800      2552.38900                
G19  21644550.99700 113742883.18900     -2208.82000                
G22  23647351.47800 124267670.75300      2966.71800                
G23  20752901.67300 109057234.36800     -1210.30300                
G27  21265023.19200 111748451.11200      1873.45300                
G28  24188455.09600 127111189.46100     -3049.33900                
E01        35.61000       187.13000       -11.91900                
E04        38.36600       201.61200        11.06300                
E05        15.97400        83.94400        15.02800                
E06        12.37900        65.05200       -14.89600                
> 2025 04 22 14 01 32.0000000  0 14
G03  24438119.42500 128423184.36200      1600.45500                
G09  24289874.28600 127644150.89800      -450.36100                
G14  20696450.87500 108760583.42200      -256.89500                
G15  24949401.88700 131109991.83800     -4067.37500                
G18  21908954.70400 115132334.04700      2552.80200                
G19  21644971.39600 113745092.40100     -2209.58500                
G22  23646787.01200 124264704.46800      2965.80900                
G23  20753131.98800 109058444.68000     -1210.31100                
G27  21264666.83700 111746578.45600      1871.86800                
G28  24189035.27000 127114238.29600     -3048.31800                
E01        37.81500       198.71700       -11.24600                
E04        36.19400       190.20300        11.74800                
E05        13.11600        68.92800        14.96200                
E06        15.23100        80.04200       -15.03400                
> 2025 04 22 14 01 33.0000000  0 14
G03  24437814.84700 128421583.79400      1600.71200                
G09  24289959.94900 127644601.06000      -449.99300                
G14  20696499.86200 108760840.84900      -257.97800                
G15  24950176.04800 131114060.07700     -4069.11000                
G18  21908468.89300 115129781.09500      2553.06800                
G19  21645391.92600 113747302.30100     -2210.19300                
G22  23646222.73800 124261739.18600      2964.71400                
G23  20753362.29800 109059654.96600     -1210.25300                
G27  21264310.77600 111744707.34400      1870.36900                
G28  24189615.23700 127117286.04100     -3047.16300                
E01        39.88700       209.60700       -10.52800                
E04        33.89700       178.13100        12.38800                
E05        10.30300        54.14200        14.52200                
E06        18.08700        95.04600       -14.94500                
> 2025 04 22 14 01 34.0000000  0 14
G03  24437510.20100 128419982.86900      1601.16700                
G09  24290045.56000 127645050.94900      -449.81900                
G14  20696549.06500 108761099.41400      -259.16900                
G15  24950950.52900 131118130.00200     -4070.74300                
G18  21907983.04700 115127227.95500      2553.17700                
G19  21645812.55600 113749512.72800     -2210.64100                
G22  23645658.68900 124258775.08700      2963.44500                
G23  20753592.59100 109060865.16500     -1210.13700                
G27  21263954.99100 111742837.68000      1868.97100                
G28  24190194.97200 127120332.57200     -3045.89500                
E01        41.81900       219.75900        -9.77000                
E04        31.48300       165.44400        12.97700                
E05         7.64400        40.16900        13.19200                
E06        20.91100       109.88600       -14.71600                
> 2025 04 22 14 01 35.0000000  0 14
G03  24437205.45100 128418381.39600      1601.80600                
G09  24290131.15700 127645500.76600      -449.84900                
G14  20696598.50500 108761359.22100      -260.46200                
G15  24951725.30900 131122201.49900     -4072.25000                
G18  21907497.19500 115124674.78600      2553.12600                
G19  21646233.25600 113751723.52200     -2210.92600                
G22  23645094.89600 124255812.33700      2962.02000                
G23  20753822.85700 109062075.22100     -1209.96900                
G27  21263599.46200 111740969.36000      1867.68500                
G28  24190774.45800 127123377.78800     -3044.53600                
E01        43.60300       229.13400        -8.97500                
E04        28.96200       152.19500        13.51100                
E05         5.43800        28.57900         9.30600                
E06        23.68100       124.44500       -14.38800                
> 2025 04 22 14 01 36.0000000  0 13
G03  24436900.56200 128416779.19700      1602.61400                
G09  24290216.78000 127645950.71900      -450.09400                
G14  20696648.19900 108761620.36900      -261.84800                
G15  24952500.36200 131126274.43100     -4073.60900                
G18  21907011.36800 115122121.74800      2552.91300                
G19  21646653.99500 113753934.52100     -2211.05100                
G22  23644531.38800 124252851.08400      2960.45400                
G23  20754053.08600 109063285.08600     -1209.75600                
G27  21263244.16500 111739102.26400      1866.52200                
G28  24191353.67800 127126421.61100     -3043.11300                
E04        26.34500       138.44100        13.98600                
E05         4.47200        23.50200        -0.07900                
E06        26.38100       138.63500       -13.98000                
> 2025 04 22 14 01 37.0000000  0 14
G03  24436595.50600 128415176.11500      1603.57100                
G09  24290302.47100 127646401.02600      -450.55800                
G14  20696698.16600 108761882.94400      -263.31700                
G15  24953275.65800 131130348.64100     -4074.80200                
G18  21906525.59700 115119569.00600      2552.53700                
G19  21647074.74300 113756145.56400     -2211.01700                
G22  23643968.19000 124249891.45800      2958.76800                
G23  20754283.27200 109064494.72000     -1209.50800                
G27  21262889.07800 111737236.26800      1865.49000                
G28  24191932.62300 127129463.98800     -3041.64900                
E03        43.58000       229.01500         8.98600                
E04        23.64300       124.24600        14.39300                
E05         5.46300        28.70800        -9.39200                
E06        28.99700       152.38300       -13.50500                
> 2025 04 22 14 01 38.0000000  0 14
G03  24436290.25500 128413572.01000      1604.65600                
G09  24290388.27100 127646851.90800      -451.24400                
G14  20696748.41900 108762147.02700      -264.85900                
G15  24954051.16400 131134423.95300     -4075.81000                
G18  21906039.91300 115117016.72000      2552.00000                
G19  21647495.46900 113758356.49700     -2210.83000                
G22  23643405.32300 124246933.56900      2956.98400                
G23  20754513.40800 109065704.09000     -1209.23200                
G27  21262534.17400 111735371.23500      1864.59500                
G28  24192511.28800 127132504.89200     -3040.17000                
E03        41.79400       219.62900         9.78000                
E04        20.87200       109.68300        14.72000                
E05         7.67900        40.35200       -13.22200                
E06        31.51700       165.62400       -12.96900                
> 2025 04 22 14 01 39.0000000  0 14
G03  24435984.78700 128411966.76500      1605.84600                
G09  24290474.22200 127647303.58700      -452.15200                
G14  20696798.97200 108762412.68300      -266.46200                
G15  24954826.84300 131138500.17500     -4076.62100                
G18  21905554.34700 115114465.05000      2551.30700                
G19  21647916.14700 113760567.17100     -2210.49900                
G22  23642842.80200 124243977.50500      2955.12400                
G23  20754743.48900 109066913.17600     -1208.93800                
G27  21262179.42700 111733507.02700      1863.84200                
G28  24193089.67200 127135544.32100     -3038.70300                
E03        39.86000       209.46700        10.53800                
E04        18.04700        94.84000        14.94700                
E05        10.34100        54.34300       -14.53300                
E06        33.93000       178.30300       -12.38000                
> 2025 04 22 14 01 40.0000000  0 14
G03  24435679.08500 128410360.28800      1607.11600                
G09  24290560.36800 127647756.28400      -453.27800                
G14  20696849.83400 108762679.96800      -268.11400                
G15  24955602.65700 131142577.10300     -4077.22100                
G18  21905068.92600 115111914.14700      2550.46600                
G19  21648336.74800 113762777.44400     -2210.03200                
G22  23642280.64100 124241023.32800      2953.21200                
G23  20754973.51400 109068121.96300     -1208.63700                
G27  21261824.80900 111731643.50000      1863.23300                
G28  24193667.78000 127138582.30000     -3037.27400                
E03        37.78600       198.56800        11.25500                
E04        15.19200        79.83500        15.03400                
E05        13.15600        69.13500       -14.96500                
E06        36.22600       190.36700       -11.74000                
> 2025 04 22 14 01 41.0000000  0 14
G03  24435373.13500 128408752.51100      1608.44200                
G09  24290646.74800 127648210.21300      -454.61500                
G14  20696901.01500 108762948.92200      -269.80000                
G15  24956378.56400 131146654.52300     -4077.60400                
G18  21904583.67900 115109364.15700      2549.48400                
G19  21648757.24800 113764987.18700     -2209.44100                
G22  23641718.84700 124238071.07800      2951.27400                
G23  20755203.48100 109069330.44800     -1208.33600                
G27  21261470.29400 111729780.50900      1862.76900                
G28  24194245.62200 127141618.87900     -3035.90800                
E03        35.58000       186.97200        11.92800                
E04        12.34000        64.84800        14.89100                
E05        16.01400        84.15200       -15.02700                
E06        38.39500       201.76700       -11.05300                
> 2025 04 22 14 01 42.0000000  0 14
G03  24435066.92900 128407143.39100      1609.79700                
G09  24290733.40100 127648665.58000      -456.15300                
G14  20696952.51800 108763219.57500      -271.50700                
G15  24957154.52300 131150732.21500     -4077.76300                
G18  21904098.63100 115106815.21400      2548.37300                
G19  21649177.62500 113767196.28300     -2208.74000                
G22  23641157.42200 124235120.77000      2949.33300                
G23  20755433.39100 109070538.63700     -1208.04700                
G27  21261115.85300 111727917.91000      1862.44800                
G28  24194823.21200 127144654.13400     -3034.62900                
E03        33.24900       174.72700        12.55400                
E04         9.55300        50.20300        14.28500                
E05        18.86300        99.12500       -14.89400                
E06        40.43000       212.45900       -10.32400                
> 2025 04 22 14 01 43.0000000  0 14
G03  24434760.46600 128405532.91300      1611.15400                
G09  24290820.36500 127649122.58100      -457.87900                
G14  20697004.34700 108763491.93800      -273.22100                
G15  24957930.49100 131154809.95200     -4077.69600                
G18  21903613.80600 115104267.44200      2547.14600                
G19  21649597.85900 113769404.62800     -2207.94300                
G22  23640596.36400 124232172.39300      2947.41600                
G23  20755663.24900 109071746.54700     -1207.77800                
G27  21260761.46000 111726055.56200      1862.26600                
G28  24195400.56800 127147688.16300     -3033.46100                
E03        30.80500       161.88100        13.12900                
E04         6.97500        36.65300        12.50500                
E05        21.67400       113.89800       -14.63500                
E06        42.32200       222.40300        -9.55600                
> 2025 04 22 14 01 44.0000000  0 14
G03  24434453.74600 128403921.08900      1612.48500                
G09  24290907.67500 127649581.39500      -459.77800                
G14  20697056.50200 108763766.01300      -274.92700                
G15  24958706.42500 131158887.51100     -4077.40500                
G18  21903129.22500 115101720.94800      2545.81700                
G19  21650017.93400 113771612.13700     -2207.06800                
G22  23640035.66700 124229225.91100      2945.54700                
G23  20755893.05800 109072954.20100     -1207.53900                
G27  21260407.08900 111724193.32900      1862.21800                
G28  24195977.71500 127150721.08800     -3032.42500                
E03        28.25600       148.48800        13.64800                
E04         5.00300        26.29400         7.33900                
E05        24.42700       128.36500       -14.28300                
E06        44.06400       231.55900        -8.75100                
> 2025 04 22 14 01 45.0000000  0 15
G03  24434146.77700 128402307.95600      1613.76600                
G09  24290995.36100 127650042.18800      -461.83100                
G14  20697108.98000 108764041.78400      -276.61100                
G15  24959482.28200 131162964.66800     -4076.89300                
G18  21902644.90400 115099175.82900      2544.40200                
G19  21650437.83600 113773818.73800     -2206.13100                
G22  23639475.32000 124226281.26400      2943.75000                
G23  20756122.82500 109074161.63500     -1207.33800                
G27  21260052.71500 111722331.08000      1862.29600                
G28  24196554.67800 127153753.05200     -3031.54100                
E02        44.78100       235.32700         8.38700                
E03        25.61500       134.60700        14.10400                
E04         4.55700        23.94700        -3.14100                
E05        27.10500       142.44000       -13.85600                
E06        45.65000       239.89400        -7.91400                
> 2025 04 22 14 01 46.0000000  0 14
G03  24433839.57100 128400693.57900      1614.97000                
G09  24291083.45100 127650505.10300      -464.01900                
G14  20697161.77400 108764319.22300      -278.25900                
G15  24960258.02100 131167041.20600     -4076.16900                
G18  21902160.86000 115096632.15900      2542.91800                
G19  21650857.55500 113776024.37900     -2205.15100                
G22  23638915.30500 124223338.36900      2942.04800                
G23  20756352.55800 109075368.89000     -1207.18300                
G27  21259698.31500 111720468.69400      1862.49000                
G28  24197131.48900 127156784.21500     -3030.82700                
E02        43.10700       226.52700         9.20700                
E03        22.89300       120.30300        14.49100                
E04         5.99200        31.48900       -10.87200                
E05        29.69600       156.05500       -13.36400                
> 2025 04 22 14 01 47.0000000  0 14
G03  24433532.14600 128399078.04800      1616.07200                
G09  24291171.96800 127650970.26400      -466.31900                
G14  20697214.87800 108764598.28600      -279.85800                
G15  24961033.60300 131171116.91700     -4075.24200                
G18  21901677.10400 115094090.00200      2541.38400                
G19  21651277.08600 113778229.02700     -2204.14800                
G22  23638355.60400 124220397.11800      2940.46400                
G23  20756582.26700 109076576.01800     -1207.08300                
G27  21259343.86700 111718606.06100      1862.78900                
G28  24197708.18200 127159814.75500     -3030.29700                
E02        41.27900       216.92500         9.99100                
E03        20.10500       105.65300        14.79300                
E04         8.38000        44.04000       -13.72600                
E05        32.18800       169.14900       -12.81300                
> 2025 04 22 14 01 48.0000000  0 14
G03  24433224.52200 128397461.47500      1617.04900                
G09  24291260.93100 127651437.77000      -468.70700                
G14  20697268.28100 108764878.91900      -281.39600                
G15  24961808.99100 131175191.60600     -4074.12700                
G18  21901193.64200 115091549.39500      2539.81800                
G19  21651696.42500 113780432.66700     -2203.13900                
G22  23637796.19100 124217457.38400      2939.01600                
G23  20756811.96200 109077783.07500     -1207.04400                
G27  21258989.35400 111716743.08100      1863.18000                
G28  24198284.79200 127162844.86200     -3029.96400                
E02        39.30600       206.55700        10.73800                
E03        17.27000        90.75200        14.98700                
E04        11.10200        58.34100       -14.70600                
E05        34.57000       181.66400       -12.20900                
> 2025 04 22 14 01 49.0000000  0 14
G03  24432916.72600 128395843.99500      1617.88000                
G09  24291350.35600 127651907.69900      -471.15900                
G14  20697321.96900 108765161.05300      -282.85900                
G15  24962584.14900 131179265.09200     -4072.83900                
G18  21900710.48000 115089010.36100      2538.24000                
G19  21652115.57300 113782635.30400     -2202.14600                
G22  23637237.04000 124214519.02300      2937.72300                
G23  20757041.65600 109078990.12600     -1207.07200                
G27  21258634.75900 111714879.67000      1863.65000                
G28  24198861.35900 127165874.74000     -3029.83700                
E02        37.19500       195.46200        11.44400                
E03        14.41100        75.73000        15.02400                
E04        13.93600        73.23300       -15.00800                
E05        36.83100       193.55100       -11.55600                
> 2025 04 22 14 01 50.0000000  0 14
G03  24432608.78700 128394225.76700      1618.54500                
G09  24291440.25100 127652380.10000      -473.64700                
G14  20697375.92800 108765444.61000      -284.23900                
G15  24963359.04800 131183337.21100     -4071.39700                
G18  21900227.61800 115086472.90400      2536.66900                
G19  21652534.53400 113784836.96300     -2201.18600                
G22  23636678.11800 124211581.87000      2936.60200                
G23  20757271.36200 109080197.24000     -1207.17100                
G27  21258280.06700 111713015.75500      1864.18400                
G28  24199437.92100 127168904.59700     -3029.92400                
E02        34.95400       183.68400        12.10400                
E03        11.56900        60.79400        14.78800                
E04        16.79500        88.25800       -15.00600                
E05        38.96500       204.76100       -10.85800                
> 2025 04 22 14 01 51.0000000  0 14
G03  24432300.73900 128392606.96200      1619.02900                
G09  24291530.62000 127652854.99600      -476.14600                
G14  20697430.14100 108765729.50000      -285.52400                
G15  24964133.65900 131187407.82200     -4069.82200                
G18  21899745.05300 115083937.00700      2535.12400                
G19  21652953.31800 113787037.68700     -2200.27900                
G22  23636119.39300 124208645.74800      2935.66400                
G23  20757501.09500 109081404.49200     -1207.34600                
G27  21257925.27000 111711151.28200      1864.76400                
G28  24200014.52100 127171934.64900     -3030.22800                
E02        32.59200       171.27000        12.71700                
E03         8.81900        46.34300        13.96900                
E04        19.63600       103.18900       -14.83400                
E05        40.96100       215.25300       -10.11800                
> 2025 04 22 14 01 52.0000000  0 14
G03  24431992.61700 128390987.77100      1619.31600                
G09  24291621.46500 127653332.38500      -478.62900                
G14  20697484.58900 108766015.62500      -286.70800                
G15  24964907.96000 131191476.79900     -4068.13700                
G18  21899262.77800 115081402.63200      2533.62600                
G19  21653371.93600 113789237.53900     -2199.44300                
G22  23635560.82700 124205710.46600      2934.92100                
G23  20757730.86800 109082611.95800     -1207.60000                
G27  21257570.35900 111709286.21200      1865.37500                
G28  24200591.19900 127174965.11300     -3030.74800                
E02        30.11700       158.26800        13.27700                
E03         6.34800        33.35700        11.58300                
E04        22.43300       117.88800       -14.54700                
E05        42.81300       224.98400        -9.33900                
> 2025 04 22 14 01 53.0000000  0 14
G03  24431684.46000 128389368.39700      1619.39500                
G09  24291712.77800 127653812.23900      -481.06900                
G14  20697539.25200 108766302.87900      -287.78300                
G15  24965681.93100 131195544.04600     -4066.36600                
G18  21898780.78200 115078869.72600      2532.19100                
G19  21653790.40300 113791436.59700     -2198.69500                
G22  23635002.38400 124202775.82600      2934.38200                
G23  20757960.69700 109083819.71700     -1207.93400                
G27  21257215.33000 111707420.52300      1866.00000                
G28  24201167.99700 127177996.20500     -3031.48300                
E02        27.54200       144.73500        13.77900                
E03         4.68400        24.61500         4.86700                
E04        25.16700       132.25400       -14.17300                
E05        44.51300       233.91900        -8.52500                
> 2025 04 22 14 01 54.0000000  0 14
G03  24431376.30900 128387749.05100      1619.25700                
G09  24291804.54900 127654294.50000      -483.44000                
G14  20697594.10800 108766591.15300      -288.74400                
G15  24966455.56000 131199609.49100     -4064.53500                
G18  21898299.05100 115076338.21500      2530.83700                
G19  21654208.73700 113793634.95800     -2198.05100                
G22  23634444.02300 124199841.62200      2934.05000                
G23  20758190.59700 109085027.85200     -1208.34900                
G27  21256860.18200 111705554.20900      1866.62000                
G28  24201744.95500 127181028.13800     -3032.42700                
E01        44.33900       233.00100         8.61400                
E02        24.87700       130.73100        14.21800                
E03         4.79400        25.19100        -5.89300                
E04        27.82300       146.21000       -13.72800                
> 2025 04 22 14 01 55.0000000  0 14
G03  24431068.20500 128386129.95300      1618.89800                
G09  24291896.76300 127654779.08800      -485.71800                
G14  20697649.13700 108766880.32900      -289.58800                
G15  24967228.83600 131203673.08400     -4062.67000                
G18  21897817.56900 115073808.01000      2529.58200                
G19  21654626.96000 113795832.73100     -2197.52400                
G22  23633885.70600 124196907.64600      2933.92700                
G23  20758420.58400 109086236.44100     -1208.84400                
G27  21256504.91900 111703687.28500      1867.21900                
G28  24202322.11100 127184061.11500     -3033.57100                
E01        42.62200       223.97800         9.42500                
E02        22.13600       116.32400        14.58300                
E03         6.58700        34.61700       -11.97600                
E04        30.38800       159.68800       -13.21900                
> 2025 04 22 14 01 56.0000000  0 14
G03  24430760.19100 128384511.32500      1618.31600                
G09  24291989.40000 127655265.89700      -487.88000                
G14  20697704.31400 108767170.29000      -290.31300                
G15  24968001.75600 131207734.80800     -4060.79800                
G18  21897336.31600 115071279.00600      2528.43800                
G19  21655045.09400 113798030.04200     -2197.12700                
G22  23633327.39200 124193973.68700      2934.01400                
G23  20758650.67300 109087445.56400     -1209.41800                
G27  21256149.54400 111701819.78000      1867.78000                
G28  24202899.50300 127187095.33000     -3034.90300                
E01        40.75400       214.16300        10.19900                
E02        19.33300       101.59500        14.85900                
E03         9.10400        47.84300       -14.10300                
E04        32.85000       172.62900       -12.65300                
> 2025 04 22 14 01 57.0000000  0 14
G03  24430452.30800 128382893.39200      1617.51000                
G09  24292082.43500 127655754.80100      -489.90200                
G14  20697759.61900 108767460.91600      -290.91900                
G15  24968774.32200 131211794.66800     -4058.94700                
G18  21896855.26800 115068751.08400      2527.42100                
G19  21655463.16600 113800227.02600     -2196.87200                
G22  23632769.04200 124191039.53900      2934.30600                
G23  20758880.87800 109088655.30000     -1210.06700                
G27  21255794.06800 111699951.73900      1868.28600                
G28  24203477.16500 127190130.96600     -3036.40800                
E01        38.74200       203.59200        10.93500                
E02        16.48800        86.64600        15.01600                
E03        11.87000        62.37600       -14.83200                
E04        35.20000       184.97700       -12.03500                
> 2025 04 22 14 01 58.0000000  0 14
G03  24430144.60000 128381276.37400      1616.48700                
G09  24292175.84000 127656245.64900      -491.76600                
G14  20697815.02700 108767752.08900      -291.40800                
G15  24969546.53900 131215852.69700     -4057.14200                
G18  21896374.40100 115066224.11100      2526.54000                
G19  21655881.20400 113802423.82900     -2196.76600                
G22  23632210.61800 124188104.99900      2934.79500                
G23  20759111.21300 109089865.72100     -1210.78800                
G27  21255438.50200 111698083.22700      1868.72100                
G28  24204055.12900 127193168.18700     -3038.07000                
E01        36.59500       192.30700        11.62900                
E02        13.62900        71.62200        14.99400                
E03        14.71700        77.33600       -15.03000                
E04        37.42800       196.68300       -11.37000                
> 2025 04 22 14 01 59.0000000  0 14
G03  24429837.10600 128379660.48600      1615.25200                
G09  24292269.58400 127656738.27400      -493.45400                
G14  20697870.51700 108768043.69300      -291.78200                
G15  24970318.41900 131219908.95600     -4055.41100                
G18  21895893.68800 115063697.94700      2525.80600                
G19  21656299.23600 113804620.60400     -2196.81600                
G22  23631652.08300 124185169.87500      2935.47300                
G23  20759341.69200 109091076.89500     -1211.57500                
G27  21255082.86100 111696214.32100      1869.07200                
G28  24204633.42300 127196207.14100     -3039.87100                
E01        34.31900       180.35000        12.27700                
E02        10.80200        56.76400        14.64400                
E03        17.57400        92.35300       -14.97300                
E04        39.52400       207.70100       -10.66000                
> 2025 04 22 14 02  0.0000000  0 14
G03  24429529.86700 128378045.93300      1613.81800                
G09  24292363.63000 127657232.49200      -494.95000                
G14  20697926.06900 108768335.61700      -292.04800                
G15  24971089.97900 131223963.53000     -4053.77700                
G18  21895413.10000 115061172.44000      2525.22600                
G19  21656717.29300 113806817.50800     -2197.02700                
G22  23631093.40100 124182233.98400      2936.32600                
G23  20759572.32700 109092288.88800     -1212.42300                
G27  21254727.16200 111694345.11200      1869.32400                
G28  24205212.07100 127199247.95500     -3041.78700                
E01        31.92600       167.77000        12.87500                
E02         8.10200        42.57400        13.54600                
E03        20.40500       107.23200       -14.76500                
E04        41.48200       217.98900        -9.90900                
> 2025 04 22 14 02  1.0000000  0 14
G03  24429222.91900 128376432.91000      1612.19600                
G09  24292457.94200 127657728.10600      -496.24300                
G14  20697981.66100 108768627.75500      -292.21100                
G15  24971861.23900 131228016.52900     -4052.26600                
G18  21894932.60700 115058647.43400      2524.80500                
G19  21657135.40600 113809014.70600     -2197.40000                
G22  23630534.54200 124179297.15900      2937.33900                
G23  20759803.12800 109093501.75700     -1213.32400                
G27  21254371.42600 111692475.70500      1869.46600                
G28  24205791.09200 127202290.73500     -3043.79800                
E01        29.42300       154.61800        13.42000                
E02         5.77500        30.34800        10.34000                
E03        23.18700       121.84800       -14.45300                
E04        43.29300       227.50600        -9.12000                
> 2025 04 22 14 02  2.0000000  0 15
G03  24428916.29600 128374821.59500      1610.40300                
G09  24292552.48100 127658224.90800      -497.32400                
G14  20698037.27500 108768920.00800      -292.28000                
G15  24972632.22500 131232068.08800     -4050.89700                
G18  21894452.18000 115056122.76900      2524.54500                
G19  21657553.60500 113811212.35700     -2197.93500                
G22  23629975.47600 124176359.24700      2938.49600                
G23  20760034.10500 109094715.55000     -1214.27200                
G27  21254015.67400 111690606.21500      1869.48700                
G28  24206370.50400 127205335.56200     -3045.87800                
E01        26.82200       140.95000        13.90600                
E02         4.50400        23.67100         1.96100                
E03        25.90100       136.11000       -14.05800                
E04        44.95100       236.21700        -8.29700                
E06        45.48700       239.03800         8.00500                
> 2025 04 22 14 02  3.0000000  0 14
G03  24428610.02900 128373212.15100      1608.45800                
G09  24292647.20400 127658722.68000      -498.18500                
G14  20698092.89300 108769212.28700      -292.26400                
G15  24973402.96600 131236118.35800     -4049.69300                
G18  21893971.78600 115053598.28100      2524.44800                
G19  21657971.92100 113813410.62300     -2198.63000                
G22  23629416.17700 124173420.11400      2939.77700                
G23  20760265.26600 109095930.31100     -1215.25700                
G27  21253659.93000 111688736.76900      1869.37900                
G28  24206950.31600 127208382.49400     -3048.00200                
E01        24.13500       126.82900        14.32500                
E02         5.16200        27.12400        -8.17100                
E03        28.53300       149.94200       -13.59500                
E06        43.88400       230.61300         8.83900                
> 2025 04 22 14 02  4.0000000  0 14
G03  24428304.14500 128371604.71900      1606.38200                
G09  24292742.06900 127659221.20300      -498.82400                
G14  20698148.50200 108769504.51100      -292.17400                
G15  24974173.49500 131240167.51300     -4048.66900                
G18  21893491.39500 115051073.81000      2524.51200                
G19  21658390.38400 113815609.66200     -2199.47900                
G22  23628856.62500 124170479.64700      2941.16100                
G23  20760496.61800 109097146.07100     -1216.27100                
G27  21253304.22000 111686867.49800      1869.13500                
G28  24207530.53400 127211431.56200     -3050.14600                
E01        21.37500       112.32500        14.66800                
E02         7.23300        38.00900       -12.79900                
E03        31.07100       163.27900       -13.07000                
E06        42.12500       221.37000         9.64000                
> 2025 04 22 14 02  5.0000000  0 14
G03  24427998.66700 128369999.42100      1604.19600                
G09  24292837.03500 127659720.25300      -499.24000                
G14  20698204.08700 108769796.61300      -292.02100                
G15  24974943.84700 131244215.74000     -4047.84100                
G18  21893010.97700 115048549.19700      2524.73200                
G19  21658809.02300 113817809.62400     -2200.47500                
G22  23628296.80200 124167537.75400      2942.62500                
G23  20760728.16400 109098362.85700     -1217.30500                
G27  21252948.56900 111684998.54200      1868.74900                
G28  24208111.16000 127214482.77100     -3052.28100                
E01        18.55800        97.52500        14.91500                
E02         9.84600        51.74000       -14.38600                
E03        33.50400       176.06300       -12.48900                
E06        40.21800       211.34400        10.40500                
> 2025 04 22 14 02  6.0000000  0 14
G03  24427693.61300 128368396.35100      1601.92600                
G09  24292932.06000 127660219.61000      -499.43800                
G14  20698259.63800 108770088.53700      -291.81800                
G15  24975714.06100 131248263.24300     -4047.22000                
G18  21892530.50300 115046024.28900      2525.10100                
G19  21659227.86500 113820010.65300     -2201.61000                
G22  23627736.69400 124164594.36700      2944.14500                
G23  20760959.90900 109099580.68300     -1218.34900                
G27  21252593.00500 111683130.04300      1868.22100                
G28  24208692.18900 127217536.10100     -3054.38300                
E01        15.70600        82.53800        15.03200                
E02        12.64400        66.44500       -14.92200                
E03        35.82100       188.24100       -11.85800                
E06        38.16800       200.57400        11.12900                
> 2025 04 22 14 02  7.0000000  0 14
G03  24427388.99700 128366795.58500      1599.59600                
G09  24293027.10200 127660719.05800      -499.42400                
G14  20698315.14700 108770380.23800      -291.57900                
G15  24976484.17700 131252310.23200     -4046.81600                
G18  21892049.94500 115043498.93900      2525.61300                
G19  21659646.93500 113822212.87900     -2202.87000                
G22  23627176.29300 124161649.44300      2945.69700                
G23  20761191.85200 109100799.55300     -1219.39300                
G27  21252237.55600 111681262.14500      1867.54700                
G28  24209273.61300 127220591.50600     -3056.42600                
E01        12.85000        67.52900        14.94100                
E02        15.49900        81.44700       -15.03300                
E03        38.01400       199.76400       -11.18000                
E06        35.98500       189.10100        11.81100                
> 2025 04 22 14 02  8.0000000  0 14
G03  24427084.82800 128365197.16700      1597.23400                
G09  24293122.12100 127661218.39000      -499.20700                
G14  20698370.60800 108770671.68800      -291.31800                
G15  24977254.23800 131256356.92900     -4046.63600                
G18  21891569.27700 115040973.01200      2526.25500                
G19  21660066.25600 113824416.42500     -2204.24500                
G22  23626615.59600 124158702.96100      2947.25500                
G23  20761423.99300 109102019.46400     -1220.42800                
G27  21251882.24900 111679394.99200      1866.73100                
G28  24209855.41900 127223648.91400     -3058.38600                
E01        10.04500        52.78600        14.44900                
E02        18.35200        96.44100       -14.92800                
E03        40.07300       210.58700       -10.45900                
E06        33.67600       176.96900        12.44500                
> 2025 04 22 14 02  9.0000000  0 14
G03  24426781.11000 128363601.11700      1594.86500                
G09  24293217.08100 127661717.40800      -498.79900                
G14  20698426.01800 108770962.87000      -291.04700                
G15  24978024.28600 131260403.55700     -4046.68000                
G18  21891088.47500 115038446.38200      2527.01500                
G19  21660485.84800 113826621.39600     -2205.71800                
G22  23626054.60400 124155754.92800      2948.79600                
G23  20761656.33000 109103240.40100     -1221.44400                
G27  21251527.11000 111677528.72600      1865.77500                
G28  24210437.58700 127226708.23000     -3060.23800                
E01         7.41100        38.94400        12.98000                
E02        21.17200       111.25900       -14.68900                
E03        41.99200       220.66800        -9.69700                
E06        31.25100       164.22700        13.02900                
> 2025 04 22 14 02 10.0000000  0 14
G03  24426477.84100 128362007.42700      1592.51600                
G09  24293311.94700 127662215.92900      -498.21600                
G14  20698481.37800 108771253.78400      -290.78300                
G15  24978794.36400 131264450.34200     -4046.94900                
G18  21890607.51900 115035918.93900      2527.88000                
G19  21660905.72800 113828827.88200     -2207.27300                
G22  23625493.32300 124152805.37300      2950.29300                
G23  20761888.85700 109104462.34100     -1222.43200                
G27  21251172.16600 111675663.48300      1864.68500                
G28  24211020.09600 127229769.33600     -3061.96200                
E01         5.27800        27.73500         8.69000                
E02        23.93700       125.78700       -14.35300                
E03        43.76200       229.96800        -8.89900                
E06        28.72100       150.92800        13.55900                
> 2025 04 22 14 02 11.0000000  0 14
G03  24426175.01500 128360416.06500      1590.21500                
G09  24293406.68600 127662713.78700      -497.47500                
G14  20698536.68800 108771544.44300      -290.53900                
G15  24979564.51400 131268497.50900     -4047.44000                
G18  21890126.38900 115033390.58400      2528.83400                
G19  21661325.91100 113831035.95700     -2208.89400                
G22  23624931.76200 124149854.35400      2951.72200                
G23  20762121.56900 109105685.25000     -1223.38200                
G27  21250817.44200 111673799.39500      1863.46800                
G28  24211602.91900 127232832.09200     -3063.53600                
E01         4.48300        23.55600        -1.14200                
E02        26.62900       139.93900       -13.93800                
E05        45.06500       236.81700         8.23600                
E06        26.09500       137.13000        14.02700                
> 2025 04 22 14 02 12.0000000  0 14
G03  24425872.62000 128358826.97000      1587.98600                
G09  24293501.27100 127663210.83300      -496.59700                
G14  20698591.95500 108771834.87400      -290.32900                
G15  24980334.77800 131272545.27400     -4048.14500                
G18  21889645.07000 115030861.23900      2529.85900                
G19  21661746.40700 113833245.67900     -2210.56200                
G22  23624369.93800 124146901.94800      2953.06100                
G23  20762354.45800 109106909.08800     -1224.28700                
G27  21250462.96100 111671936.58200      1862.13300                
G28  24212186.02600 127235896.34100     -3064.94300                
E01         5.63400        29.60800        -9.94500                
E02        29.23700       153.64200       -13.45700                
E05        43.41800       228.16600         9.06100                
E06        23.38700       122.89700        14.42700                
> 2025 04 22 14 02 13.0000000  0 14
G03  24425570.64100 128357240.05700      1585.85500                
G09  24293595.67700 127663706.94200      -495.60300                
G14  20698647.18700 108772125.11800      -290.16700                
G15  24981105.19500 131276593.84600     -4049.05400                
G18  21889163.55200 115028330.84100      2530.93800                
G19  21662167.22300 113835457.08300     -2212.25700                
G22  23623807.87000 124143948.25900      2954.28600                
G23  20762587.51400 109108133.80400     -1225.13800                
G27  21250108.74400 111670075.15900      1860.69200                
G28  24212769.38400 127238961.90600     -3066.16800                
E01         7.91500        41.59200       -13.41100                
E02        31.74700       166.83300       -12.91600                
E05        41.61800       218.70600         9.85300                
E06        20.60900       108.30300        14.74600                
> 2025 04 22 14 02 14.0000000  0 14
G03  24425269.05600 128355655.21600      1583.84500                
G09  24293689.88500 127664202.00800      -494.51700                
G14  20698702.39300 108772415.22800      -290.06500                
G15  24981875.80400 131280643.42400     -4050.15400                
G18  21888681.82400 115025799.34500      2532.05200                
G19  21662588.36300 113837670.18900     -2213.96100                
G22  23623245.58100 124140993.40900      2955.37900                
G23  20762820.72600 109109359.34200     -1225.92900                
G27  21249754.81000 111668215.22500      1859.15700                
G28  24213352.95600 127242028.59900     -3067.19700                
E01        10.59900        55.69900       -14.59800                
E02        34.14900       179.45700       -12.32200                
E05        39.67100       208.47300        10.60600                
E06        17.78100        93.44000        14.96200                
> 2025 04 22 14 02 15.0000000  0 14
G03  24424967.84000 128354072.31600      1581.97800                
G09  24293783.88000 127664695.95300      -493.36400                
G14  20698757.58700 108772705.27200      -290.03600                
G15  24982646.64000 131284694.19300     -4051.43000                
G18  21888199.88200 115023266.72500      2533.18100                
G19  21663009.82700 113839884.99600     -2215.65400                
G22  23622683.09800 124138037.54100      2956.32100                
G23  20763054.08200 109110585.63800     -1226.65400                
G27  21249401.17600 111666356.86800      1857.54100                
G28  24213936.70500 127245096.22000     -3068.02100                
E01        13.42100        70.52900       -14.98200                
E02        36.43400       191.46000       -11.67700                
E05        37.58400       197.50600        11.32000                
E06        14.92400        78.42800        15.03200                
> 2025 04 22 14 02 16.0000000  0 14
G03  24424666.96400 128352491.20200      1580.27400                
G09  24293877.65000 127665188.72200      -492.16900                
G14  20698812.78200 108772995.32800      -290.08900                
G15  24983417.73400 131288746.31600     -4052.86300                
G18  21887717.72600 115020732.97500      2534.30800                
G19  21663431.61000 113842101.48200     -2217.31700                
G22  23622120.45100 124135080.81300      2957.09400                
G23  20763287.57000 109111812.62400     -1227.30600                
G27  21249047.85700 111664500.16100      1855.86000                
G28  24214520.59100 127248164.55900     -3068.63200                
E01        16.28000        85.55100       -15.02200                
E02        38.59100       202.79600       -10.98700                
E05        35.36600       185.84800        11.98900                
E06        12.07500        63.45500        14.86000                
> 2025 04 22 14 02 17.0000000  0 14
G03  24424366.39500 128350911.70600      1578.74800                
G09  24293971.19200 127665680.28600      -490.96000                
G14  20698867.99700 108773285.48200      -290.23600                
G15  24984189.11300 131292799.94300     -4054.43300                
G18  21887235.35700 115018198.10900      2535.41100                
G19  21663853.70500 113844319.60700     -2218.93000                
G22  23621557.67400 124132123.40200      2957.68600                
G23  20763521.17400 109113040.22400     -1227.88300                
G27  21248694.86200 111662645.16100      1854.12900                
G28  24215104.57200 127251233.40100     -3069.02700                
E01        19.12700       100.51100       -14.87400                
E02        40.61300       213.42000       -10.25400                
E05        33.02500       173.54500        12.61000                
E06         9.30000        48.87000        14.18700                
> 2025 04 22 14 02 18.0000000  0 14
G03  24424066.09900 128349333.63800      1577.41800                
G09  24294064.50400 127666170.64600      -489.76300                
G14  20698923.24900 108773575.83300      -290.48400                
G15  24984960.80300 131296855.20000     -4056.11700                
G18  21886752.78200 115015662.15900      2536.47200                
G19  21664276.10100 113846539.31400     -2220.47600                
G22  23620994.80300 124129165.49500      2958.08500                
G23  20763754.88100 109114268.36300     -1228.38100                
G27  21248342.20000 111660791.91000      1852.36500                
G28  24215688.60700 127254302.52800     -3069.20300                
E01        21.93300       115.26000       -14.60600                
E02        42.49100       223.29200        -9.48200                
E05        30.57000       160.64600        13.17900                
E06         6.75400        35.49500        12.22000                
> 2025 04 22 14 02 19.0000000  0 13
G03  24423766.03700 128347756.79800      1576.29300                
G09  24294157.59200 127666659.82500      -488.60500                
G14  20698978.55800 108773866.48500      -290.83900                
G15  24985732.82200 131300912.18700     -4057.89200                
G18  21886270.01000 115013125.17700      2537.47300                
G19  21664698.78400 113848760.52600     -2221.93800                
G22  23620431.87500 124126207.28800      2958.28200                
G23  20763988.67500 109115496.95800     -1228.79900                
G27  21247989.87600 111658940.43300      1850.58500                
G28  24216272.65600 127257371.72400     -3069.16500                
E01        24.68000       129.69300       -14.24700                
E05        28.01200       147.20500        13.69300                
E06         4.87900        25.64100         6.55000                
> 2025 04 22 14 02 20.0000000  0 14
G03  24423466.16800 128346180.97700      1575.38300                
G09  24294250.46500 127667147.87600      -487.51100                
G14  20699033.94600 108774157.54900      -291.30800                
G15  24986505.18500 131304970.98500     -4059.73100                
G18  21885787.05500 115010587.23100      2538.39600                
G19  21665121.73500 113850983.14900     -2223.29800                
G22  23619868.93000 124123248.98800      2958.27300                
G23  20764222.54100 109116725.93100     -1229.13400                
G27  21247637.89000 111657090.73600      1848.80600                
G28  24216856.67700 127260440.77500     -3068.91600                
E01        27.35100       143.72900       -13.81300                
E04        44.63100       234.53500         8.46500                
E05        25.36300       133.28200        14.14300                
E06         4.62100        24.28400        -4.12900                
> 2025 04 22 14 02 21.0000000  0 14
G03  24423166.45100 128344605.95600      1574.69400                
G09  24294343.13800 127667634.87600      -486.50600                
G14  20699089.43400 108774449.14100      -291.89500                
G15  24987277.90300 131309031.64200     -4061.60900                
G18  21885303.93300 115008048.40900      2539.22400                
G19  21665544.93500 113853207.07700     -2224.54300                
G22  23619306.00500 124120290.80100      2958.05400                
G23  20764456.46300 109117955.19800     -1229.38800                
G27  21247286.24200 111655242.81100      1847.04500                
G28  24217440.63100 127263509.47600     -3068.46500                
E01        29.93300       157.29800       -13.31500                
E04        42.94200       225.65900         9.28100                
E05        22.63400       118.94200        14.52300                
E06         6.18800        32.52100       -11.28700                
> 2025 04 22 14 02 22.0000000  0 14
G03  24422866.84400 128343031.51200      1574.22800                
G09  24294435.63000 127668120.92600      -485.61500                
G14  20699145.04500 108774741.37800      -292.60000                
G15  24988050.97900 131313094.18600     -4063.49800                
G18  21884820.66400 115005508.81200      2539.94300                
G19  21665968.35900 113855432.18600     -2225.66000                
G22  23618743.14300 124117332.93700      2957.62700                
G23  20764690.42500 109119184.67900     -1229.56300                
G27  21246934.92500 111653396.62900      1845.32100                
G28  24218024.48200 127266577.63000     -3067.82400                
E01        32.41500       170.34000       -12.75900                
E04        41.10000       215.98500        10.06200                
E05        19.84100       104.26500        14.81600                
E06         8.62500        45.32600       -13.86800                
> 2025 04 22 14 02 23.0000000  0 14
G03  24422567.30500 128341457.42200      1573.98600                
G09  24294527.96600 127668606.15100      -484.85900                
G14  20699200.80100 108775034.38000      -293.42400                
G15  24988824.41400 131317158.61300     -4065.37200                
G18  21884337.26900 115002968.55600      2540.53800                
G19  21666391.98200 113857658.34400     -2226.63700                
G22  23618180.38100 124114375.60600      2956.99300                
G23  20764924.41400 109120414.29600     -1229.66100                
G27  21246583.93200 111651552.14800      1843.64800                
G28  24218608.19300 127269645.05300     -3067.00600                
E01        34.78600       182.79900       -12.15100                
E04        39.11400       205.54700        10.80500                
E05        17.00200        89.34700        14.99800                
E06        11.36300        59.71500       -14.75400                
> 2025 04 22 14 02 24.0000000  0 14
G03  24422267.79100 128339883.46400      1573.96200                
G09  24294620.17100 127669090.69600      -484.25900                
G14  20699256.72500 108775328.26500      -294.36600                
G15  24989598.20200 131321224.89400     -4067.20400                
G18  21883853.77400 115000427.77200      2540.99900                
G19  21666815.77800 113859885.40400     -2227.46500                
G22  23617617.75900 124111419.00700      2956.16000                
G23  20765158.41400 109121643.97400     -1229.68500                
G27  21246233.25100 111649709.30600      1842.04300                
G28  24219191.73300 127272711.57700     -3066.02700                
E01        37.03600       194.62500       -11.49300                
E04        36.99100       194.38800        11.50700                
E05        14.14300        74.32300        15.01600                
E06        14.20200        74.63300       -15.01800                
> 2025 04 22 14 02 25.0000000  0 14
G03  24421968.26100 128338309.42400      1574.15000                
G09  24294712.27900 127669574.72700      -483.83300                
G14  20699312.84000 108775623.15000      -295.42300                
G15  24990372.33200 131325292.97500     -4068.96600                
G18  21883370.20500 114997886.59800      2541.31600                
G19  21667239.71600 113862113.21600     -2228.13800                
G22  23617055.31400 124108463.33800      2955.13700                
G23  20765392.41200 109122873.64300     -1229.64200                
G27  21245882.86800 111647868.03100      1840.52000                
G28  24219775.07300 127275777.04900     -3064.90800                
E01        39.15700       205.77100       -10.79100                
E04        34.73800       182.54900        12.16300                
E05        11.30500        59.41000        14.74400                
E06        17.06100        89.65700       -14.99600                
> 2025 04 22 14 02 26.0000000  0 14
G03  24421668.67600 128336735.09500      1574.54000                
G09  24294804.32400 127670058.42500      -483.59600                
G14  20699369.16700 108775919.14800      -296.58900                
G15  24991146.78900 131329362.77500     -4070.63500                
G18  21882886.59000 114995345.18300      2541.48000                
G19  21667663.76800 113864341.62100     -2228.65100                
G22  23616493.08000 124105508.78100      2953.93600                
G23  20765626.39600 109124103.23600     -1229.53600                
G27  21245532.76500 111646028.23000      1839.09300                
G28  24220358.18800 127278841.34000     -3063.66800                
E01        41.14000       216.19300       -10.04700                
E04        32.36500       170.07700        12.77100                
E05         8.57100        45.04000        13.83700                
E06        19.89900       104.57200       -14.81100                
> 2025 04 22 14 02 27.0000000  0 14
G03  24421368.99900 128335160.27900      1575.11900                
G09  24294896.34300 127670541.98600      -483.56000                
G14  20699425.72500 108776216.36400      -297.85900                
G15  24991921.55300 131333434.18600     -4072.18600                
G18  21882402.95800 114992803.68300      2541.48600                
G19  21668087.90100 113866570.45800     -2229.00100                
G22  23615931.09100 124102555.50800      2952.57200                
G23  20765860.35400 109125332.69400     -1229.37400                
G27  21245182.92400 111644189.80400      1837.77500                
G28  24220941.05800 127281904.34000     -3062.32900                
E01        42.97800       225.85200        -9.26500                
E04        29.88100       157.02500        13.32600                
E05         6.14500        32.29000        11.19800                
E06        22.69100       119.24400       -14.51600                
> 2025 04 22 14 02 28.0000000  0 14
G03  24421069.19400 128333584.79700      1575.87100                
G09  24294988.37400 127671025.61600      -483.73600                
G14  20699482.53400 108776514.89800      -299.22500                
G15  24992696.59800 131337507.08000     -4073.59700                
G18  21881919.34100 114990262.25600      2541.33100                
G19  21668512.08600 113868799.56300     -2229.18800                
G22  23615369.37600 124099603.67500      2951.06000                
G23  20766094.27600 109126561.96600     -1229.16400                
G27  21244833.32300 111642352.63700      1836.57500                
G28  24221523.66500 127284965.96200     -3060.91700                
E01        44.66400       234.71200        -8.44800                
E04        27.29700       143.44600        13.82200                
E05         4.60600        24.20300         3.91400                
E06        25.41900       133.57600       -14.13500                
> 2025 04 22 14 02 29.0000000  0 13
G03  24420769.23200 128332008.48200      1576.77800                
G09  24295080.46000 127671509.53000      -484.13000                
G14  20699539.61200 108776814.84200      -300.67600                
G15  24993471.89800 131341581.30600     -4074.84800                
G18  21881435.76800 114987721.06600      2541.01400                
G19  21668936.29100 113871028.77500     -2229.21500                
G22  23614807.96100 124096653.41900      2949.42100                
G23  20766328.15500 109127791.00700     -1228.91500                
G27  21244483.93800 111640516.60700      1835.50200                
G28  24222105.99900 127288026.14600     -3059.45600                
E04        24.62400       129.40100        14.25500                
E05         4.90600        25.78100        -6.73000                
E06        28.06600       147.49000       -13.68300                
> 2025 04 22 14 02 30.0000000  0 14
G03  24420469.08300 128330431.19200      1577.82000                
G09  24295172.64200 127671993.94900      -484.74600                
G14  20699596.97300 108777116.27600      -302.20400                
G15  24994247.41900 131345656.69600     -4075.92100                
G18  21880952.27200 114985180.27300      2540.53700                
G19  21669360.48600 113873257.93400     -2229.08500                
G22  23614246.86900 124093704.85800      2947.67500                
G23  20766561.98300 109129019.78300     -1228.63400                
G27  21244134.74500 111638681.58300      1834.56500                
G28  24222688.05200 127291084.85500     -3057.97200                
E03        42.45400       223.09900         9.49800                
E04        21.87600       114.96100        14.61200                
E05         6.80300        35.75100       -12.28600                
E06        30.62200       160.92100       -13.16900                
> 2025 04 22 14 02 31.0000000  0 14
G03  24420168.72600 128328852.80100      1578.97500                
G09  24295264.96200 127672479.09600      -485.58400                
G14  20699654.63100 108777419.27100      -303.79500                
G15  24995023.12500 131349733.06200     -4076.80000                
G18  21880468.88100 114982640.03700      2539.90200                
G19  21669784.64200 113875486.88800     -2228.80600                
G22  23613686.11700 124090758.08600      2945.84400                
G23  20766795.75600 109130248.26700     -1228.33200                
G27  21243785.71600 111636847.42600      1833.76700                
G28  24223269.82200 127294142.07900     -3056.49000                
E03        40.57300       213.21100        10.27000                
E04        19.06900       100.20700        14.87900                
E05         9.35600        49.16700       -14.21000                
E06        33.07500       173.80900       -12.59800                
> 2025 04 22 14 02 32.0000000  0 14
G03  24419868.13900 128327273.21000      1580.21800                
G09  24295357.46300 127672965.19100      -486.64200                
G14  20699712.59600 108777723.88400      -305.43800                
G15  24995798.98000 131353810.20700     -4077.47300                
G18  21879985.62500 114980100.51100      2539.11700                
G19  21670208.73100 113877715.49300     -2228.38600                
G22  23613125.71900 124087813.17800      2943.95300                
G23  20767029.47000 109131476.44200     -1228.01800                
G27  21243436.82600 111635013.99700      1833.11100                
G28  24223851.31300 127297197.83300     -3055.03800                
E03        38.54800       202.57300        11.00200                
E04        16.22100        85.24500        15.02300                
E05        12.13400        63.76500       -14.86700                
E06        35.41400       186.09900       -11.97500                
> 2025 04 22 14 02 33.0000000  0 14
G03  24419567.31000 128325692.34200      1581.52400                
G09  24295450.18600 127673452.45100      -487.91300                
G14  20699770.87900 108778030.15900      -307.11900                
G15  24996574.94300 131357887.91700     -4077.93100                
G18  21879502.53200 114977561.84200      2538.18800                
G19  21670632.72800 113879943.61200     -2227.83800                
G22  23612565.68600 124084870.18200      2942.02400                
G23  20767263.12400 109132704.30100     -1227.70100                
G27  21243088.04700 111633181.15200      1832.60000                
G28  24224432.53200 127300252.16000     -3053.64000                
E03        36.38800       191.22300        11.69100                
E04        13.36300        70.22400        14.97900                
E05        14.98400        78.74200       -15.03300                
E06        37.62900       197.74400       -11.30500                
> 2025 04 22 14 02 34.0000000  0 14
G03  24419266.22800 128324110.14700      1582.86700                
G09  24295543.17000 127673941.08500      -489.38900                
G14  20699829.48400 108778338.13000      -308.82400                
G15  24997350.97100 131361965.97400     -4078.16600                
G18  21879019.62900 114975024.17000      2537.12700                
G19  21671056.60900 113882171.12300     -2227.17200                
G22  23612006.02100 124081929.12200      2940.08400                
G23  20767496.71800 109133931.84500     -1227.39200                
G27  21242739.35200 111631348.74600      1832.23100                
G28  24225013.49200 127303305.12800     -3052.32200                
E03        34.10200       179.20600        12.33400                
E04        10.54300        55.40200        14.58400                
E05        17.84100        93.75300       -14.95900                
E06        39.71300       208.69600       -10.59100                
> 2025 04 22 14 02 35.0000000  0 14
G03  24418964.89000 128322526.60200      1584.22000                
G09  24295636.45300 127674431.29300      -491.05700                
G14  20699888.41400 108778647.81200      -310.54000                
G15  24998127.02300 131366044.15300     -4078.17600                
G18  21878536.94000 114972487.62000      2535.94600                
G19  21671480.35400 113884397.91600     -2226.40400                
G22  23611446.72400 124078989.99800      2938.15700                
G23  20767730.25500 109135159.08900     -1227.10100                
G27  21242390.71400 111629516.63900      1832.00200                
G28  24225594.21100 127306356.82600     -3051.10600                
E03        31.69700       166.57000        12.92800                
E04         7.86300        41.31900        13.37000                
E05        20.66800       108.61200       -14.74000                
E06        41.65800       218.91300        -9.83700                
> 2025 04 22 14 02 36.0000000  0 14
G03  24418663.29500 128320941.70900      1585.55700                
G09  24295730.07100 127674923.25900      -492.90300                
G14  20699947.67100 108778959.20800      -312.25100                
G15  24998903.05500 131370122.23000     -4077.96100                
G18  21878054.48600 114969952.30600      2534.65700                
G19  21671903.94400 113886623.89600     -2225.55100                
G22  23610887.79100 124076052.78500      2936.26900                
G23  20767963.73800 109136386.05400     -1226.83600                
G27  21242042.10600 111627684.69400      1831.90700                
G28  24226174.71000 127309407.37100     -3050.01700                
E03        29.18500       153.36800        13.46800                
E04         5.59600        29.40800         9.82700                
E05        23.44400       123.20000       -14.41900                
E06        43.45500       228.35700        -9.04500                
> 2025 04 22 14 02 37.0000000  0 14
G03  24418361.44900 128319355.49900      1586.85100                
G09  24295824.05600 127675417.15200      -494.91000                
G14  20700007.25200 108779272.30800      -313.94400                
G15  24999679.02500 131374199.98000     -4077.52300                
G18  21877572.28600 114967418.32800      2533.27700                
G19  21672327.36500 113888848.98700     -2224.62800                
G22  23610329.21100 124073117.42900      2934.44300                
G23  20768197.17500 109137612.77100     -1226.60600                
G27  21241693.50500 111625852.77900      1831.93900                
G28  24226755.01600 127312456.89600     -3049.07200                
E03        26.57500       139.65500        13.94800                
E04         4.47900        23.53900         0.90800                
E05        26.15100       137.42400       -14.01800                
E06        45.09800       236.99100        -8.21900                
> 2025 04 22 14 02 38.0000000  0 14
G03  24418059.36300 128317768.02800      1588.07500                
G09  24295918.43600 127675913.12400      -497.05700                
G14  20700067.15200 108779587.08500      -315.60400                
G15  25000454.89100 131378277.18300     -4076.86900                
G18  21877090.35600 114964885.77000      2531.82200                
G19  21672750.60500 113891073.12800     -2223.65400                
G22  23609770.97100 124070183.85900      2932.70300                
G23  20768430.57100 109138839.28000     -1226.42200                
G27  21241344.88500 111624020.77100      1832.09000                
G28  24227335.15700 127315505.55900     -3048.29200                
E02        43.72700       229.78800         8.91600                
E03        23.88100       125.49500        14.36100                
E04         5.31300        27.92100        -8.83100                
E05        28.77500       151.21300       -13.54800                
> 2025 04 22 14 02 39.0000000  0 14
G03  24417757.05300 128316179.37600      1589.20600                
G09  24296013.23700 127676411.30500      -499.32300                
G14  20700127.36400 108779903.50100      -317.21900                
G15  25001230.61300 131382353.63000     -4076.00900                
G18  21876608.70900 114962354.69600      2530.30900                
G19  21673173.65600 113893296.27800     -2222.64800                
G22  23609213.05200 124067251.97500      2931.07200                
G23  20768663.93800 109140065.63000     -1226.28900                
G27  21240996.22600 111622188.55800      1832.34900                
G28  24227915.16600 127318553.52900     -3047.69200                
E02        41.95400       220.47100         9.71300                
E03        21.11500       110.96000        14.69500                
E04         7.46300        39.21800       -13.02900                
E05        31.30300       164.50000       -13.01800                
> 2025 04 22 14 02 40.0000000  0 14
G03  24417454.53900 128314589.65200      1590.21900                
G09  24296108.47800 127676911.80200      -501.68500                
G14  20700187.87800 108780221.50300      -318.77400                
G15  25002006.15200 131386429.11700     -4074.95500                
G18  21876127.35300 114959825.15600      2528.75800                
G19  21673596.51400 113895518.41400     -2221.63000                
G22  23608655.43200 124064321.66000      2929.57000                
G23  20768897.28500 109141291.87600     -1226.21600                
G27  21240647.50900 111620356.03700      1832.70400                
G28  24228495.08000 127321600.99600     -3047.28600                
E02        40.03300       210.37400        10.47400                
E03        18.29400        96.13700        14.93200                
E04        10.10300        53.08900       -14.46600                
E05        33.72600       177.23000       -12.43200                
> 2025 04 22 14 02 41.0000000  0 14
G03  24417151.84400 128312998.98300      1591.09200                
G09  24296204.17600 127677414.69800      -504.11800                
G14  20700248.68100 108780541.02500      -320.25800                
G15  25002781.47400 131390503.45800     -4073.72200                
G18  21875646.29500 114957297.17800      2527.18800                
G19  21674019.17900 113897739.53400     -2220.61900                
G22  23608098.08400 124061392.77600      2928.21600                
G23  20769130.62400 109142518.08300     -1226.21000                
G27  21240298.71700 111618523.11800      1833.14100                
G28  24229074.93600 127324648.15700     -3047.08300                
E02        37.97000       199.53600        11.19500                
E03        15.44000        81.14000        15.03400                
E04        12.91000        67.84200       -14.94600                
E05        36.03200       189.34800       -11.79700                
> 2025 04 22 14 02 42.0000000  0 14
G03  24416848.99900 128311407.51900      1591.80500                
G09  24296300.34200 127677920.05200      -506.59600                
G14  20700309.75900 108780861.99200      -321.66000                
G15  25003556.54500 131394576.48500     -4072.32800                
G18  21875165.53600 114954770.77300      2525.61700                
G19  21674441.65400 113899959.65400     -2219.63400                
G22  23607540.97800 124058465.16400      2927.02600                
G23  20769363.96900 109143744.31700     -1226.27400                
G27  21239949.83400 111616689.72900      1833.64500                
G28  24229654.77200 127327695.22100     -3047.09200                
E02        35.77500       187.99900        11.87200                
E03        12.58600        66.14000        14.91700                
E04        15.76600        82.85300       -15.03100                
E05        38.21200       200.80800       -11.11400                
> 2025 04 22 14 02 43.0000000  0 14
G03  24416546.03400 128309815.42800      1592.34100                
G09  24296396.98100 127678427.89500      -509.09200                
G14  20700371.09500 108781184.31500      -322.97100                
G15  25004331.33700 131398648.04600     -4070.79300                
G18  21874685.07400 114952245.93000      2524.06500                
G19  21674863.94600 113902178.81200     -2218.69500                
G22  23606984.08100 124055538.65300      2926.01500                
G23  20769597.33300 109144970.65400     -1226.41400                
G27  21239600.85000 111614855.80700      1834.20100                
G28  24230234.63200 127330742.40200     -3047.31700                
E02        33.45500       175.80800        12.50200                
E03         9.79000        51.44600        14.36800                
E04        18.61800        97.83700       -14.91100                
E05        40.25900       211.56300       -10.38900                
> 2025 04 22 14 02 44.0000000  0 14
G03  24416242.98500 128308222.89700      1592.68500                
G09  24296494.09500 127678938.23300      -511.58100                
G14  20700432.67100 108781507.90000      -324.18100                
G15  25005105.82600 131402718.01000     -4069.13900                
G18  21874204.90500 114949722.62100      2522.55200                
G19  21675286.06400 113904397.06000     -2217.82000                
G22  23606427.35900 124052613.06000      2925.19400                
G23  20769830.73200 109146197.17000     -1226.63300                
G27  21239251.75700 111613021.31000      1834.79200                
G28  24230814.55500 127333789.91600     -3047.76000                
E02        31.02000       163.01100        13.08200                
E03         7.18300        37.74800        12.74600                
E04        21.43300       112.63100       -14.66100                
E05        42.16400       221.57200        -9.62400                
> 2025 04 22 14 02 45.0000000  0 14
G03  24415939.89000 128306630.12300      1592.82500                
G09  24296591.68000 127679451.04600      -514.03500                
G14  20700494.46700 108781832.64100      -325.28300                
G15  25005879.99000 131406786.27000     -4067.39000                
G18  21873725.01800 114947200.79900      2521.09500                
G19  21675708.02400 113906614.47300     -2217.02700                
G22  23605870.77500 124049688.18700      2924.57300                
G23  20770064.17900 109147423.94600     -1226.93400                
G27  21238902.55000 111611186.21200      1835.40200                
G28  24231394.58200 127336837.98200     -3048.41900                
E02        28.48000       149.66300        13.60500                
E03         5.13000        26.96000         8.01700                
E04        24.19200       127.12700       -14.31700                
E05        43.91900       230.79800        -8.82200                
> 2025 04 22 14 02 46.0000000  0 15
G03  24415636.78900 128305037.31600      1592.75000                
G09  24296689.72700 127679966.28400      -516.42900                
G14  20700556.46200 108782158.42800      -326.27300                
G15  25006653.81500 131410852.74700     -4065.57200                
G18  21873245.40200 114944680.39800      2519.71300                
G19  21676129.84200 113908831.13900     -2216.33100                
G22  23605314.28900 124046763.83400      2924.15800                
G23  20770297.69200 109148651.06300     -1227.31600                
G27  21238553.22500 111609350.50100      1836.01300                
G28  24231974.75500 127339886.81400     -3049.28900                
E01        44.91800       236.04700         8.31500                
E02        25.84600       135.82100        14.06800                
E03         4.51300        23.71600        -2.19100                
E04        26.87700       141.24000       -13.89600                
E05        45.51900       239.20500        -7.98700                
> 2025 04 22 14 02 47.0000000  0 14
G03  24415333.72300 128303444.69200      1592.45600                
G09  24296788.22100 127680483.87400      -518.73600                
G14  20700618.63500 108782485.14700      -327.14600                
G15  25007427.28900 131414917.38000     -4063.71000                
G18  21872766.04000 114942161.33400      2518.42200                
G19  21676551.53800 113911047.16600     -2215.74800                
G22  23604757.86200 124043839.79000      2923.95200                
G23  20770531.28500 109149878.60400     -1227.78100                
G27  21238203.78600 111607514.18600      1836.60800                
G28  24232555.11400 127342936.61700     -3050.36300                
E01        43.25700       227.31900         9.13700                
E02        23.13000       121.55100        14.46100                
E03         5.81600        30.56400       -10.44700                
E04        29.47600       154.89700       -13.40900                
> 2025 04 22 14 02 48.0000000  0 14
G03  24415030.73400 128301852.47500      1591.93800                
G09  24296887.14400 127681003.71900      -520.93400                
G14  20700680.96200 108782812.68000      -327.89900                
G15  25008200.40600 131418980.14000     -4061.83200                
G18  21872286.91400 114939643.51100      2517.23700                
G19  21676973.13400 113913262.67200     -2215.29200                
G22  23604201.45400 124040915.84800      2923.95500                
G23  20770764.97500 109151106.65000     -1228.32600                
G27  21237854.23700 111605677.29100      1837.17000                
G28  24233135.69500 127345987.59200     -3051.62900                
E01        41.44300       217.78500         9.92500                
E02        20.34800       106.92700        14.77100                
E03         8.15500        42.85500       -13.58100                
E04        31.97600       168.03700       -12.86300                
> 2025 04 22 14 02 49.0000000  0 14
G03  24414727.86500 128300260.88800      1591.19600                
G09  24296986.47400 127681525.69800      -523.00000                
G14  20700743.42200 108783140.90600      -328.53400                
G15  25008973.16700 131423041.02600     -4059.96400                
G18  21871808.00200 114937126.81300      2516.17200                
G19  21677394.65700 113915477.79000     -2214.97300                
G22  23603645.02600 124037991.80000      2924.16400                
G23  20770998.77500 109152335.28100     -1228.95000                
G27  21237504.58500 111603839.85800      1837.68300                
G28  24233716.53400 127349039.92400     -3053.07500                
E01        39.48200       207.48100        10.67500                
E02        17.51500        92.04300        14.97600                
E03        10.86000        57.06800       -14.65600                
E04        34.36800       180.60500       -12.26300                
> 2025 04 22 14 02 50.0000000  0 14
G03  24414425.15900 128298670.15300      1590.23500                
G09  24297086.18200 127682049.66700      -524.91200                
G14  20700805.99000 108783469.70700      -329.05000                
G15  25009745.57600 131427100.06000     -4058.13400                
G18  21871329.28100 114934611.11500      2515.23900                
G19  21677816.13300 113917692.66200     -2214.80200                
G22  23603088.53900 124035067.44200      2924.57400                
G23  20771232.70100 109153564.57200     -1229.64700                
G27  21237154.84100 111602001.94300      1838.13000                
G28  24234297.66500 127352093.78300     -3054.68300                
E01        37.38300       196.44800        11.38400                
E02        14.65700        77.02500        15.02900                
E03        13.68800        71.93200       -14.99700                
E04        36.64100       192.54700       -11.61400                
> 2025 04 22 14 02 51.0000000  0 14
G03  24414122.65500 128297080.48500      1589.06100                
G09  24297186.23800 127682575.46500      -526.65400                
G14  20700868.64600 108783798.96700      -329.45100                
G15  25010517.64200 131431157.29400     -4056.36700                
G18  21870850.72300 114932096.27900      2514.44900                
G19  21678237.59200 113919907.43900     -2214.78600                
G22  23602531.95600 124032142.57800      2925.17500                
G23  20771466.76700 109154794.59700     -1230.41500                
G27  21236805.02000 111600163.62100      1838.49700                
G28  24234879.11500 127355149.32600     -3056.43600                
E01        35.15200       184.72700        12.04900                
E02        11.81100        62.06900        14.82500                
E03        16.54700        86.95600       -15.01400                
E04        38.78500       203.81800       -10.92000                
> 2025 04 22 14 02 52.0000000  0 14
G03  24413820.39400 128295492.09600      1587.68300                
G09  24297286.60700 127683102.91200      -528.20800                
G14  20700931.36800 108784128.57200      -329.74100                
G15  25011289.37900 131435212.80300     -4054.69000                
G18  21870372.30200 114929582.15900      2513.80900                
G19  21678659.06200 113922122.28000     -2214.92900                
G22  23601975.24100 124029217.02000      2925.95700                
G23  20771700.98600 109156025.42200     -1231.24600                
G27  21236455.13800 111598324.97600      1838.77100                
G28  24235460.91100 127358206.68600     -3058.31400                
E01        32.80000       172.36600        12.66600                
E02         9.04900        47.55100        14.07900                
E03        19.39100       101.90200       -14.85400                
E04        40.79400       214.37300       -10.18300                
> 2025 04 22 14 02 53.0000000  0 14
G03  24413518.41500 128293905.18100      1586.11300                
G09  24297387.25400 127683631.81500      -529.56300                
G14  20700994.13500 108784458.41400      -329.92700                
G15  25012060.80800 131439266.69000     -4053.12600                
G18  21869893.98800 114927068.60100      2513.32500                
G19  21679080.57500 113924337.34600     -2215.23500                
G22  23601418.36100 124026290.59600      2926.90600                
G23  20771935.36700 109157257.10700     -1232.13500                
G27  21236105.21300 111596486.11100      1838.93800                
G28  24236043.07500 127361265.97500     -3060.29300                
E01        30.33500       159.41300        13.23000                
E02         6.54000        34.36800        11.90400                
E03        22.19300       116.62400       -14.57600                
E04        42.65900       224.17200        -9.40800                
> 2025 04 22 14 02 54.0000000  0 14
G03  24413216.75000 128292319.92500      1584.36700                
G09  24297488.13900 127684161.96700      -530.70700                
G14  20701056.92800 108784788.39400      -330.01600                
G15  25012831.95200 131443319.07800     -4051.69800                
G18  21869415.75100 114924555.44700      2513.00200                
G19  21679502.16200 113926552.80000     -2215.70500                
G22  23600861.28600 124023363.14800      2928.00400                
G23  20772169.92300 109158489.70700     -1233.07400                
G27  21235755.26800 111594647.13500      1838.98800                
G28  24236625.62300 127364327.28500     -3062.35000                
E01        27.76800       145.92400        13.73800                
E02         4.77100        25.06900         5.70100                
E03        24.93300       131.02300       -14.20900                
E04        44.37200       233.17700        -8.59700                
> 2025 04 22 14 02 55.0000000  0 14
G03  24412915.43400 128290736.49600      1582.46400                
G09  24297589.22100 127684693.15600      -531.63400                
G14  20701119.72900 108785118.41700      -330.01800                
G15  25013602.83900 131447370.11600     -4050.42600                
G18  21868937.56000 114922042.53600      2512.84000                
G19  21679923.85300 113928768.80500     -2216.33700                
G22  23600303.99000 124020434.53400      2929.23400                
G23  20772404.66200 109159723.26800     -1234.05500                
G27  21235405.32500 111592808.17200      1838.91300                
G28  24237208.56700 127367390.68000     -3064.46000                
E01        25.11100       131.95900        14.18200                
E02         4.70300        24.71500        -5.07100                
E03        27.59600       145.01800       -13.76900                
E06        44.47900       233.74100         8.54300                
> 2025 04 22 14 02 56.0000000  0 14
G03  24412614.49300 128289155.04100      1580.42200                
G09  24297690.45800 127685225.16100      -532.33900                
G14  20701182.52400 108785448.40400      -329.94300                
G15  25014373.50000 131451419.96900     -4049.33000                
G18  21868459.38400 114919529.70600      2512.83800                
G19  21680345.68000 113930985.52000     -2217.12600                
G22  23599746.44800 124017504.63300      2930.57400                
G23  20772639.59100 109160957.82500     -1235.06800                
G27  21235055.40900 111590969.35000      1838.70400                
G28  24237791.91700 127370456.20200     -3066.59700                
E01        22.37500       117.58400        14.55400                
E02         6.39300        33.59400       -11.66200                
E03        30.16900       158.54000       -13.26500                
E06        42.77600       224.78800         9.35600                
> 2025 04 22 14 02 57.0000000  0 14
G03  24412313.95200 128287575.68800      1578.26400                
G09  24297791.80800 127685757.76000      -532.82200                
G14  20701245.29700 108785778.28100      -329.80200                
G15  25015143.97100 131455468.81900     -4048.42400                
G18  21867981.19400 114917016.79900      2512.99400                
G19  21680767.67200 113933203.10100     -2218.06700                
G22  23599188.64200 124014573.34400      2932.00400                
G23  20772874.71500 109162193.40900     -1236.10500                
G27  21234705.54500 111589130.80600      1838.35600                
G28  24238375.67300 127373523.86200     -3068.73600                
E01        19.57700       102.87900        14.83900                
E02         8.87300        46.62800       -13.99600                
E03        32.64100       171.52900       -12.70400                
E06        40.92100       215.04000        10.13400                
> 2025 04 22 14 02 58.0000000  0 14
G03  24412013.83100 128285998.54200      1576.01300                
G09  24297893.22900 127686290.73100      -533.08400                
G14  20701308.03900 108786107.98900      -329.60700                
G15  25015914.28800 131459516.86400     -4047.72200                
G18  21867502.95900 114914503.66000      2513.30100                
G19  21681189.85600 113935421.69400     -2219.15000                
G22  23598630.55800 124011640.59100      2933.49900                
G23  20773110.03700 109163430.03800     -1237.15600                
G27  21234355.76200 111587292.68000      1837.86700                
G28  24238959.83500 127376593.65200     -3070.85000                
E01        16.73500        87.94400        15.00800                
E02        11.62600        61.09600       -14.79700                
E03        35.00100       183.93100       -12.09100                
E06        38.92100       204.53300        10.87300                
> 2025 04 22 14 02 59.0000000  0 14
G03  24411714.14500 128284423.68100      1573.69500                
G09  24297994.68000 127686823.85600      -533.13200                
G14  20701370.73900 108786437.48200      -329.37300                
G15  25016684.49200 131463564.31400     -4047.23500                
G18  21867024.65200 114911990.14100      2513.75200                
G19  21681612.25900 113937641.43800     -2220.36500                
G22  23598072.18500 124008706.32000      2935.03600                
G23  20773345.56000 109164667.72000     -1238.21000                
G27  21234006.08500 111585455.11600      1837.23400                
G28  24239544.39400 127379665.53300     -3072.91300                
E01        13.87600        72.91900        15.00600                
E02        14.46900        76.03700       -15.02500                
E03        37.24000       195.69500       -11.42900                
E06        36.78500       193.30800        11.57000                
> 2025 04 22 14 03  0.0000000  0 14
G03  24411414.90500 128282851.16200      1571.33600                
G09  24298096.11900 127687356.92500      -532.97300                
G14  20701433.39200 108786766.72700      -329.11300                
G15  25017454.62500 131467611.38600     -4046.96800                
G18  21866546.24700 114909476.10200      2514.33800                
G19  21682034.90500 113939862.45800     -2221.70000                
G22  23597513.51700 124005770.50200      2936.59000                
G23  20773581.28400 109165906.45500     -1239.25900                
G27  21233656.54200 111583618.25600      1836.45800                
G28  24240129.33900 127382739.44100     -3074.90100                
E01        11.04300        58.03300        14.69500                
E02        17.32800        91.05800       -14.98500                
E03        39.34800       206.77500       -10.72300                
E06        34.52100       181.40700        12.22200                
> 2025 04 22 14 03  1.0000000  0 14
G03  24411116.11500 128281281.01000      1568.96300                
G09  24298197.51000 127687889.73700      -532.62000                
G14  20701495.99500 108787095.70500      -328.84100                
G15  25018224.72800 131471658.30400     -4046.92600                
G18  21866067.71800 114906961.41600      2515.04600                
G19  21682457.81600 113942084.86800     -2223.14100                
G22  23596954.55400 124002833.13400      2938.13400                
G23  20773817.20500 109167146.23100     -1240.29300                
G27  21233307.16000 111581782.24200      1835.54300                
G28  24240714.65400 127385815.28900     -3076.78900                
E01         8.32600        43.75200        13.69300                
E02        20.16300       105.95500       -14.78800                
E03        41.31800       217.12800        -9.97500                
E06        32.13700       168.87900        12.82500                
> 2025 04 22 14 03  2.0000000  0 14
G03  24410817.77600 128279713.22900      1566.60100                
G09  24298298.81600 127688422.10500      -532.08700                
G14  20701558.54500 108787424.41100      -328.57200                
G15  25018994.84400 131475705.29300     -4047.11000                
G18  21865589.04400 114904445.96500      2515.86400                
G19  21682881.00900 113944308.76400     -2224.67100                
G22  23596395.30000 123999894.23400      2939.64600                
G23  20774053.32100 109168387.03000     -1241.30100                
G27  21232957.96500 111579947.21000      1834.49300                
G28  24241300.31600 127388892.96600     -3078.55500                
E01         5.94900        31.26100        10.77400                
E02        22.94900       120.59800       -14.48400                
E03        43.14200       226.71300        -9.19000                
E06        29.64300       155.77500        13.37500                
> 2025 04 22 14 03  3.0000000  0 15
G03  24410519.88300 128278147.79200      1564.27900                
G09  24298400.00500 127688953.85600      -531.39000                
G14  20701621.04600 108787752.85400      -328.31900                
G15  25019765.01600 131479752.57700     -4047.51700                
G18  21865110.20500 114901929.64900      2516.77500                
G19  21683304.50100 113946534.22800     -2226.27400                
G22  23595835.76400 123996953.85000      2941.09900                
G23  20774289.62600 109169628.81900     -1242.27400                
G27  21232608.98300 111578113.29400      1833.31500                
G28  24241886.30100 127391972.33900     -3080.17800                
E01         4.54400        23.88000         2.91700                
E02        25.66900       134.89400       -14.09600                
E03        44.81300       235.49600        -8.37000                
E05        45.61800       239.72600         7.93100                
E06        27.05000       142.14900        13.86600                
> 2025 04 22 14 03  4.0000000  0 14
G03  24410222.42600 128276584.64700      1562.02100                
G09  24298501.04700 127689484.83700      -530.55000                
G14  20701683.50100 108788081.05900      -328.09700                
G15  25020535.28700 131483800.37700     -4048.14100                
G18  21864631.18400 114899412.38100      2517.76500                
G19  21683728.30300 113948761.32500     -2227.93200                
G22  23595275.95800 123994012.05200      2942.47100                
G23  20774526.11200 109170871.56100     -1243.20400                
G27  21232260.23600 111576280.61700      1832.01700                
G28  24242472.58100 127395053.25700     -3081.64000                
E01         5.03200        26.44200        -7.50500                
E02        28.30900       148.76600       -13.63700                
E05        44.02900       231.37400         8.76800                
E06        24.37000       128.06500        14.29100                
> 2025 04 22 14 03  5.0000000  0 14
G03  24409925.39100 128275023.71600      1559.85400                
G09  24298601.91800 127690014.91400      -529.58600                
G14  20701745.91900 108788409.06300      -327.92000                
G15  25021305.69700 131487848.90800     -4048.97300                
G18  21864151.97000 114896894.09200      2518.81400                
G19  21684152.42500 113950990.09900     -2229.62600                
G22  23594715.90100 123991068.93200      2943.73900                
G23  20774762.77000 109172115.20800     -1244.08300                
G27  21231911.74600 111574449.29300      1830.60900                
G28  24243059.12100 127398135.54900     -3082.92400                
E01         7.02300        36.90800       -12.56500                
E02        30.85600       162.14800       -13.11800                
E05        42.28300       222.20100         9.57200                
E06        21.61600       113.59200        14.64100                
> 2025 04 22 14 03  6.0000000  0 14
G03  24409628.75800 128273464.89900      1557.80000                
G09  24298702.59500 127690543.97600      -528.52400                
G14  20701808.30700 108788736.91800      -327.80000                
G15  25022076.28400 131491898.36900     -4050.00200                
G18  21863672.55100 114894374.73000      2519.90600                
G19  21684576.87100 113953220.57600     -2231.33600                
G22  23594155.61500 123988124.60500      2944.88100                
G23  20774999.59000 109173359.70500     -1244.90200                
G27  21231563.53400 111572619.42600      1829.10500                
G28  24243645.88800 127401219.03100     -3084.01700                
E01         9.60900        50.49500       -14.30600                
E02        33.29800       174.98200       -12.54200                
E05        40.38800       212.24200        10.34000                
E06        18.80400        98.81300        14.89800                
> 2025 04 22 14 03  7.0000000  0 13
G03  24409332.50300 128271908.06800      1555.88300                
G09  24298803.06200 127691071.93600      -527.38600                
G14  20701870.68000 108789064.68700      -327.75000                
G18  21863192.92200 114891854.26400      2521.02100                
G19  21685001.64200 113955452.76400     -2233.04300                
G22  23593595.12400 123985179.20700      2945.88000                
G23  20775236.56000 109174604.99000     -1245.65700                
G27  21231215.61700 111570791.10800      1827.51600                
G28  24244232.84400 127404303.50300     -3084.90700                
E01        12.39800        65.15100       -14.89800                
E02        35.62600       187.21500       -11.91500                
E05        38.35100       201.53500        11.06800                
E06        15.95400        83.83700        15.02800                
> 2025 04 22 14 03  8.0000000  0 13
G03  24409036.59800 128270353.07800      1554.12200                
G09  24298903.30800 127691598.73100      -526.19900                
G14  20701933.05000 108789392.44500      -327.78100                
G18  21862713.08100 114889332.68000      2522.13900                
G19  21685426.73600 113957686.64800     -2234.72700                
G22  23593034.45800 123982232.88900      2946.71700                
G23  20775473.66600 109175850.99300     -1246.34000                
G27  21230868.00900 111568964.41400      1825.85700                
G28  24244819.94900 127407388.76100     -3085.58500                
E01        15.25100        80.14200       -15.03400                
E02        37.83000       198.79600       -11.24100                
E05        36.17900       190.12100        11.75300                
E06        13.09600        68.82200        14.96000                
> 2025 04 22 14 03  9.0000000  0 13
G03  24408741.01200 128268799.76300      1552.53500                
G09  24299003.32500 127692124.32600      -524.98900                
G14  20701995.43400 108789720.27800      -327.90200                
G18  21862233.02800 114886809.98300      2523.24200                
G19  21685852.14700 113959922.19800     -2236.37000                
G22  23592473.65000 123979285.82000      2947.37800                
G23  20775710.89600 109177097.64200     -1246.94700                
G27  21230520.72100 111567139.40700      1824.14500                
G28  24245407.16300 127410474.59000     -3086.04800                
E01        18.10600        95.14500       -14.94400                
E02        39.90100       209.68200       -10.52300                
E05        33.88100       178.04400        12.39200                
E06        10.28300        54.03900        14.51700                
> 2025 04 22 14 03 10.0000000  0 13
G03  24408445.71000 128267247.94100      1551.13900                
G09  24299103.11300 127692648.71100      -523.78300                
G14  20702057.85100 108790048.28200      -328.12300                
G18  21861752.76700 114884286.19800      2524.31100                
G19  21686277.86500 113962159.36100     -2237.95100                
G22  23591912.73300 123976338.18300      2947.85100                
G23  20775948.23300 109178344.85900     -1247.47500                
G27  21230173.76400 111565316.13300      1822.39400                
G28  24245994.44400 127413560.77300     -3086.29300                
E01        20.92900       109.98400       -14.71400                
E02        41.83200       219.82800        -9.76400                
E05        31.46600       165.35300        12.98100                
E06         7.62600        40.07600        13.17700                
> 2025 04 22 14 03 11.0000000  0 13
G03  24408150.65500 128265697.41500      1549.94500                
G09  24299202.67300 127693171.90200      -522.60800                
G14  20702120.32100 108790376.56000      -328.45100                
G18  21861272.30900 114881761.37100      2525.32600                
G19  21686703.87700 113964398.06800     -2239.45500                
G22  23591351.74500 123973390.17200      2948.12600                
G23  20776185.66400 109179592.56300     -1247.92200                
G27  21229827.14200 111563494.62100      1820.62300                
G28  24246581.75100 127416647.09200     -3086.32100                
E01        23.69900       124.54100       -14.38500                
E02        43.61500       229.19800        -8.96900                
E05        28.94400       152.10100        13.51500                
E06         5.42600        28.51300         9.26200                
> 2025 04 22 14 03 12.0000000  0 12
G03  24407855.80700 128264147.97800      1548.96300                
G09  24299302.01400 127693693.94500      -521.48900                
G14  20702182.86300 108790705.22100      -328.89100                
G18  21860791.66300 114879235.56300      2526.27000                
G19  21687130.16600 113966638.23200     -2240.86300                
G22  23590790.72400 123970441.98800      2948.19700                
G23  20776423.17100 109180840.67300     -1248.28500                
G27  21229480.85700 111561674.88400      1818.84800                
G28  24247169.04300 127419733.33100     -3086.13600                
E01        26.39900       138.72800       -13.97700                
E05        26.32600       138.34400        13.98900                
E06         4.47200        23.50100        -0.15800                
> 2025 04 22 14 03 13.0000000  0 13
G03  24407561.12500 128262599.41200      1548.20100                
G09  24299401.15000 127694214.90700      -520.45200                
G14  20702245.50000 108791034.38100      -329.44800                
G18  21860310.84600 114876708.85200      2527.12600                
G19  21687556.71200 113968879.75000     -2242.16100                
G22  23590229.71000 123967493.83700      2948.05900                
G23  20776660.73900 109182089.10400     -1248.56600                
G27  21229134.91000 111559856.91700      1817.08600                
G28  24247756.28000 127422819.28300     -3085.74600                
E01        29.01500       152.47300       -13.50100                
E04        43.56700       228.94700         8.99100                
E05        23.62400       124.14600        14.39500                
E06         5.47500        28.77100        -9.43500                
> 2025 04 22 14 03 14.0000000  0 13
G03  24407266.56700 128261051.49800      1547.66200                
G09  24299500.09800 127694734.88400      -519.52100                
G14  20702308.25400 108791364.15700      -330.12400                
G18  21859829.87600 114874181.33600      2527.87900                
G19  21687983.49500 113971122.50600     -2243.33400                
G22  23589668.74200 123964545.92900      2947.71200                
G23  20776898.35400 109183337.77500     -1248.76500                
G27  21228789.29500 111558040.69800      1815.35400                
G28  24248343.42400 127425904.74700     -3085.16100                
E01        31.53400       165.71100       -12.96600                
E04        41.78000       219.55600         9.78500                
E05        20.85200       109.58000        14.72200                
E06         7.69600        40.44100       -13.23700                
> 2025 04 22 14 03 15.0000000  0 13
G03  24406972.09000 128259504.01200      1547.34500                
G09  24299598.88100 127695253.99200      -518.72000                
G14  20702371.14800 108791694.66900      -330.91900                
G18  21859348.77300 114871653.12400      2528.51500                
G19  21688410.48700 113973366.36700     -2244.37200                
G22  23589107.85900 123961598.47100      2947.15800                
G23  20777135.99800 109184586.60500     -1248.88400                
G27  21228444.00500 111556226.19000      1813.66900                
G28  24248930.43900 127428989.53300     -3084.39400                
E01        33.94600       178.38600       -12.37500                
E04        39.84500       209.38900        10.54300                
E05        18.02800        94.73600        14.94800                
E06        10.36000        54.44100       -14.53800                
> 2025 04 22 14 03 16.0000000  0 13
G03  24406677.65200 128257956.73100      1547.24900                
G09  24299697.52600 127695772.37300      -518.06800                
G14  20702434.20500 108792026.03500      -331.83300                
G18  21858867.56200 114869124.34100      2529.02100                
G19  21688837.66400 113975611.19500     -2245.26400                
G22  23588547.10100 123958651.66900      2946.40300                
G23  20777373.65800 109185835.51600     -1248.92700                
G27  21228099.03100 111554413.33600      1812.04600                
G28  24249517.29200 127432073.46800     -3083.46100                
E01        36.24000       190.44500       -11.73500                
E04        37.77000       198.48400        11.25900                
E05        15.17200        79.73100        15.03400                
E06        13.17500        69.23700       -14.96600                
> 2025 04 22 14 03 17.0000000  0 13
G03  24406383.21200 128256409.43900      1547.36800                
G09  24299796.06200 127696290.18400      -517.58400                
G14  20702497.44700 108792358.37400      -332.86300                
G18  21858386.26700 114866595.12100      2529.38700                
G19  21689264.99500 113977856.83700     -2246.00100                
G22  23587986.50600 123955705.72000      2945.45300                
G23  20777611.31900 109187084.43400     -1248.89900                
G27  21227754.35800 111552602.06700      1810.50100                
G28  24250103.95400 127435156.39300     -3082.37900                
E01        38.40900       201.84100       -11.04900                
E04        35.56300       186.88500        11.93200                
E05        12.32000        64.74400        14.88900                
E06        16.03300        84.25400       -15.02700                
> 2025 04 22 14 03 18.0000000  0 13
G03  24406088.73000 128254861.92400      1547.69200                
G09  24299894.52300 127696807.60200      -517.28500                
G14  20702560.89600 108792691.79900      -334.00500                
G18  21857904.91700 114864065.61000      2529.60400                
G19  21689692.45200 113980103.13800     -2246.57900                
G22  23587426.10800 123952760.81200      2944.32200                
G23  20777848.96900 109188333.29000     -1248.80500                
G27  21227409.97000 111550792.29900      1809.04800                
G28  24250690.39700 127438238.17100     -3081.17000                
E01        40.44300       212.52800       -10.31900                
E04        33.23200       174.63500        12.55800                
E05         9.53500        50.10400        14.27800                
E06        18.88200        99.22700       -14.89300                
> 2025 04 22 14 03 19.0000000  0 13
G03  24405794.16700 128253313.98800      1548.20800                
G09  24299992.94600 127697324.81900      -517.18400                
G14  20702624.57200 108793026.41900      -335.25100                
G18  21857423.54100 114861535.95800      2529.66500                
G19  21690120.00300 113982349.93500     -2246.99400                
G22  23586865.94300 123949817.12200      2943.02100                
G23  20778086.59400 109189582.02200     -1248.65200                
G27  21227065.85000 111548983.93300      1807.69800                
G28  24251276.59900 127441318.68500     -3079.85400                
E01        42.33400       222.46600        -9.55100                
E04        30.78700       161.78600        13.13200                
E05         6.95800        36.56600        12.48500                
E06        21.69300       113.99800       -14.63300                
> 2025 04 22 14 03 20.0000000  0 13
G03  24405499.48900 128251765.44500      1548.90400                
G09  24300091.37000 127697842.03900      -517.29200                
G14  20702688.49500 108793362.33400      -336.59600                
G18  21856942.16700 114859006.32400      2529.56800                
G19  21690547.61800 113984597.06500     -2247.24500                
G22  23586306.04000 123946874.81100      2941.56600                
G23  20778324.18600 109190830.57500     -1248.44700                
G27  21226721.97500 111547176.86100      1806.46300                
G28  24251862.54300 127444397.84100     -3078.45700                
E01        44.07500       231.61800        -8.74600                
E04        28.23800       148.38900        13.65100                
E05         4.99400        26.24200         7.28300                
E06        24.44600       128.46200       -14.28100                
> 2025 04 22 14 03 21.0000000  0 12
G03  24405204.66300 128250216.12400      1549.76000                
G09  24300189.83500 127698359.47500      -517.61600                
G14  20702752.68200 108793699.63900      -338.02900                
G18  21856460.82800 114856476.86700      2529.31000                
G19  21690975.26500 113986844.36500     -2247.33400                
G22  23585746.42600 123943934.02400      2939.97700                
G23  20778561.73400 109192078.90000     -1248.19800                
G27  21226378.32400 111545370.96300      1805.35200                
G28  24252448.21500 127447475.56800     -3077.00200                
E04        25.59500       134.50500        14.10700                
E05         4.56100        23.96800        -3.21500                
E06        27.12400       142.53500       -13.85300                
> 2025 04 22 14 03 22.0000000  0 13
G03  24404909.66100 128248665.87500      1550.75700                
G09  24300288.38200 127698877.34600      -518.16200                
G14  20702817.14900 108794038.41800      -339.54100                
G18  21855979.55300 114853947.74900      2528.89200                
G19  21691402.91300 113989091.67300     -2247.26200                
G22  23585187.12700 123940994.88500      2938.27200                
G23  20778799.23200 109193326.95800     -1247.91500                
G27  21226034.87200 111543566.11000      1804.37200                
G28  24253033.60600 127450551.82100     -3075.51400                
E03        43.09500       226.46500         9.21200                
E04        22.87300       120.19900        14.49300                
E05         6.00600        31.56200       -10.90300                
E06        29.71400       156.14700       -13.36100                
> 2025 04 22 14 03 23.0000000  0 13
G03  24404614.45700 128247114.56700      1551.87400                
G09  24300387.05500 127699395.87300      -518.93000                
G14  20702881.91100 108794378.74300      -341.11900                
G18  21855498.37200 114851419.12900      2528.31500                
G19  21691830.53400 113991338.83300     -2247.03800                
G22  23584628.16100 123938057.49900      2936.47500                
G23  20779036.67300 109194574.71900     -1247.60500                
G27  21225691.59300 111541762.16800      1803.53100                
G28  24253618.71400 127453626.58300     -3074.02100                
E03        41.26700       216.85800         9.99600                
E04        20.08500       105.54700        14.79500                
E05         8.39800        44.13300       -13.73700                
E06        32.20500       169.23700       -12.80900                
> 2025 04 22 14 03 24.0000000  0 13
G03  24404319.03100 128245562.09200      1553.08700                
G09  24300485.89500 127699915.28000      -519.91900                
G14  20702946.97800 108794720.67500      -342.75300                
G18  21855017.31600 114848891.16100      2527.58600                
G19  21692258.09700 113993585.69500     -2246.66900                
G22  23584069.54400 123935121.94800      2934.60600                
G23  20779274.05300 109195822.16200     -1247.28000                
G27  21225348.46100 111539958.99800      1802.83000                
G28  24254203.53900 127456699.85900     -3072.54900                
E03        39.29300       206.48500        10.74300                
E04        17.24900        90.64500        14.98800                
E05        11.12100        58.44100       -14.71000                
E06        34.58600       181.74800       -12.20500                
> 2025 04 22 14 03 25.0000000  0 13
G03  24404023.36600 128244008.36700      1554.37000                
G09  24300584.94300 127700435.78300      -521.12400                
G14  20703012.36100 108795064.26300      -344.42800                
G18  21854536.41200 114846363.99600      2526.71200                
G19  21692685.57800 113995832.11900     -2246.16500                
G22  23583511.28800 123932188.29100      2932.69200                
G23  20779511.37100 109197069.27500     -1246.94900                
G27  21225005.44900 111538156.45700      1802.27100                
G28  24254788.08800 127459771.68300     -3071.12200                
E03        37.18100       195.38600        11.44800                
E04        14.39100        75.62300        15.02300                
E05        13.95500        73.33600       -15.00900                
E06        36.84700       193.63100       -11.55200                
> 2025 04 22 14 03 26.0000000  0 13
G03  24403727.45300 128242453.33300      1555.69900                
G09  24300684.24100 127700957.59600      -522.53600                
G14  20703078.06500 108795409.54000      -346.13100                
G18  21854055.68800 114843837.77400      2525.70200                
G19  21693112.95000 113998077.97700     -2245.53800                
G22  23582953.39800 123929256.56100      2930.75600                
G23  20779748.62600 109198316.05900     -1246.62200                
G27  21224662.53000 111536354.40400      1801.85500                
G28  24255372.37100 127462842.11500     -3069.76600                
E03        34.93900       183.60400        12.10800                
E04        11.54900        60.68900        14.78500                
E05        16.81400        88.36100       -15.00600                
E06        38.97900       204.83700       -10.85300                
> 2025 04 22 14 03 27.0000000  0 13
G03  24403431.28500 128240896.95900      1557.04700                
G09  24300783.82600 127701480.92000      -524.14500                
G14  20703144.09500 108795756.52900      -347.84800                
G18  21853575.16800 114841312.62600      2524.56700                
G19  21693540.19300 114000323.15200     -2244.80200                
G22  23582395.87700 123926326.76700      2928.82400                
G23  20779985.82000 109199562.52100     -1246.30800                
G27  21224319.67700 111534552.69600      1801.57900                
G28  24255956.40600 127465911.23600     -3068.50700                
E03        32.57600       171.18600        12.72000                
E04         8.80000        46.24400        13.95900                
E05        19.65600       103.29100       -14.83200                
E06        40.97500       215.32300       -10.11300                
> 2025 04 22 14 03 28.0000000  0 13
G03  24403134.86100 128239339.23900      1558.38600                
G09  24300883.73500 127702005.94600      -525.93600                
G14  20703210.45100 108796105.23600      -349.56400                
G18  21853094.87500 114838788.66800      2523.32100                
G19  21693967.28600 114002567.54300     -2243.97200                
G22  23581838.72100 123923398.89300      2926.92000                
G23  20780222.95600 109200808.68100     -1246.01800                
G27  21223976.86300 111532751.19700      1801.43700                
G28  24256540.21100 127468979.15500     -3067.36500                
E03        30.10100       158.18100        13.28000                
E04         6.33200        33.27500        11.55500                
E05        22.45200       117.98700       -14.54500                
E06        42.82600       225.05000        -9.33400                
> 2025 04 22 14 03 29.0000000  0 13
G03  24402838.18500 128237780.19500      1559.69000                
G09  24300984.00100 127702532.84700      -527.89300                
G14  20703277.13300 108796455.65200      -351.26500                
G18  21852614.82900 114836266.00800      2521.97800                
G19  21694394.21400 114004811.06500     -2243.06700                
G22  23581281.92300 123920472.89800      2925.06900                
G23  20780460.04100 109202054.56700     -1245.76200                
G27  21223634.06300 111530949.77500      1801.42500                
G28  24257123.81200 127472046.00000     -3066.36200                
E03        27.52500       144.64500        13.78200                
E04         4.67800        24.58100         4.79700                
E05        25.18600       132.35200       -14.17100                
E06        44.52500       233.97900        -8.52000                
> 2025 04 22 14 03 30.0000000  0 13
G03  24402541.26600 128236219.87500      1560.93400                
G09  24301084.65400 127703061.78100      -529.99700                
G14  20703344.13600 108796807.75500      -352.93600                
G18  21852135.04600 114833744.73300      2520.55300                
G19  21694820.96400 114007053.65000     -2242.10200                
G22  23580725.47000 123917548.71800      2923.29500                
G23  20780697.08000 109203300.21600     -1245.54700                
G27  21223291.25500 111529148.30400      1801.53300                
G28  24257707.23800 127475111.92100     -3065.51800                
E02        44.32800       232.94400         8.62000                
E03        24.86000       130.63800        14.22000                
E04         4.80200        25.23300        -5.95900                
E05        27.84100       146.30500       -13.72500                
> 2025 04 22 14 03 31.0000000  0 13
G03  24402244.11800 128234658.35400      1562.09100                
G09  24301185.71900 127703592.88400      -532.22800                
G14  20703411.45400 108797161.51000      -354.56500                
G18  21851655.54100 114831224.91500      2519.06500                
G19  21695247.52600 114009295.25000     -2241.09800                
G22  23580169.34500 123914626.26400      2921.62100                
G23  20780934.08300 109204545.67500     -1245.38200                
G27  21222948.41500 111527346.66900      1801.75100                
G28  24258290.51900 127478177.08400     -3064.85000                
E02        42.61000       223.91600         9.43000                
E03        22.11800       116.22900        14.58500                
E04         6.60400        34.70200       -12.00100                
E05        30.40500       159.78000       -13.21500                
> 2025 04 22 14 03 32.0000000  0 13
G03  24401946.76000 128233095.72800      1563.13700                
G09  24301287.22000 127704126.27100      -534.56100                
G14  20703479.07600 108797516.86600      -356.13800                
G18  21851176.32300 114828706.60900      2517.53200                
G19  21695673.89500 114011535.83300     -2240.07300                
G22  23579613.52800 123911705.42600      2920.06700                
G23  20781171.06000 109205790.99800     -1245.27600                
G27  21222605.52400 111525544.76500      1802.06800                
G28  24258873.69100 127481241.67200     -3064.37000                
E02        40.74100       214.09500        10.20500                
E03        19.31400       101.49800        14.86000                
E04         9.12300        47.94300       -14.11200                
E05        32.86700       172.71700       -12.64900                
> 2025 04 22 14 03 33.0000000  0 13
G03  24401649.21600 128231532.12200      1564.05000                
G09  24301389.17200 127704662.03200      -536.97300                
G14  20703546.99100 108797873.76200      -357.64200                
G18  21850697.40000 114826189.85100      2515.97200                
G19  21696100.06800 114013775.38900     -2239.04800                
G22  23579057.99400 123908786.07200      2918.65400                
G23  20781408.02300 109207036.24700     -1245.23400                
G27  21222262.56500 111523742.50000      1802.47100                
G28  24259456.79000 127484305.87900     -3064.09200                
E02        38.72800       203.51900        10.94000                
E03        16.47000        86.54800        15.01700                
E04        11.89000        62.48200       -14.83500                
E05        35.21600       185.06100       -12.03100                
> 2025 04 22 14 03 34.0000000  0 13
G03  24401351.51200 128229967.67700      1564.81000                
G09  24301491.58800 127705200.23400      -539.43800                
G14  20703615.18500 108798232.12300      -359.06600                
G18  21850218.77500 114823674.66000      2514.40400                
G19  21696526.04800 114016013.92900     -2238.04100                
G22  23578502.71300 123905868.05500      2917.39900                
G23  20781644.98400 109208281.48800     -1245.26300                
G27  21221919.52100 111521939.79600      1802.94500                
G28  24260039.85600 127487369.91300     -3064.02400                
E02        36.58000       192.22900        11.63400                
E03        13.61100        71.52400        14.99300                
E04        14.73700        77.44300       -15.03000                
E05        37.44300       196.76300       -11.36500                
> 2025 04 22 14 03 35.0000000  0 13
G03  24401053.68000 128228402.55700      1565.39700                
G09  24301594.47600 127705740.91700      -541.93000                
G14  20703683.64100 108798591.86500      -360.40100                
G18  21849740.44800 114821161.03100      2512.84800                
G19  21696951.84000 114018251.47800     -2237.07200                
G22  23577947.65600 123902951.20700      2916.31600                
G23  20781881.95900 109209526.79700     -1245.36800                
G27  21221576.38200 111520136.58800      1803.47500                
G28  24260622.93000 127490433.98600     -3064.17000                
E02        34.30400       180.26700        12.28100                
E03        10.78400        56.66900        14.64000                
E04        17.59400        92.45900       -14.97200                
E05        39.53800       207.77600       -10.65500                
> 2025 04 22 14 03 36.0000000  0 13
G03  24400755.75300 128226836.94100      1565.79700                
G09  24301697.84000 127706284.09400      -544.42200                
G14  20703752.34200 108798952.89200      -361.63700                
G18  21849262.41300 114818648.94500      2511.32300                
G19  21697377.45200 114020488.08600     -2236.16100                
G22  23577392.78600 123900035.34900      2915.42000                
G23  20782118.96000 109210772.24900     -1245.55200                
G27  21221233.13800 111518332.82800      1804.04600                
G28  24261206.05200 127493498.31500     -3064.53500                
E02        31.90900       167.68300        12.87900                
E03         8.08500        42.48600        13.53400                
E04        20.42500       107.33700       -14.76300                
E05        41.49500       218.05800        -9.90300                
> 2025 04 22 14 03 37.0000000  0 13
G03  24400457.76900 128225271.02600      1565.99600                
G09  24301801.67500 127706829.75200      -546.88800                
G14  20703821.26900 108799315.10400      -362.76700                
G18  21848784.66500 114816138.36100      2509.84700                
G19  21697802.89800 114022723.81800     -2235.32400                
G22  23576838.06900 123897120.29000      2914.71900                
G23  20782356.00500 109212017.92500     -1245.81700                
G27  21220889.78300 111516528.48500      1804.63900                
G28  24261789.26500 127496563.11700     -3065.11700                
E02        29.40500       154.52700        13.42400                
E03         5.76200        30.28100        10.30500                
E04        23.20600       121.95100       -14.45000                
E05        43.30500       227.57000        -9.11500                
> 2025 04 22 14 03 38.0000000  0 14
G03  24400159.76700 128223705.01600      1565.98400                
G09  24301905.97500 127707377.85200      -549.30100                
G14  20703890.40000 108799678.38900      -363.78500                
G18  21848307.19200 114813629.22000      2508.43900                
G19  21698228.19300 114024958.75800     -2234.58000                
G22  23576283.46600 123894205.83100      2914.22200                
G23  20782593.10800 109213263.90900     -1246.16600                
G27  21220546.31400 111514723.54300      1805.24000                
G28  24262372.60800 127499628.60800     -3065.91200                
E01        45.47700       238.98500         8.01100                
E02        26.80400       140.85600        13.90900                
E03         4.50200        23.66000         1.88700                
E04        25.92000       136.21000       -14.05500                
E05        44.96200       236.27600        -8.29100                
> 2025 04 22 14 03 39.0000000  0 13
G03  24399861.78900 128222139.12800      1565.75300                
G09  24302010.72700 127707928.32800      -551.63600                
G14  20703959.71400 108800042.63500      -364.68700                
G18  21847829.97800 114811121.44700      2507.11500                
G19  21698653.35600 114027193.00700     -2233.94300                
G22  23575728.93800 123891291.76700      2913.93200                
G23  20782830.28500 109214510.28400     -1246.59900                
G27  21220202.73200 111512918.00500      1805.82900                
G28  24262956.12300 127502694.99800     -3066.91400                
E01        43.87300       230.55400         8.84500                
E02        24.11600       126.73100        14.32800                
E03         5.17200        27.18100        -8.22000                
E04        28.55100       150.03800       -13.59100                
> 2025 04 22 14 03 40.0000000  0 13
G03  24399563.87500 128220573.58100      1565.30000                
G09  24302115.91400 127708481.08900      -553.86800                
G14  20704029.18800 108800407.72300      -365.47000                
G18  21847353.00800 114808614.94900      2505.89100                
G19  21699078.41000 114029426.67800     -2233.42800                
G22  23575174.44500 123888377.88700      2913.85100                
G23  20783067.55200 109215757.13300     -1247.11500                
G27  21219859.03900 111511111.89000      1806.39000                
G28  24263539.84700 127505762.48900     -3068.11300                
E01        42.11300       221.30600         9.64600                
E02        21.35600       112.22500        14.67000                
E03         7.25000        38.09700       -12.81600                
E04        31.08900       163.37200       -13.06600                
> 2025 04 22 14 03 41.0000000  0 13
G03  24399266.06900 128219008.60000      1564.62300                
G09  24302221.51400 127709036.02100      -555.97400                
G14  20704098.79900 108800773.53400      -366.13200                
G18  21846876.25900 114806109.61900      2504.78100                
G19  21699503.37800 114031659.90100     -2233.04700                
G22  23574619.94800 123885463.98400      2913.97800                
G23  20783304.92600 109217004.53800     -1247.71100                
G27  21219515.24400 111509305.23500      1806.90800                
G28  24264123.81700 127508831.27300     -3069.49600                
E01        40.20400       211.27500        10.41000                
E02        18.53900        97.42300        14.91700                
E03         9.86400        51.83800       -14.39200                
E04        33.52000       176.15100       -12.48500                
> 2025 04 22 14 03 42.0000000  0 13
G03  24398968.41300 128217444.40600      1563.72500                
G09  24302327.50100 127709592.98700      -557.93400                
G14  20704168.52500 108801139.94800      -366.67600                
G18  21846399.71000 114803605.33500      2503.79900                
G19  21699928.28700 114033892.81500     -2232.81100                
G22  23574065.40700 123882549.85300      2914.30700                
G23  20783542.42000 109218252.57800     -1248.38400                
G27  21219171.35600 111507498.09100      1807.36500                
G28  24264708.06700 127511901.52700     -3071.04900                
E01        38.15400       200.50000        11.13400                
E02        15.68700        82.43500        15.03200                
E03        12.66300        66.54700       -14.92400                
E04        35.83700       188.32400       -11.85300                
> 2025 04 22 14 03 43.0000000  0 13
G03  24398670.94800 128215881.21900      1562.61100                
G09  24302433.84600 127710151.83200      -559.72700                
G14  20704238.34400 108801506.84800      -367.10400                
G18  21845923.33500 114801101.96700      2502.95400                
G19  21700353.16600 114036125.56800     -2232.72800                
G22  23573510.78500 123879635.29500      2914.83100                
G23  20783780.04900 109219501.32800     -1249.13000                
G27  21218827.38800 111505690.52600      1807.74700                
G28  24265292.62700 127514973.40900     -3072.75200                
E01        35.97000       189.02200        11.81500                
E02        12.83100        67.42700        14.94000                
E03        15.51800        81.54900       -15.03300                
E04        38.02900       199.84200       -11.17500                
> 2025 04 22 14 03 44.0000000  0 13
G03  24398373.71500 128214319.25000      1561.29100                
G09  24302540.51500 127710712.38100      -561.33900                
G14  20704308.23300 108801874.11900      -367.41900                
G18  21845447.10600 114798599.37000      2502.25600                
G19  21700778.04400 114038358.31700     -2232.80400                
G22  23572956.04600 123876720.12000      2915.53900                
G23  20784017.82700 109220750.85800     -1249.94400                
G27  21218483.35500 111503882.62200      1808.04000                
G28  24265877.52400 127518047.06300     -3074.58700                
E01        33.66000       176.88500        12.45000                
E02        10.02600        52.68700        14.44300                
E03        18.37100        96.54200       -14.92700                
E04        40.08700       210.66000       -10.45300                
> 2025 04 22 14 03 45.0000000  0 13
G03  24398076.75300 128212758.70000      1559.77500                
G09  24302647.47200 127711274.44400      -562.75400                
G14  20704378.17200 108802241.65100      -367.62800                
G18  21844970.99600 114796097.39500      2501.71200                
G19  21701202.95200 114040591.22400     -2233.04300                
G22  23572401.15500 123873804.14800      2916.42000                
G23  20784255.76500 109222001.23400     -1250.81800                
G27  21218139.27700 111502074.47500      1808.23100                
G28  24266462.78000 127521122.60800     -3076.53200                
E01        31.23500       164.13900        13.03300                
E02         7.39400        38.85500        12.96300                
E03        21.19100       111.35900       -14.68700                
E04        42.00500       220.73500        -9.69100                
> 2025 04 22 14 03 46.0000000  0 13
G03  24397780.09600 128211199.75800      1558.07800                
G09  24302754.67900 127711837.82000      -563.96200                
G14  20704448.14200 108802609.34200      -367.73800                
G18  21844494.97500 114793595.88700      2501.32500                
G19  21701627.92100 114042824.45100     -2233.44600                
G22  23571846.08100 123870887.21700      2917.45700                
G23  20784493.87500 109223252.51100     -1251.74700                
G27  21217795.17200 111500266.19300      1808.30900                
G28  24267048.41600 127524200.14300     -3078.56300                
E01        28.70300       150.83700        13.56200                
E02         5.26700        27.67700         8.64100                
E03        23.95500       125.88400       -14.35000                
E04        43.77300       230.03000        -8.89300                
> 2025 04 22 14 03 47.0000000  0 14
G03  24397483.77800 128209642.59600      1556.21700                
G09  24302862.09500 127712402.29600      -564.95400                
G14  20704518.12300 108802977.09700      -367.75800                
G18  21844019.01200 114791094.68500      2501.09800                
G19  21702052.98200 114045058.16400     -2234.01300                
G22  23571290.79700 123867969.17800      2918.63200                
G23  20784732.16700 109224504.74000     -1252.72000                
G27  21217451.06400 111498457.89300      1808.26500                
G28  24267634.44400 127527279.74300     -3080.65500                
E01        26.07700       137.03500        14.03000                
E02         4.48500        23.56700        -1.22200                
E03        26.64700       140.03300       -13.93500                
E04        45.38700       238.50900        -8.06100                
E06        45.05400       236.76100         8.24200                
> 2025 04 22 14 03 48.0000000  0 13
G03  24397187.82800 128208087.36900      1554.21200                
G09  24302969.67900 127712967.65300      -565.72500                
G14  20704588.10100 108803344.83200      -367.69800                
G18  21843543.07700 114788593.62900      2501.03200                
G19  21702478.16700 114047292.52400     -2234.74000                
G22  23570735.27700 123865049.90200      2919.92700                
G23  20784970.64700 109225757.96200     -1253.73100                
G27  21217106.97700 111496649.70200      1808.09100                
G28  24268220.87400 127530361.45400     -3082.78400                
E01        23.36800       122.79900        14.43000                
E02         5.64800        29.68000        -9.98400                
E03        29.25400       153.73200       -13.45300                
E06        43.40700       228.10300         9.06700                
> 2025 04 22 14 03 49.0000000  0 13
G03  24396892.27200 128206534.21100      1552.08300                
G09  24303077.38800 127713533.67100      -566.27300                
G14  20704658.06000 108803712.47100      -367.57000                
G18  21843067.14000 114786092.56100      2501.12300                
G19  21702903.50500 114049527.69000     -2235.62300                
G22  23570179.50100 123862129.28000      2921.31900                
G23  20785209.32200 109227012.20900     -1254.76900                
G27  21216762.93500 111494841.75400      1807.78000                
G28  24268807.71100 127533445.30200     -3084.92300                
E01        20.59000       108.20300        14.74800                
E02         7.93300        41.68800       -13.42400                
E03        31.76400       166.92000       -12.91200                
E06        41.60500       218.63800         9.85800                
> 2025 04 22 14 03 50.0000000  0 13
G03  24396597.13000 128204983.23300      1549.85500                
G09  24303185.18100 127714100.12600      -566.60100                
G14  20704727.99000 108804079.95300      -367.38500                
G18  21842591.17000 114783591.32400      2501.36700                
G19  21703329.02500 114051763.81300     -2236.65300                
G22  23569623.45300 123859207.22700      2922.78600                
G23  20785448.19700 109228267.50400     -1255.82500                
G27  21216418.96700 111493034.18500      1807.32900                
G28  24269394.95400 127536531.28200     -3087.04600                
E01        17.76200        93.33800        14.96300                
E02        10.61900        55.80300       -14.60200                
E03        34.16500       179.53900       -12.31700                
E06        39.65700       208.39900        10.61200                
> 2025 04 22 14 03 51.0000000  0 13
G03  24396302.42100 128203434.52300      1547.55200                
G09  24303293.01500 127714666.79900      -566.71100                
G14  20704797.88000 108804447.22700      -367.15700                
G18  21842115.14000 114781089.76900      2501.75800                
G19  21703754.75400 114054001.03500     -2237.82000                
G22  23569067.12100 123856283.68000      2924.30400                
G23  20785687.27300 109229523.86100     -1256.88900                
G27  21216075.09700 111491227.13900      1806.73600                
G28  24269982.59700 127539619.36700     -3089.12600                
E01        14.90500        78.32500        15.03200                
E02        13.44200        70.63600       -14.98300                
E03        36.44900       191.53800       -11.67300                
E06        37.56900       197.42800        11.32500                
> 2025 04 22 14 03 52.0000000  0 13
G03  24396008.15400 128201888.14300      1545.19900                
G09  24303400.85100 127715233.47800      -566.61300                
G14  20704867.72300 108804814.25600      -366.89900                
G18  21841639.02200 114778587.75400      2502.28600                
G19  21704180.71800 114056239.48900     -2239.11300                
G22  23568510.49700 123853358.60100      2925.84800                
G23  20785926.55200 109230781.28000     -1257.95100                
G27  21215731.35400 111489420.75800      1806.00100                
G28  24270570.63000 127542709.50100     -3091.14000                
E01        12.05600        63.35300        14.85700                
E02        16.30000        85.65800       -15.02100                
E03        38.60500       202.86900       -10.98200                
E06        35.35000       185.76500        11.99300                
> 2025 04 22 14 03 53.0000000  0 13
G03  24395714.33800 128200344.13000      1542.82300                
G09  24303508.64800 127715799.95800      -566.31500                
G14  20704937.51600 108805181.01900      -366.62500                
G18  21841162.79200 114776085.14700      2502.94100                
G19  21704606.93800 114058479.29300     -2240.51900                
G22  23567953.57800 123850431.97400      2927.39300                
G23  20786166.03200 109232039.75600     -1259.00000                
G27  21215387.76400 111487615.18100      1805.12600                
G28  24271159.03700 127545801.60400     -3093.06100                
E01         9.28100        48.77300        14.18000                
E02        19.14700       100.61700       -14.87300                
E03        40.62500       213.48800       -10.24900                
E06        33.00800       173.45700        12.61400                
> 2025 04 22 14 03 54.0000000  0 13
G03  24395420.97500 128198802.49200      1540.45200                
G09  24303616.37200 127716366.04700      -565.83300                
G14  20705007.25600 108805547.50600      -366.35100                
G18  21840686.42600 114773581.82700      2503.70900                
G19  21705033.43600 114060720.55200     -2242.02100                
G22  23567396.36700 123847503.81100      2928.91500                
G23  20786405.71000 109233299.27200     -1260.02800                
G27  21215044.35400 111485810.54700      1804.11600                
G28  24271747.80000 127548895.57300     -3094.86800                
E01         6.73800        35.41100        12.19800                
E02        21.95300       115.36400       -14.60400                
E03        42.50300       223.35400        -9.47700                
E06        30.55200       160.55400        13.18300                
> 2025 04 22 14 03 55.0000000  0 13
G03  24395128.06000 128197263.21300      1538.11100                
G09  24303723.98700 127716931.56800      -565.18200                
G14  20705076.94500 108805913.72500      -366.09000                
G18  21840209.90400 114771077.68800      2504.57700                
G19  21705460.22700 114062963.35500     -2243.60300                
G22  23566838.87100 123844574.14800      2930.38900                
G23  20786645.58100 109234559.79900     -1261.02300                
G27  21214701.14800 111484006.98800      1802.97600                
G28  24272336.89400 127551991.28200     -3096.53900                
E01         4.87100        25.59600         6.49000                
E02        24.69900       129.79400       -14.24400                
E03        44.23000       232.43000        -8.66900                
E06        27.99400       147.10900        13.69600                
> 2025 04 22 14 03 56.0000000  0 13
G03  24394835.58500 128195726.24900      1535.82600                
G09  24303831.46300 127717496.36100      -564.38100                
G14  20705146.58700 108806279.69600      -365.85700                
G18  21839733.20900 114768572.63800      2505.52800                
G19  21705887.32600 114065207.77300     -2245.24700                
G22  23566281.10100 123841643.04700      2931.79000                
G23  20786885.63700 109235821.30300     -1261.97800                
G27  21214358.17100 111482204.63100      1801.71500                
G28  24272926.29100 127555088.58600     -3098.05400                
E01         4.62600        24.31100        -4.19900                
E02        27.36900       143.82700       -13.81000                
E05        44.61900       234.47600         8.47100                
E06        25.34400       133.18200        14.14600                
> 2025 04 22 14 03 57.0000000  0 13
G03  24394543.53800 128194191.53000      1533.62500                
G09  24303938.77500 127718060.28700      -563.45100                
G14  20705216.18800 108806645.45200      -365.66500                
G18  21839256.32600 114766066.60100      2506.54600                
G19  21706314.74100 114067453.85800     -2246.93600                
G22  23565723.07300 123838710.59000      2933.09600                
G23  20787125.87000 109237083.73800     -1262.88400                
G27  21214015.44500 111480403.59300      1800.34200                
G28  24273515.96100 127558187.32000     -3099.39600                
E01         6.20300        32.59600       -11.31500                
E02        29.95100       157.39300       -13.31100                
E05        42.92900       225.59500         9.28700                
E06        22.61500       118.84000        14.52500                
> 2025 04 22 14 03 58.0000000  0 13
G03  24394251.89900 128192658.96100      1531.53000                
G09  24304045.89900 127718623.22700      -562.41400                
G14  20705285.75800 108807011.04300      -365.52700                
G18  21838779.24500 114763559.52200      2507.61300                
G19  21706742.48100 114069701.64600     -2248.64900                
G22  23565164.80700 123835776.88300      2934.28600                
G23  20787366.27000 109238347.04900     -1263.73200                
G27  21213672.98900 111478603.97800      1798.86800                
G28  24274105.86800 127561287.30400     -3100.55000                
E01         8.64300        45.41900       -13.87700                
E02        32.43200       170.43000       -12.75500                
E05        41.08700       215.91400        10.06800                
E06        19.82100       104.16100        14.81800                
> 2025 04 22 14 03 59.0000000  0 13
G03  24393960.64800 128191128.42400      1529.56400                
G09  24304152.81700 127719185.08600      -561.29400                
G14  20705355.30700 108807376.52800      -365.45700                
G18  21838301.95700 114761051.35800      2508.71000                
G19  21707170.54800 114071951.15100     -2250.36600                
G22  23564606.32700 123832842.05300      2935.33900                
G23  20787606.82600 109239611.17800     -1264.51600                
G27  21213330.82300 111476805.88100      1797.30700                
G28  24274695.97600 127564388.34200     -3101.50500                
E01        11.38200        59.81300       -14.75700                
E02        34.80200       182.88500       -12.14600                
E05        39.10000       205.47200        10.81100                
E06        16.98200        89.24100        14.99900                
> 2025 04 22 14 04  0.0000000  0 13
G03  24393669.75700 128189599.78000      1527.74900                
G09  24304259.51600 127719745.79500      -560.11700                
G14  20705424.85100 108807741.98200      -365.46400                
G18  21837824.45900 114758542.09000      2509.81800                
G19  21707598.94000 114074202.36800     -2252.06900                
G22  23564047.66200 123829906.24600      2936.23700                
G23  20787847.52500 109240876.05700     -1265.23000                
G27  21212988.96100 111475009.38400      1795.67300                
G28  24275286.24600 127567490.23200     -3102.25100                
E01        14.22100        74.73400       -15.01900                
E02        37.05100       194.70600       -11.48800                
E05        36.97500       194.30700        11.51200                
E06        14.12300        74.21700        15.01500                
> 2025 04 22 14 04  1.0000000  0 13
G03  24393379.19500 128188072.86700      1526.10300                
G09  24304365.98800 127720305.30900      -558.90900                
G14  20705494.40400 108808107.48700      -365.56100                
G18  21837346.75100 114756031.71800      2510.91700                
G19  21708027.65300 114076455.27100     -2253.73700                
G22  23563488.84100 123826969.62400      2936.96500                
G23  20788088.35200 109242141.61100     -1265.86800                
G27  21212647.41600 111473214.55100      1793.98000                
G28  24275876.63800 127570592.76200     -3102.78300                
E01        17.08000        89.75800       -14.99500                
E02        39.17100       205.84700       -10.78600                
E05        34.72200       182.46400        12.16800                
E06        11.28600        59.30600        14.74000                
> 2025 04 22 14 04  2.0000000  0 13
G03  24393088.92900 128186547.51000      1524.64200                
G09  24304472.22900 127720863.61100      -557.69600                
G14  20705563.98500 108808473.13600      -365.75500                
G18  21836868.83600 114753520.25700      2511.99000                
G19  21708456.67900 114078709.81800     -2255.35200                
G22  23562929.90000 123824032.36600      2937.51000                
G23  20788329.29300 109243407.76500     -1266.42700                
G27  21212306.19700 111471421.43400      1792.24500                
G28  24276467.11000 127573695.71200     -3103.09600                
E01        19.91800       104.67100       -14.81000                
E02        41.15400       216.26400       -10.04200                
E05        32.34800       169.98800        12.77500                
E06         8.55200        44.94200        13.82700                
> 2025 04 22 14 04  3.0000000  0 13
G03  24392798.92200 128185023.51500      1523.38000                
G09  24304578.24200 127721420.70900      -556.50600                
G14  20705633.61200 108808839.03300      -366.05500                
G18  21836390.72100 114751007.74500      2513.01600                
G19  21708886.00600 114080965.94600     -2256.89500                
G22  23562370.87200 123821094.65800      2937.86100                
G23  20788570.33200 109244674.43700     -1266.90400                
G27  21211965.31100 111469630.06600      1790.48400                
G28  24277057.62000 127576798.86800     -3103.19100                
E01        22.71000       119.34100       -14.51400                
E02        42.99100       225.91800        -9.25900                
E05        29.86300       156.93100        13.32900                
E06         6.12900        32.21000        11.16800                
> 2025 04 22 14 04  4.0000000  0 12
G03  24392509.13600 128183500.67800      1522.32700                
G09  24304684.03200 127721976.63900      -555.36500                
G14  20705703.30800 108809205.28400      -366.46700                
G18  21835912.41700 114748494.23800      2513.97900                
G19  21709315.61800 114083223.57300     -2258.34900                
G22  23561811.79700 123818156.69900      2938.01100                
G23  20788811.45500 109245941.54300     -1267.29700                
G27  21211624.76100 111467840.46500      1788.71300                
G28  24277648.12900 127579902.01100     -3103.07200                
E01        25.43700       133.67000       -14.13200                
E05        27.27800       143.34900        13.82600                
E06         4.60000        24.17400         3.84100                
> 2025 04 22 14 04  5.0000000  0 13
G03  24392219.53000 128181978.78500      1521.49200                
G09  24304789.61100 127722531.46200      -554.29800                
G14  20705773.09200 108809572.00500      -366.99400                
G18  21835433.93600 114745979.80600      2514.86100                
G19  21709745.49700 114085482.60300     -2259.69800                
G22  23561252.71400 123815218.69400      2937.95300                
G23  20789052.64400 109247209.00000     -1267.60500                
G27  21211284.54800 111466052.63200      1786.95100                
G28  24278238.59500 127583004.93000     -3102.74400                
E01        28.08400       147.58100       -13.68000                
E04        44.17300       232.13000         8.69700                
E05        24.60500       129.30200        14.25700                
E06         4.91400        25.82500        -6.79000                
> 2025 04 22 14 04  6.0000000  0 13
G03  24391930.06100 128180457.61700      1520.87900                
G09  24304894.99700 127723085.26700      -553.32900                
G14  20705842.98900 108809939.31200      -367.64000                
G18  21834955.29700 114743464.54100      2515.64500                
G19  21710175.62200 114087742.92300     -2260.92700                
G22  23560693.66100 123812280.85200      2937.68700                
G23  20789293.88300 109248476.72200     -1267.82900                
G27  21210944.66800 111464266.55100      1785.21400                
G28  24278828.97900 127586107.42000     -3102.21700                
E01        30.63900       161.00900       -13.16500                
E04        42.44100       223.02700         9.50400                
E05        21.85700       114.85900        14.61400                
E06         6.81900        35.83400       -12.30800                
> 2025 04 22 14 04  7.0000000  0 13
G03  24391640.68800 128178936.95000      1520.48900                
G09  24305000.20900 127723638.16200      -552.48300                
G14  20705913.01900 108810307.32600      -368.40700                
G18  21834476.51900 114740948.54500      2516.31800                
G19  21710605.96800 114090004.40700     -2262.02500                
G22  23560134.67800 123809343.37900      2937.21300                
G23  20789535.15800 109249744.62800     -1267.97100                
G27  21210605.11400 111462482.18600      1783.51900                
G28  24279419.24500 127589209.28900     -3101.50300                
E01        33.09100       173.89300       -12.59400                
E04        40.55800       213.13500        10.27500                
E05        19.04900       100.10400        14.88000                
E06         9.37500        49.26300       -14.21700                
> 2025 04 22 14 04  8.0000000  0 13
G03  24391351.36700 128177416.56100      1520.32100                
G09  24305105.27400 127724190.28100      -551.78100                
G14  20705983.20700 108810676.16500      -369.29200                
G18  21833997.62500 114738431.93800      2516.86700                
G19  21711036.51000 114092266.91700     -2262.97900                
G22  23559575.80600 123806406.48300      2936.53600                
G23  20789776.45200 109251012.63700     -1268.03500                
G27  21210265.87900 111460699.49000      1781.88000                
G28  24280009.35900 127592310.35700     -3100.61700                
E01        35.42900       186.17900       -11.97100                
E04        38.53300       202.49100        11.00600                
E05        16.20200        85.14000        15.02300                
E06        12.15300        63.86600       -14.87000                
> 2025 04 22 14 04  9.0000000  0 13
G03  24391062.05800 128175896.23200      1520.36900                
G09  24305210.22000 127724741.77800      -551.24200                
G14  20706053.57500 108811045.94900      -370.29500                
G18  21833518.63800 114735914.84800      2517.28000                
G19  21711467.21800 114094530.30700     -2263.78100                
G22  23559017.08000 123803470.36200      2935.66200                
G23  20790017.75100 109252280.67200     -1268.02400                
G27  21209926.94800 111458918.39700      1780.31500                
G28  24280599.28900 127595410.46000     -3099.57600                
E01        37.64400       197.81900       -11.30100                
E04        36.37200       191.13600        11.69500                
E05        13.34300        70.12000        14.97700                
E06        15.00400        78.84500       -15.03300                
> 2025 04 22 14 04 10.0000000  0 13
G03  24390772.72000 128174375.75100      1520.62600                
G09  24305315.08100 127725292.82400      -550.88200                
G14  20706124.14400 108811416.79200      -371.41000                
G18  21833039.58700 114733397.41800      2517.54800                
G19  21711898.06500 114096794.41900     -2264.42400                
G22  23558458.53900 123800535.21000      2934.60100                
G23  20790259.04100 109253548.66100     -1267.94400                
G27  21209588.30700 111457138.82800      1778.83600                
G28  24281189.00700 127598509.45200     -3098.40000                
E01        39.72700       208.76600       -10.58700                
E04        34.08400       179.11500        12.33900                
E05        10.52300        55.30000        14.57900                
E06        17.86000        93.85500       -14.95800                
> 2025 04 22 14 04 11.0000000  0 13
G03  24390483.31400 128172854.91300      1521.07900                
G09  24305419.89100 127725843.60600      -550.71700                
G14  20706194.93500 108811788.80500      -372.63300                
G18  21832560.50000 114730879.79500      2517.66400                
G19  21712329.01800 114099059.09500     -2264.90500                
G22  23557900.21700 123797601.20700      2933.36600                
G23  20790500.31000 109254816.53800     -1267.80200                
G27  21209249.93800 111455360.68800      1777.45700                
G28  24281778.49100 127601607.21000     -3097.11100                
E01        41.67000       218.97900        -9.83200                
E04        31.67900       166.47600        12.93200                
E05         7.84500        41.22700        13.35700                
E06        20.68700       108.71300       -14.73800                
> 2025 04 22 14 04 12.0000000  0 13
G03  24390193.80500 128171333.52800      1521.71600                
G09  24305524.68900 127726394.32500      -550.75700                
G14  20706265.96900 108812162.09100      -373.95500                
G18  21832081.40500 114728362.13400      2517.62400                
G19  21712760.04700 114101324.16800     -2265.22100                
G22  23557342.14600 123794668.52000      2931.97100                
G23  20790741.54600 109256084.24400     -1267.60300                
G27  21208911.82200 111453583.87400      1776.18800                
G28  24282367.72000 127604703.63200     -3095.73100                
E01        43.46600       228.41700        -9.03900                
E04        29.16600       153.27000        13.47100                
E05         5.58300        29.34000         9.78700                
E06        23.46300       123.29800       -14.41700                
> 2025 04 22 14 04 13.0000000  0 12
G03  24389904.15700 128169811.42300      1522.51900                
G09  24305629.51600 127726945.19200      -551.01300                
G14  20706337.26400 108812536.74600      -375.36900                
G18  21831602.33200 114725844.59300      2517.42300                
G19  21713191.12100 114103589.47500     -2265.37200                
G22  23556784.35300 123791737.30100      2930.43500                
G23  20790982.74000 109257351.72700     -1267.35700                
G27  21208573.93500 111451808.26800      1775.04000                
G28  24282956.68000 127607798.63800     -3094.28400                
E04        26.55600       139.55400        13.95000                
E05         4.47800        23.53200         0.83000                
E06        26.16900       137.52000       -14.01500                
> 2025 04 22 14 04 14.0000000  0 13
G03  24389614.34300 128168288.43800      1523.47000                
G09  24305734.41200 127727496.42400      -551.48800                
G14  20706408.83500 108812912.85700      -376.86500                
G18  21831123.31400 114723327.33300      2517.06300                
G19  21713622.20800 114105854.85200     -2265.36100                
G22  23556226.86500 123788807.68100      2928.77500                
G23  20791223.88300 109258618.94300     -1267.07200                
G27  21208236.25500 111450033.74700      1774.02100                
G28  24283545.36100 127610892.17400     -3092.79700                
E03        43.71600       229.72800         8.92100                
E04        23.86100       125.39100        14.36300                
E05         5.32400        27.98000        -8.87700                
E06        28.79300       151.30600       -13.54500                
> 2025 04 22 14 04 15.0000000  0 13
G03  24389324.33600 128166764.43800      1524.54700                
G09  24305839.41900 127728048.24200      -552.18600                
G14  20706480.69800 108813290.49900      -378.43000                
G18  21830644.37900 114720810.51100      2516.54500                
G19  21714053.27700 114108120.13900     -2265.19400                
G22  23555669.70300 123785879.77400      2927.01300                
G23  20791464.97000 109259885.85900     -1266.75700                
G27  21207898.75600 111448260.17800      1773.13600                
G28  24284133.75700 127613984.21500     -3091.29600                
E03        41.94200       220.40600         9.71800                
E04        21.09500       110.85400        14.69700                
E05         7.48000        39.30600       -13.04500                
E06        31.32000       164.59000       -13.01400                
> 2025 04 22 14 04 16.0000000  0 13
G03  24389034.11300 128165239.30700      1525.72700                
G09  24305944.58100 127728600.86900      -553.10500                
G14  20706552.86500 108813669.73700      -380.05400                
G18  21830165.55700 114718294.28500      2515.87400                
G19  21714484.30100 114110385.18300     -2264.87700                
G22  23555112.88400 123782953.67000      2925.17300                
G23  20791705.99400 109261152.44900     -1266.42300                
G27  21207561.41200 111446487.42400      1772.39100                
G28  24284721.86700 127617074.75700     -3089.80500                
E03        40.02000       210.30400        10.47900                
E04        18.27400        96.03000        14.93300                
E05        10.12100        53.18800       -14.47100                
E06        33.74200       177.31600       -12.42800                
> 2025 04 22 14 04 17.0000000  0 13
G03  24388743.65800 128163712.95500      1526.98600                
G09  24306049.93800 127729154.52400      -554.24200                
G14  20706625.34500 108814050.62200      -381.72300                
G18  21829686.87700 114715778.80500      2515.05400                
G19  21714915.25100 114112649.83900     -2264.42000                
G22  23554556.42100 123780029.43600      2923.27600                
G23  20791946.95300 109262418.69800     -1266.07800                
G27  21207224.19700 111444715.34600      1771.78600                
G28  24285309.69800 127620163.82600     -3088.35300                
E03        37.95600       199.46200        11.19900                
E04        15.42000        81.03300        15.03400                
E05        12.92900        67.94400       -14.94800                
E06        36.04700       189.43000       -11.79200                
> 2025 04 22 14 04 18.0000000  0 13
G03  24388452.95700 128162185.31500      1528.29800                
G09  24306155.53200 127729709.42300      -555.59000                
G14  20706698.14600 108814433.19200      -383.42200                
G18  21829208.36600 114713264.21500      2514.09600                
G19  21715346.10100 114114913.97300     -2263.83400                
G22  23554000.32200 123777107.11800      2921.34800                
G23  20792187.84700 109263684.60300     -1265.73400                
G27  21206887.08300 111442943.80100      1771.32300                
G28  24285897.25700 127623251.47200     -3086.96300                
E03        35.76000       187.92000        11.87600                
E04        12.56600        66.03400        14.91500                
E05        15.78600        82.95500       -15.03100                
E06        38.22700       200.88500       -11.11000                
> 2025 04 22 14 04 19.0000000  0 13
G03  24388162.00400 128160656.34700      1529.63700                
G09  24306261.40100 127730265.77000      -557.13800                
G14  20706771.27200 108814817.47200      -385.13900                
G18  21828730.05000 114710750.64800      2513.01000                
G19  21715776.82900 114117177.46200     -2263.13300                
G22  23553444.59100 123774186.73100      2919.41400                
G23  20792428.67600 109264950.16700     -1265.40000                
G27  21206550.04400 111441172.64900      1771.00000                
G28  24286484.56000 127626337.76900     -3085.66100                
E03        33.43900       175.72500        12.50600                
E04         9.77000        51.34400        14.36100                
E05        18.63700        97.93900       -14.91000                
E06        40.27300       211.63500       -10.38400                
> 2025 04 22 14 04 20.0000000  0 13
G03  24387870.79600 128159126.03700      1530.97700                
G09  24306367.58300 127730823.76000      -558.87200                
G14  20706844.72500 108815203.47200      -386.85900                
G18  21828251.95200 114708238.22600      2511.80700                
G19  21716207.41300 114119440.19900     -2262.33100                
G22  23552889.22600 123771268.27100      2917.49900                
G23  20792669.44300 109266215.40700     -1265.08600                
G27  21206213.05400 111439401.75200      1770.81300                
G28  24287071.62500 127629422.81700     -3084.46900                
E03        31.00400       162.92500        13.08500                
E04         7.16600        37.65800        12.72700                
E05        21.45200       112.73200       -14.65900                
E06        42.17700       221.63900        -9.61800                
> 2025 04 22 14 04 21.0000000  0 13
G03  24387579.33500 128157594.40000      1532.28900                
G09  24306474.11200 127731383.57200      -560.77900                
G14  20706918.50500 108815591.18700      -388.56700                
G18  21827774.09300 114705727.06000      2510.50200                
G19  21716637.83700 114121702.09100     -2261.44600                
G22  23552334.22300 123768351.70700      2915.62700                
G23  20792910.15300 109267480.34700     -1264.80200                
G27  21205876.08600 111437630.97600      1770.75500                
G28  24287658.47600 127632506.74000     -3083.41100                
E03        28.46300       149.57400        13.60800                
E04         5.11900        26.90300         7.96400                
E05        24.21000       127.22600       -14.31400                
E06        43.93100       230.86000        -8.81700                
> 2025 04 22 14 04 22.0000000  0 13
G03  24387287.62900 128156061.47400      1533.54900                
G09  24306581.01800 127731945.36800      -562.83800                
G14  20706992.60700 108815980.59800      -390.25000                
G18  21827296.49100 114703217.24300      2509.11100                
G19  21717068.08500 114123963.06200     -2260.49400                
G22  23551779.56900 123765436.98400      2913.82300                
G23  20793150.81200 109268745.02300     -1264.55800                
G27  21205539.11800 111435860.19700      1770.81900                
G28  24288245.14000 127635589.67800     -3082.50400                
E03        25.82800       135.72900        14.07000                
E04         4.51600        23.73200        -2.27000                
E05        26.89500       141.33500       -13.89300                
E06        45.53000       239.26100        -7.98200                
> 2025 04 22 14 04 23.0000000  0 13
G03  24386995.69100 128154527.32600      1534.72900                
G09  24306688.32900 127732509.29200      -565.03000                
G14  20707067.02600 108816371.67300      -391.89200                
G18  21826819.16000 114700708.85300      2507.65000                
G19  21717498.14800 114126223.05700     -2259.49500                
G22  23551225.25100 123762524.02200      2912.10900                
G23  20793391.43000 109270009.47800     -1264.36200                
G27  21205202.12700 111434089.29600      1770.99700                
G28  24288831.64600 127638671.79200     -3081.76800                
E02        43.24600       227.25800         9.14300                
E03        23.11200       121.45600        14.46300                
E04         5.83000        30.63800       -10.48300                
E05        29.49400       154.99000       -13.40500                
> 2025 04 22 14 04 24.0000000  0 13
G03  24386703.53700 128152992.04700      1535.80700                
G09  24306796.06800 127733075.46500      -567.33200                
G14  20707141.75300 108816764.36400      -393.48200                
G18  21826342.11300 114698201.95200      2506.13700                
G19  21717928.01700 114128482.03600     -2258.46700                
G22  23550671.24800 123759612.71900      2910.50700                
G23  20793632.01600 109271273.76400     -1264.22200                
G27  21204865.09200 111432318.16600      1771.27600                
G28  24289418.03100 127641753.26300     -3081.21700                
E02        41.43000       217.71800         9.93000                
E03        20.32900       106.83000        14.77300                
E04         8.17300        42.95200       -13.59400                
E05        31.99300       168.12600       -12.85900                
> 2025 04 22 14 04 25.0000000  0 13
G03  24386411.18900 128151455.75100      1536.75800                
G09  24306904.25400 127733643.98500      -569.72100                
G14  20707216.77600 108817158.61400      -395.00600                
G18  21825865.35700 114695696.58300      2504.59000                
G19  21718357.69000 114130739.98000     -2257.43000                
G22  23550117.53800 123756702.95200      2909.03800                
G23  20793872.58100 109272537.94200     -1264.14600                
G27  21204527.99600 111430546.71100      1771.64300                
G28  24290004.32900 127644834.28100     -3080.86400                
E02        39.46900       207.41000        10.68000                
E03        17.49700        91.94500        14.97700                
E04        10.87900        57.17200       -14.66100                
E05        34.38400       180.69000       -12.25900                
> 2025 04 22 14 04 26.0000000  0 13
G03  24386118.67500 128149918.57600      1537.56200                
G09  24307012.90000 127734214.92700      -572.17100                
G14  20707292.08200 108817554.35000      -396.45200                
G18  21825388.89700 114693192.76900      2503.02800                
G19  21718787.16600 114132996.89200     -2256.40400                
G22  23549564.09400 123753794.58200      2907.72000                
G23  20794113.13800 109273802.07700     -1264.13900                
G27  21204190.82200 111428774.85000      1772.08700                
G28  24290590.58000 127647915.04900     -3080.71800                
E02        37.36800       196.37200        11.38900                
E03        14.63900        76.92700        15.02900                
E04        13.70800        72.03900       -14.99800                
E05        36.65600       192.62800       -11.61000                
> 2025 04 22 14 04 27.0000000  0 13
G03  24385826.02300 128148380.67900      1538.20000                
G09  24307122.01700 127734788.33800      -574.65500                
G14  20707367.65500 108817951.48900      -397.81100                
G18  21824912.73400 114690690.51800      2501.47100                
G19  21719216.45000 114135252.79200     -2255.40900                
G22  23549010.88400 123750887.44700      2906.56900                
G23  20794353.70100 109275066.24300     -1264.20700                
G27  21203853.55700 111427002.51400      1772.59000                
G28  24291176.82300 127650995.77700     -3080.78600                
E02        35.13700       184.64600        12.05400                
E03        11.79300        61.97300        14.82200                
E04        16.56800        87.06300       -15.01300                
E05        38.80000       203.89500       -10.91500                
> 2025 04 22 14 04 28.0000000  0 13
G03  24385533.26600 128146842.23400      1538.65400                
G09  24307231.60700 127735364.24000      -577.14800                
G14  20707443.47800 108818349.93900      -399.07300                
G18  21824436.86600 114688189.81300      2499.93700                
G19  21719645.54800 114137507.71900     -2254.46300                
G22  23548457.87700 123747981.37300      2905.59800                
G23  20794594.28400 109276330.51600     -1264.35500                
G27  21203516.19300 111425229.65000      1773.13900                
G28  24291763.09900 127654076.68200     -3081.07200                
E02        32.78400       172.28000        12.67000                
E03         9.03100        47.45900        14.07100                
E04        19.41100       102.00700       -14.85200                
E05        40.80700       214.44500       -10.17800                
> 2025 04 22 14 04 29.0000000  0 13
G03  24385240.44200 128145303.43300      1538.91200                
G09  24307341.67100 127735942.62800      -579.62300                
G14  20707519.53100 108818749.60000      -400.23000                
G18  21823961.28600 114685690.62200      2498.44500                
G19  21720074.47300 114139761.73400     -2253.58600                
G22  23547905.03600 123745076.17500      2904.81900                
G23  20794834.90300 109277594.97800     -1264.58500                
G27  21203178.72100 111423456.22300      1773.71500                
G28  24292349.45100 127657157.98200     -3081.57600                
E02        30.31800       159.32400        13.23400                
E03         6.52500        34.29100        11.88000                
E04        22.21300       116.72800       -14.57300                
E05        42.67100       224.23800        -9.40300                
> 2025 04 22 14 04 30.0000000  0 13
G03  24384947.58900 128143764.47700      1538.96100                
G09  24307452.20200 127736523.47100      -582.05300                
G14  20707595.79300 108819150.36300      -401.27700                
G18  21823485.98400 114683192.89500      2497.01300                
G19  21720503.23900 114142014.91400     -2252.79500                
G22  23547352.32500 123742171.65700      2904.24100                
G23  20795075.57400 109278859.71300     -1264.90000                
G27  21202841.13800 111421682.21200      1774.30300                
G28  24292935.92000 127660239.89500     -3082.29600                
E02        27.75100       145.83100        13.74100                
E03         4.76400        25.03400         5.63800                
E04        24.95200       131.12400       -14.20600                
E05        44.38400       233.23800        -8.59100                
> 2025 04 22 14 04 31.0000000  0 13
G03  24384654.74600 128142225.58000      1538.79400                
G09  24307563.18900 127737106.71000      -584.41300                
G14  20707672.24400 108819552.11400      -402.20700                
G18  21823010.94800 114680696.56100      2495.66000                
G19  21720931.86300 114144267.35200     -2252.10600                
G22  23546799.70400 123739267.61500      2903.86800                
G23  20795316.31300 109280124.80400     -1265.29900                
G27  21202503.44300 111419907.61600      1774.88500                
G28  24293522.54500 127663322.63200     -3083.22500                
E01        44.46900       233.68400         8.54900                
E02        25.09300       131.86200        14.18500                
E03         4.71000        24.75200        -5.13600                
E04        27.61500       145.11600       -13.76600                
> 2025 04 22 14 04 32.0000000  0 13
G03  24384361.95700 128140686.96100      1538.40500                
G09  24307674.61600 127737692.26400      -586.67700                
G14  20707748.86100 108819954.73700      -403.01900                
G18  21822536.16000 114678201.53600      2494.39900                
G19  21721360.36800 114146519.15800     -2251.53400                
G22  23546247.13400 123736363.84100      2903.70300                
G23  20795557.13600 109281390.33800     -1265.78400                
G27  21202165.64000 111418132.44700      1775.44400                
G28  24294109.36700 127666406.40000     -3084.35500                
E01        42.76400       224.72600         9.36200                
E02        22.35700       117.48500        14.55700                
E03         6.40800        33.67400       -11.68700                
E04        30.18700       158.63400       -13.26100                
> 2025 04 22 14 04 33.0000000  0 13
G03  24384069.26200 128139148.84200      1537.79200                
G09  24307786.46300 127738280.02400      -588.82200                
G14  20707825.62000 108820358.11200      -403.71000                
G18  21822061.60300 114675707.71900      2493.24700                
G19  21721788.77500 114148770.45600     -2251.09200                
G22  23545694.57600 123733460.12800      2903.74600                
G23  20795798.05900 109282656.39700     -1266.35100                
G27  21201827.73300 111416356.73600      1775.96500                
G28  24294696.42100 127669491.39200     -3085.67400                
E01        40.90800       214.97300        10.13900                
E02        19.55800       102.77800        14.84100                
E03         8.89100        46.72400       -14.00400                
E04        32.65800       171.61900       -12.70000                
> 2025 04 22 14 04 34.0000000  0 13
G03  24383776.70600 128137611.44700      1536.95800                
G09  24307898.70500 127738869.86100      -590.82700                
G14  20707902.50000 108820762.11800      -404.28200                
G18  21821587.25300 114673214.99300      2492.21700                
G19  21722217.11200 114151021.38200     -2250.79100                
G22  23545141.99000 123730556.26900      2903.99400                
G23  20796039.09800 109283923.06400     -1266.99800                
G27  21201489.73200 111414580.53100      1776.43100                
G28  24295283.74400 127672577.79400     -3087.16800                
E01        38.90800       204.46100        10.87800                
E02        16.71600        87.84100        15.00900                
E03        11.64500        61.19600       -14.80000                
E04        35.01700       184.01700       -12.08600                
> 2025 04 22 14 04 35.0000000  0 13
G03  24383484.32900 128136074.99600      1535.90600                
G09  24308011.31400 127739461.62300      -592.67100                
G14  20707979.47800 108821166.63800      -404.73700                
G18  21821113.08600 114670723.23300      2491.32000                
G19  21722645.40700 114153272.08300     -2250.64200                
G22  23544589.33800 123727652.06300      2904.43900                
G23  20796280.26700 109285190.41700     -1267.72100                
G27  21201151.65000 111412803.89400      1776.82600                
G28  24295871.36600 127675665.76900     -3088.81900                
E01        36.77100       193.23100        11.57500                
E02        13.85600        72.81600        15.00500                
E03        14.48900        76.13900       -15.02500                
E04        37.25500       195.77600       -11.42400                
> 2025 04 22 14 04 36.0000000  0 13
G03  24383192.17200 128134539.70200      1534.64400                
G09  24308124.25700 127740055.14300      -594.33800                
G14  20708056.53100 108821571.55400      -405.07800                
G18  21820639.07700 114668232.29800      2490.56600                
G19  21723073.68700 114155522.71200     -2250.65000                
G22  23544036.58300 123724747.31700      2905.07300                
G23  20796521.58000 109286458.52800     -1268.51500                
G27  21200813.50000 111411026.90300      1777.13700                
G28  24296459.31600 127678755.46700     -3090.60900                
E01        34.50500       181.32600        12.22700                
E02        11.02400        57.93200        14.69100                
E03        17.34700        91.16000       -14.98400                
E04        39.36200       206.85000       -10.71800                
> 2025 04 22 14 04 37.0000000  0 13
G03  24382900.27500 128133005.77100      1533.18300                
G09  24308237.49900 127740650.23500      -595.81300                
G14  20708133.63800 108821976.75700      -405.31000                
G18  21820165.19700 114665742.04300      2489.96100                
G19  21723501.98500 114157773.43000     -2250.82100                
G22  23543483.69100 123721841.84800      2905.88400                
G23  20796763.05100 109287727.46600     -1269.37300                
G27  21200475.29900 111409249.64900      1777.35000                
G28  24297047.61800 127681847.01500     -3092.51700                
E01        32.12000       168.79300        12.82900                
E02         8.30800        43.65800        13.68200                
E03        20.18200       106.05500       -14.78600                
E04        41.33100       217.19700        -9.97000                
> 2025 04 22 14 04 38.0000000  0 13
G03  24382608.67300 128131473.39500      1531.53700                
G09  24308351.00200 127741246.70000      -597.08300                
G14  20708210.78000 108822382.14100      -405.44200                
G18  21819691.41800 114663252.31600      2489.51300                
G19  21723930.33000 114160024.40200     -2251.15700                
G22  23542930.62800 123718935.48500      2906.85700                
G23  20797004.69100 109288997.29200     -1270.28900                
G27  21200137.06900 111407472.23500      1777.45500                
G28  24297636.29300 127684940.52000     -3094.51900                
E01        29.62600       155.68500        13.37900                
E02         5.93500        31.18700        10.74000                
E03        22.96800       120.69600       -14.48100                
E04        43.15400       226.77700        -9.18400                
> 2025 04 22 14 04 39.0000000  0 14
G03  24382317.40200 128129942.75100      1529.72100                
G09  24308464.72700 127741844.32900      -598.13900                
G14  20708287.93800 108822787.60900      -405.48100                
G18  21819217.70900 114660762.95700      2489.22200                
G19  21724358.75500 114162275.79200     -2251.65800                
G22  23542377.36600 123716028.07400      2907.97600                
G23  20797246.51000 109290268.05900     -1271.25500                
G27  21199798.82900 111405694.77500      1777.44000                
G28  24298225.35500 127688036.06400     -3096.59100                
E01        27.03200       142.05600        13.86900                
E02         4.54100        23.86200         2.84100                
E03        25.68800       134.98900       -14.09300                
E04        44.82400       235.55400        -8.36400                
E06        45.60800       239.67200         7.93800                
> 2025 04 22 14 04 40.0000000  0 13
G03  24382026.49000 128128414.00100      1527.75400                
G09  24308578.63300 127742442.90500      -598.97600                
G14  20708365.09600 108823193.07400      -405.43700                
G18  21818744.04000 114658273.81000      2489.09100                
G19  21724787.29200 114164527.76500     -2252.32200                
G22  23541823.87900 123713119.48100      2909.22100                
G23  20797488.51700 109291539.81300     -1272.26100                
G27  21199460.60500 111403917.39300      1777.29900                
G28  24298814.81600 127691133.70400     -3098.70800                
E01        24.35200       127.96800        14.29400                
E02         5.04200        26.49800        -7.56100                
E03        28.32700       148.85800       -13.63400                
E06        44.01800       231.31400         8.77400                
> 2025 04 22 14 04 41.0000000  0 13
G03  24381735.96500 128126887.28400      1525.65700                
G09  24308692.67600 127743042.20800      -599.59100                
G14  20708442.23800 108823598.45800      -405.32100                
G18  21818270.38100 114655784.71400      2489.11800                
G19  21725215.97000 114166780.48300     -2253.14500                
G22  23541270.14500 123710209.58700      2910.57200                
G23  20797730.71800 109292812.58900     -1273.29900                
G27  21199122.42000 111402140.21800      1777.02400                
G28  24299404.68300 127694233.47400     -3100.84400                
E01        21.59700       113.49200        14.64400                
E02         7.04100        36.99800       -12.58400                
E03        30.87300       162.23700       -13.11400                
E06        42.27100       222.13500         9.57800                
> 2025 04 22 14 04 42.0000000  0 13
G03  24381445.85000 128125362.71900      1523.45400                
G09  24308806.81500 127743642.01300      -599.98400                
G14  20708519.35200 108824003.69600      -405.14600                
G18  21817796.70200 114653295.51400      2489.30000                
G19  21725644.81900 114169034.09900     -2254.11900                
G22  23540716.14500 123707298.29900      2912.00600                
G23  20797973.11900 109294086.41500     -1274.35800                
G27  21198784.30000 111400363.38800      1776.61000                
G28  24299994.95500 127697335.37700     -3102.97200                
E01        18.78400        98.71200        14.90000                
E02         9.62800        50.59700       -14.31200                
E03        33.31400       175.06700       -12.53800                
E06        40.37500       212.17100        10.34500                
> 2025 04 22 14 04 43.0000000  0 13
G03  24381156.16300 128123840.40100      1521.16700                
G09  24308921.00800 127744242.10100      -600.15800                
G14  20708596.42800 108824408.73400      -404.92400                
G18  21817322.97400 114650806.05800      2489.62900                
G19  21726073.86700 114171288.76200     -2255.23600                
G22  23540161.86600 123704385.54300      2913.50200                
G23  20798215.72300 109295361.30800     -1275.43000                
G27  21198446.27300 111398587.04100      1776.05600                
G28  24300585.63000 127700439.39400     -3105.06700                
E01        15.93400        83.73500        15.02900                
E02        12.41800        65.25800       -14.90000                
E03        35.64100       187.29500       -11.91000                
E06        38.33600       201.45800        11.07300                
> 2025 04 22 14 04 44.0000000  0 13
G03  24380866.91600 128122320.40000      1518.82400                
G09  24309035.21400 127744842.25700      -600.12000                
G14  20708673.45900 108824813.53200      -404.66900                
G18  21816849.17000 114648316.20100      2490.09900                
G19  21726503.14000 114173544.60800     -2256.48400                
G22  23539607.29900 123701471.27300      2915.03300                
G23  20798458.53100 109296637.27300     -1276.50300                
G27  21198108.36400 111396811.31800      1775.36100                
G28  24301176.69900 127703545.48000     -3107.10400                
E01        13.07700        68.72000        14.95900                
E02        15.27100        80.25000       -15.03400                
E03        37.84400       198.87100       -11.23600                
E06        36.16300       190.03900        11.75800                
> 2025 04 22 14 04 45.0000000  0 13
G03  24380578.11900 128120802.76100      1516.44900                
G09  24309149.39300 127745442.27300      -599.88000                
G14  20708750.43900 108825218.06400      -404.39500                
G18  21816375.26400 114645825.80900      2490.69800                
G19  21726932.66200 114175801.76300     -2257.85100                
G22  23539052.43900 123698555.46400      2916.57500                
G23  20798701.54300 109297914.30900     -1277.56700                
G27  21197770.60100 111395036.36100      1774.52700                
G28  24301768.14700 127706653.56200     -3109.05600                
E01        10.26400        53.93900        14.51200                
E02        18.12600        95.25200       -14.94200                
E03        39.91400       209.75100       -10.51800                
E06        33.86400       177.95800        12.39600                
> 2025 04 22 14 04 46.0000000  0 13
G03  24380289.77500 128119287.50200      1514.06900                
G09  24309263.50900 127746041.95300      -599.45000                
G14  20708827.36600 108825622.31900      -404.11600                
G18  21815901.23300 114643334.75800      2491.41600                
G19  21727362.45500 114178060.33800     -2259.32100                
G22  23538497.28700 123695638.11700      2918.10300                
G23  20798944.75600 109299192.40000     -1278.61300                
G27  21197433.00900 111393262.30700      1773.55600                
G28  24302359.95700 127709763.54400     -3110.90200                
E01         7.60900        39.98500        13.16200                
E02        20.94900       110.08900       -14.71200                
E03        41.84400       219.89300        -9.75900                
E06        31.44800       165.26300        12.98500                
> 2025 04 22 14 04 47.0000000  0 13
G03  24380001.88200 128117774.61200      1511.71200                
G09  24309377.52600 127746641.11500      -598.84700                
G14  20708904.24100 108826026.30000      -403.84700                
G18  21815427.05500 114640842.93500      2492.23800                
G19  21727792.53600 114180320.42800     -2260.87900                
G22  23537941.84600 123692719.26000      2919.59300                
G23  20799188.16500 109300471.52400     -1279.63000                
G27  21197095.61500 111391489.28900      1772.45500                
G28  24302952.10600 127712875.31000     -3112.61700                
E01         5.41400        28.44900         9.21900                
E02        23.71900       124.64300       -14.38300                
E03        43.62600       229.25700        -8.96400                
E06        28.92600       152.00600        13.51900                
> 2025 04 22 14 04 48.0000000  0 13
G03  24379714.43300 128116264.05800      1509.40400                
G09  24309491.41200 127747239.59500      -598.08700                
G14  20708981.06600 108826430.02200      -403.60300                
G18  21814952.71200 114638350.24500      2493.14900                
G19  21728222.92000 114182582.11300     -2262.50700                
G22  23537386.12800 123689798.94200      2921.02000                
G23  20799431.76400 109301751.64600     -1280.60900                
G27  21196758.44300 111389717.43400      1771.23000                
G28  24303544.56800 127715988.71700     -3114.18400                
E01         4.47200        23.50100        -0.23600                
E02        26.41800       138.82700       -13.97400                
E05        45.18900       237.47000         8.16900                
E06        26.30700       138.24600        13.99200                
> 2025 04 22 14 04 49.0000000  0 13
G03  24379427.41600 128114755.77600      1507.17100                
G09  24309605.14100 127747837.24400      -597.19200                
G14  20709057.84900 108826833.51800      -403.39600                
G18  21814478.18800 114635856.60600      2494.13300                
G19  21728653.61900 114184845.45400     -2264.18700                
G22  23536830.14600 123686877.23700      2922.36100                
G23  20799675.54500 109303032.72500     -1281.54100                
G27  21196421.51400 111387946.86200      1769.89200                
G28  24304137.31200 127719103.60800     -3115.58200                
E01         5.48700        28.83400        -9.47700                
E02        29.03300       152.56800       -13.49800                
E05        43.55500       228.88500         8.99700                
E06        23.60500       124.04500        14.39800                
> 2025 04 22 14 04 50.0000000  0 13
G03  24379140.81600 128113249.68100      1505.03600                
G09  24309718.68900 127748433.93900      -596.18200                
G14  20709134.59700 108827236.83200      -403.24200                
G18  21814003.47100 114633361.95300      2495.17200                
G19  21729084.64200 114187110.49200     -2265.90000                
G22  23536273.92000 123683954.24500      2923.59400                
G23  20799919.49900 109304314.70800     -1282.41800                
G27  21196084.85000 111386177.68000      1768.45100                
G28  24304730.30500 127722219.80800     -3116.79800                
E01         7.71300        40.53000       -13.25100                
E02        31.55100       165.80300       -12.96200                
E05        41.76700       219.48800         9.79100                
E06        20.83300       109.47700        14.72400                
> 2025 04 22 14 04 51.0000000  0 13
G03  24378854.61000 128111745.66000      1503.02500                
G09  24309832.03500 127749029.57800      -595.08200                
G14  20709211.32200 108827640.02200      -403.15100                
G18  21813528.55300 114630866.24100      2496.24800                
G19  21729515.99200 114189377.25100     -2267.62500                
G22  23535717.47000 123681030.08200      2924.69800                
G23  20800163.61300 109305597.53800     -1283.23200                
G27  21195748.46900 111384409.98600      1766.91900                
G28  24305323.51100 127725337.12700     -3117.81700                
E01        10.37800        54.53900       -14.54300                
E02        33.96200       178.47300       -12.37100                
E05        39.83100       209.31500        10.54800                
E06        18.00800        94.63100        14.94900                
> 2025 04 22 14 04 52.0000000  0 13
G03  24378568.77400 128110243.58100      1501.15700                
G09  24309945.16500 127749624.08200      -593.91800                
G14  20709288.03600 108828043.15900      -403.13600                
G18  21813053.42800 114628369.44300      2497.34300                
G19  21729947.66900 114191645.73300     -2269.34300                
G22  23535160.82400 123678104.88700      2925.65500                
G23  20800407.87600 109306881.14700     -1283.97700                
G27  21195412.38700 111382643.86400      1765.31000                
G28  24305916.89200 127728455.36200     -3118.63000                
E01        13.19400        69.33700       -14.96800                
E02        36.25600       190.52800       -11.73100                
E05        37.75500       198.40600        11.26400                
E06        15.15200        79.62500        15.03400                
> 2025 04 22 14 04 53.0000000  0 13
G03  24378283.27800 128108743.28900      1499.45300                
G09  24310058.07000 127750217.40000      -592.71400                
G14  20709364.75600 108828446.32300      -403.20800                
G18  21812578.09500 114625871.54900      2498.43600                
G19  21730379.67200 114193915.92100     -2271.03400                
G22  23534604.01100 123675178.81600      2926.44800                
G23  20800652.27300 109308165.46400     -1284.64700                
G27  21195076.61800 111380879.38400      1763.63800                
G28  24306510.40700 127731574.30400     -3119.23000                
E01        16.05200        84.35500       -15.02700                
E02        38.42400       201.91900       -11.04400                
E05        35.54700       186.80100        11.93700                
E06        12.30000        64.63900        14.88700                
> 2025 04 22 14 04 54.0000000  0 13
G03  24377998.08900 128107244.61200      1497.92900                
G09  24310170.74400 127750809.50500      -591.49700                
G14  20709441.49800 108828849.60700      -403.37600                
G18  21812102.55500 114623372.56900      2499.51000                
G19  21730811.99200 114196187.77900     -2272.67900                
G22  23534047.06400 123672252.04000      2927.06300                
G23  20800896.79000 109309450.41200     -1285.23700                
G27  21194741.17100 111379116.60100      1761.91900                
G28  24307104.01500 127734693.73700     -3119.61200                
E01        18.90100        99.32600       -14.89100                
E02        40.45700       212.60100       -10.31400                
E05        33.21500       174.54700        12.56200                
E06         9.51500        50.00300        14.27100                
> 2025 04 22 14 04 55.0000000  0 13
G03  24377713.17200 128105747.36300      1496.60000                
G09  24310283.18700 127751400.39800      -590.29500                
G14  20709518.28200 108829253.10900      -403.64800                
G18  21811626.81400 114620872.53400      2500.54500                
G19  21731244.62000 114198461.25200     -2274.25900                
G22  23533490.01800 123669324.74200      2927.48900                
G23  20801141.41200 109310735.90900     -1285.74500                
G27  21194406.05500 111377355.55300      1760.16900                
G28  24307697.67500 127737813.44300     -3119.77500                
E01        21.71200       114.09600       -14.63100                
E02        42.34700       222.53400        -9.54500                
E05        30.76900       161.69400        13.13600                
E06         6.94100        36.47800        12.46500                
> 2025 04 22 14 04 56.0000000  0 13
G03  24377428.48900 128104251.34100      1495.47800                
G09  24310395.40500 127751990.10800      -589.13300                
G14  20709595.12800 108829656.93900      -404.03000                
G18  21811150.88100 114618371.49100      2501.52300                
G19  21731677.54000 114200736.26400     -2275.75700                
G22  23532932.90900 123666397.11800      2927.71600                
G23  20801386.12300 109312021.87100     -1286.16700                
G27  21194071.27300 111375596.26300      1758.40600                
G28  24308291.34600 127740933.20300     -3119.72200                
E01        24.46400       128.55700       -14.27800                
E02        44.08700       231.68000        -8.74000                
E05        28.21900       148.29400        13.65400                
E06         4.98400        26.19000         7.22600                
> 2025 04 22 14 04 57.0000000  0 13
G03  24377143.99800 128102756.33400      1494.57000                
G09  24310507.40800 127752578.68600      -588.03800                
G14  20709672.05800 108830061.20800      -404.52800                
G18  21810674.76900 114615869.50500      2502.42700                
G19  21732110.73600 114203012.72600     -2277.15500                
G22  23532375.77700 123663469.36800      2927.73800                
G23  20801630.90600 109313308.21300     -1286.50400                
G27  21193736.82700 111373838.73700      1756.64500                
G28  24308884.98600 127744052.80400     -3119.45800                
E01        27.14100       142.62700       -13.85000                
E04        44.75800       235.20700         8.39800                
E05        25.57700       134.40700        14.11000                
E06         4.56500        23.98800        -3.29000                
> 2025 04 22 14 04 58.0000000  0 13
G03  24376859.66000 128101262.12400      1493.88400                
G09  24310619.21000 127753166.21300      -587.03400                
G14  20709749.09400 108830466.03400      -405.14400                
G18  21810198.49300 114613366.65900      2503.24100                
G19  21732544.18800 114205290.52900     -2278.43800                
G22  23531818.66000 123660541.70000      2927.55200                
G23  20801875.74400 109314594.84900     -1286.75500                
G27  21193402.71400 111372082.96200      1754.90500                
G28  24309478.55700 127747172.03900     -3118.99100                
E01        29.73100       156.23600       -13.35700                
E04        43.08200       226.39600         9.21700                
E05        22.85400       120.09800        14.49500                
E06         6.02000        31.63600       -10.93600                
> 2025 04 22 14 04 59.0000000  0 13
G03  24376575.43000 128099768.48900      1493.42100                
G09  24310730.83300 127753752.79300      -586.14600                
G14  20709826.25900 108830871.53700      -405.88100                
G18  21809722.07300 114610863.05100      2503.94900                
G19  21732977.87200 114207569.55300     -2279.59400                
G22  23531261.59900 123657614.32300      2927.15900                
G23  20802120.62300 109315881.69400     -1286.92300                
G27  21193068.92900 111370328.91200      1753.20000                
G28  24310072.02000 127750290.70900     -3118.33200                
E01        32.22100       169.32200       -12.80600                
E04        41.25300       216.78300        10.00200                
E05        20.06500       105.44400        14.79600                
E06         8.41600        44.22600       -13.74800                
> 2025 04 22 14 05  0.0000000  0 13
G03  24376291.26800 128098275.20500      1493.18000                
G09  24310842.29900 127754338.55100      -585.39500                
G14  20709903.57500 108831277.83600      -406.73800                
G18  21809245.52800 114608358.79400      2504.53800                
G19  21733411.76200 114209849.66300     -2280.61000                
G22  23530704.63200 123654687.44100      2926.56100                
G23  20802365.52500 109317168.66500     -1287.00800                
G27  21192735.46400 111368576.54000      1751.54800                
G28  24310665.34100 127753408.63100     -3117.49500                
E01        34.60100       181.83000       -12.20100                
E04        39.27800       206.40500        10.74800                
E05        17.22900        90.54100        14.98900                
E06        11.14000        58.54100       -14.71400                
> 2025 04 22 14 05  1.0000000  0 13
G03  24376007.13100 128096782.05400      1493.15700                
G09  24310953.63600 127754923.63400      -584.80100                
G14  20709981.06500 108831685.05100      -407.71200                
G18  21808768.88400 114605854.01200      2504.99600                
G19  21733845.83200 114212130.71600     -2281.47600                
G22  23530147.79800 123651761.25700      2925.76300                
G23  20802610.43700 109318455.68300     -1287.01700                
G27  21192402.30700 111366825.78900      1749.96400                
G28  24311258.48700 127756525.63400     -3116.49800                
E01        36.86100       193.70800       -11.54700                
E04        37.16500       195.30200        11.45300                
E05        14.37100        75.51900        15.02200                
E06        13.97500        73.43800       -15.01000                
> 2025 04 22 14 05  2.0000000  0 13
G03  24375722.97700 128095288.81900      1493.34500                
G09  24311064.87800 127755508.21100      -584.38200                
G14  20710058.75200 108832093.29800      -408.80100                
G18  21808292.16600 114603348.84100      2505.31300                
G19  21734280.05200 114214412.55600     -2282.18500                
G22  23529591.13300 123648835.96700      2924.77500                
G23  20802855.34200 109319742.67200     -1286.95200                
G27  21192069.44400 111365076.58200      1748.46100                
G28  24311851.42900 127759641.56700     -3115.35800                
E01        38.99300       204.90900       -10.84800                
E04        34.92200       183.51500        12.11300                
E05        11.52900        60.58600        14.78100                
E06        16.83400        88.46300       -15.00500                
> 2025 04 22 14 05  3.0000000  0 13
G03  24375438.76900 128093795.29400      1493.73400                
G09  24311176.05700 127756092.46200      -584.15400                
G14  20710136.65700 108832502.69000      -409.99900                
G18  21807815.40100 114600843.42700      2505.48200                
G19  21734714.39100 114216695.02500     -2282.73100                
G22  23529034.67500 123645911.75600      2923.60800                
G23  20803100.23000 109321029.56300     -1286.82200                
G27  21191736.85800 111363328.83000      1747.05400                
G28  24312444.14300 127762756.29700     -3114.09700                
E01        40.98700       215.39100       -10.10800                
E04        32.55800       171.09200        12.72400                
E05         8.78100        46.14700        13.95000                
E06        19.67500       103.39200       -14.83100                
> 2025 04 22 14 05  4.0000000  0 13
G03  24375154.46900 128092301.28500      1494.31100                
G09  24311287.21200 127756676.58500      -584.12800                
G14  20710214.79900 108832913.33100      -411.30000                
G18  21807338.61900 114598337.92000      2505.49700                
G19  21735148.81900 114218977.95700     -2283.11300                
G22  23528478.45400 123642988.79700      2922.27500                
G23  20803345.08600 109322316.29400     -1286.63200                
G27  21191404.53000 111361582.43400      1745.75400                
G28  24313036.60700 127765869.71600     -3112.73700                
E01        42.83700       225.11200        -9.32900                
E04        30.08200       158.08400        13.28300                
E05         6.31700        33.19500        11.52800                
E06        22.47100       118.08700       -14.54300                
> 2025 04 22 14 05  5.0000000  0 13
G03  24374870.04200 128090806.61200      1495.05900                
G09  24311398.38200 127757260.78700      -584.31400                
G14  20710293.19800 108833325.32000      -412.69400                
G18  21806861.85000 114595832.47800      2505.35400                
G19  21735583.30300 114221261.18800     -2283.32800                
G22  23527922.50100 123640067.24500      2920.79400                
G23  20803589.90200 109323602.80700     -1286.39000                
G27  21191072.43800 111359837.28000      1744.57000                
G28  24313628.80400 127768981.73500     -3111.30300                
E01        44.53600       234.03600        -8.51400                
E04        27.50600       144.54500        13.78500                
E05         4.67100        24.54700         4.72900                
E06        25.20400       132.44900       -14.16800                
> 2025 04 22 14 05  6.0000000  0 12
G03  24374585.45800 128089311.11200      1495.96100                
G09  24311509.60800 127757845.28500      -584.71900                
G14  20710371.87000 108833738.74600      -414.17200                
G18  21806385.12200 114593327.25700      2505.05200                
G19  21736017.81300 114223544.55200     -2283.37900                
G22  23527366.84300 123637147.24200      2919.18200                
G23  20803834.66700 109324889.05700     -1286.10500                
G27  21190740.56000 111358093.24800      1743.51200                
G28  24314220.72300 127772092.29300     -3109.81900                
E04        24.84000       130.53500        14.22300                
E05         4.80900        25.27300        -6.02200                
E06        27.85900       146.39900       -13.72100                
> 2025 04 22 14 05  7.0000000  0 13
G03  24374300.68900 128087814.64200      1496.99600                
G09  24311620.93300 127758430.29900      -585.34600                
G14  20710450.83100 108834153.68800      -415.72400                
G18  21805908.46700 114590822.41900      2504.59200                
G19  21736452.31700 114225827.88700     -2283.27000                
G22  23526811.50200 123634228.90700      2917.46000                
G23  20804079.37500 109326175.00500     -1285.78700                
G27  21190408.87100 111356350.20800      1742.58600                
G28  24314812.35800 127775201.35300     -3108.31200                
E03        42.59800       223.85200         9.43500                
E04        22.09800       116.12400        14.58700                
E05         6.61900        34.78300       -12.02500                
E06        30.42200       159.87100       -13.21200                
> 2025 04 22 14 05  8.0000000  0 13
G03  24374015.71200 128086317.08000      1498.14200                
G09  24311732.39800 127759016.05200      -586.19600                
G14  20710530.09300 108834570.21300      -417.33600                
G18  21805431.91400 114588318.11800      2503.97700                
G19  21736886.78600 114228111.03600     -2283.00800                
G22  23526256.49800 123631312.34000      2915.65100                
G23  20804324.01900 109327460.62100     -1285.44400                
G27  21190077.34400 111354608.02700      1741.79700                
G28  24315403.70600 127778308.90500     -3106.80700                
E03        40.72800       214.02700        10.21000                
E04        19.29400       101.39100        14.86100                
E05         9.14200        48.03900       -14.12000                
E06        32.88300       172.80400       -12.64500                
> 2025 04 22 14 05  9.0000000  0 13
G03  24373730.50900 128084818.32700      1499.37400                
G09  24311844.04500 127759602.76400      -587.26500                
G14  20710609.66700 108834988.37700      -418.99700                
G18  21804955.49300 114585814.50600      2503.21300                
G19  21737321.19100 114230393.84800     -2282.60000                
G22  23525701.84500 123628397.61700      2913.77600                
G23  20804568.59700 109328745.88700     -1285.08800                
G27  21189745.95500 111352866.56400      1741.14800                
G28  24315994.76900 127781414.96400     -3105.33100                
E03        38.71500       203.44600        10.94500                
E04        16.44900        86.44100        15.01700                
E05        11.90900        62.58300       -14.83800                
E06        35.23200       185.14400       -12.02700                
> 2025 04 22 14 05 10.0000000  0 13
G03  24373445.06500 128083318.30900      1500.66700                
G09  24311955.91600 127760190.65200      -588.54600                
G14  20710689.56100 108835408.21900      -420.69300                
G18  21804479.23100 114583311.73100      2502.30800                
G19  21737755.50500 114232676.18500     -2282.05900                
G22  23525147.55200 123625484.79100      2911.86000                
G23  20804813.10700 109330030.79400     -1284.72800                
G27  21189414.67600 111351125.68000      1740.63900                
G28  24316585.55600 127784519.57300     -3103.91000                
E03        36.56500       192.15100        11.63800                
E04        13.59000        71.41700        14.99200                
E05        14.75600        77.54500       -15.03100                
E06        37.45800       196.84100       -11.36000                
