     3.05           OBSERVATION DATA    M                   RINEX VERSION / TYPE
GSPF V1.7.0                             20250903 134327 UTC PGM / RUN BY / DATE
V101                                                        MARKER NAME
NON_GEODETIC                                                MARKER TYPE
                                                            OBSERVER / AGENCY
                                                            REC # / TYPE / VERS
                                                            ANT # / TYPE
  4181981.6015   860757.8909  4723075.8689                  APPROX POSITION XYZ
        0.0000        0.0000        0.0000                  ANTENNA: DELTA H/E/N
G    4 C1C L1C D1C S1C                                      SYS / # / OBS TYPES
E    4 C1B L1B D1B S1B                                      SYS / # / OBS TYPES
  2025     4    22    14     0    1.0000000     GPS         TIME OF FIRST OBS
G L1C  0.00000   0                                          SYS / PHASE SHIFT
E L1B  0.00000   0                                          SYS / PHASE SHIFT
 C1C    0.000 C1P    0.000 C2C    0.000 C2P    0.000        GLONASS COD/PHS/BIS
                                                            END OF HEADER
> 2025 04 22 14 00  1.0000000  0 16
G03  24466485.02800 128572246.61400      1664.83600                
G09  24282343.95000 127604578.71900      -398.31900                
G14  20692432.40000 108739466.19500      -201.01900                
G15  24879102.97700 130740568.56900     -4070.00000                
G18  21953136.23000 115364509.53700      2564.74600                
G19  21607185.91700 113546528.36900     -2168.25000                
G22  23698068.86800 124534192.43900      2964.67500                
G23  20732542.11100 108950244.14500     -1169.60100                
G27  21297659.39900 111919955.53800      1925.16200                
G28  24136664.23700 126839026.65700     -2999.83900                
E01        32.17900       169.10300         0.73800                
E02        26.90800       141.40200         6.14100                
E03        14.78400        77.69100         9.57100                
E04         4.95300        26.02700        -4.79600                
E05        18.33000        96.32400        -9.01500                
E06        29.00800       152.43600        -4.87700                
> 2025 04 22 14 00  2.0000000  0 16
G03  24466168.15100 128570581.41300      1665.54900                
G09  24282419.92300 127604977.96000      -400.17700                
G14  20692470.78500 108739667.90900      -202.40200                
G15  24879877.41000 130744638.24400     -4069.34300                
G18  21952648.28800 115361945.38200      2563.54900                
G19  21607598.46000 113548696.29800     -2167.61100                
G22  23697504.82700 124531228.38200      2963.44600                
G23  20732764.68100 108951413.75900     -1169.63600                
G27  21297293.04700 111918030.34500      1925.23300                
G28  24137235.05300 126842026.31900     -2999.52300                
E01        31.96900       167.99700         1.47300                
E02        25.68300       134.96400         6.72900                
E03        12.94800        68.04100         9.71100                
E04         6.16700        32.40800        -7.63500                
E05        20.01000       105.15400        -8.63600                
E06        29.87300       156.98100        -4.20900                
> 2025 04 22 14 00  3.0000000  0 16
G03  24465851.14700 128568915.54600      1666.16300                
G09  24282496.25700 127605379.09700      -402.11000                
G14  20692509.42900 108739870.98200      -203.73700                
G15  24880651.70400 130748707.18300     -4068.53000                
G18  21952160.57600 115359382.44000      2562.32500                
G19  21608010.88100 113550863.58400     -2166.96800                
G22  23696941.00900 124528265.49900      2962.33000                
G23  20732987.26200 108952583.43200     -1169.72000                
G27  21296926.67400 111916105.04100      1925.38300                
G28  24137805.82500 126845025.74400     -2999.36600                
E01        31.61900       166.15900         2.20100                
E02        24.34900       127.95500         7.28200                
E03        11.09700        58.31700         9.70900                
E04         7.76300        40.79500        -8.96300                
E05        21.61300       113.57800        -8.20400                
E06        30.60800       160.84700        -3.52000                
> 2025 04 22 14 00  4.0000000  0 16
G03  24465534.03700 128567249.12400      1666.65700                
G09  24282572.96400 127605782.19700      -404.09600                
G14  20692548.32100 108740075.36200      -205.01300                
G15  24881425.82800 130752775.23700     -4067.57600                
G18  21951673.09800 115356820.72700      2561.09300                
G19  21608423.18100 113553030.23300     -2166.34000                
G22  23696377.39100 124525303.66800      2961.34400                
G23  20733209.86400 108953753.21500     -1169.85700                
G27  21296560.26500 111914179.55300      1925.59900                
G28  24138376.58300 126848025.09700     -2999.37900                
E01        31.13200       163.59900         2.91800                
E02        22.91400       120.41200         7.79700                
E03         9.26700        48.69900         9.47800                
E04         9.53100        50.08500        -9.53100                
E05        23.12900       121.54600        -7.72400                
E06        31.21100       164.01500        -2.81400                
> 2025 04 22 14 00  5.0000000  0 16
G03  24465216.84700 128565582.27500      1667.01300                
G09  24282650.05300 127606187.29900      -406.11100                
G14  20692587.45000 108740280.98500      -206.22100                
G15  24882199.76000 130756842.27400     -4066.49900                
G18  21951185.85500 115354260.24300      2559.86900                
G19  21608835.36300 113555196.26900     -2165.74300                
G22  23695813.94800 124522342.75300      2960.50100                
G23  20733432.49800 108954923.16300     -1170.05200                
G27  21296193.81100 111912253.82100      1925.86700                
G28  24138947.36000 126851024.55000     -2999.56800                
E01        30.50900       160.32800         3.62100                
E02        21.38400       112.37500         8.27000                
E03         7.51600        39.49700         8.83000                
E04        11.36700        59.73400        -9.72000                
E05        24.55000       129.01300        -7.20300                
E06        31.67800       166.47000        -2.09500                
> 2025 04 22 14 00  6.0000000  0 16
G03  24464899.60200 128563915.14400      1667.21800                
G09  24282727.52600 127606594.42100      -408.13200                
G14  20692626.80100 108740487.77900      -207.35200                
G15  24882973.47600 130760908.17900     -4065.31700                
G18  21950698.84100 115351700.97100      2558.67300                
G19  21609247.43700 113557361.73100     -2165.19500                
G22  23695250.65000 124519382.60300      2959.81500                
G23  20733655.17500 108956093.33700     -1170.30700                
G27  21295827.30100 111910327.80200      1926.17200                
G28  24139518.19000 126854024.28000     -2999.93400                
E01        29.75500       156.36200         4.30800                
E02        19.76900       103.88800         8.69500                
E03         5.95900        31.31500         7.33800                
E04        13.21700        69.45600        -9.69800                
E05        25.86800       135.93900        -6.64500                
E06        32.00800       168.20100        -1.36600                
> 2025 04 22 14 00  7.0000000  0 16
G03  24464582.33400 128562247.89100      1667.25700                
G09  24282805.38100 127607003.55600      -410.13300                
G14  20692666.36000 108740695.66100      -208.39800                
G15  24883746.95900 130764972.85900     -4064.05200                
G18  21950212.05200 115349142.87300      2557.52200                
G19  21609659.41200 113559526.67400     -2164.71100                
G22  23694687.46700 124516423.05700      2959.29200                
G23  20733877.90600 108957263.79700     -1170.62600                
G27  21295460.73200 111908401.46400      1926.50000                
G28  24140089.10600 126857024.46700     -3000.47800                
E01        28.87100       151.72000         4.97300                
E02        18.07800        95.00300         9.06500                
E03         4.82800        25.37000         4.20600                
E04        15.04900        79.08500        -9.54100                
E05        27.07700       142.29000        -6.05200                
E06        32.19800       169.19900        -0.63000                
> 2025 04 22 14 00  8.0000000  0 16
G03  24464265.07600 128560580.68400      1667.12300                
G09  24282883.61400 127607414.67200      -412.09000                
G14  20692706.10900 108740904.54500      -209.35500                
G15  24884520.19500 130769036.24200     -4062.72700                
G18  21949725.47500 115346585.89800      2556.43200                
G19  21610071.30200 113561691.17300     -2164.30600                
G22  23694124.36800 124513463.95000      2958.94000                
G23  20734100.70400 108958434.60700     -1171.00800                
G27  21295094.09900 111906474.79600      1926.83200                
G28  24140660.14300 126860025.28400     -3001.19700                
E01        27.86300       146.42300         5.61500                
E02        16.32300        85.77900         9.37100                
E03         4.48300        23.55900        -0.77500                
E04        16.84200        88.50600        -9.28900                
E05        28.17000       148.03400        -5.43000                
E06        32.24700       169.46100         0.10800                
> 2025 04 22 14 00  9.0000000  0 16
G03  24463947.85900 128558913.70200      1666.80800                
G09  24282962.21400 127607827.71400      -413.98100                
G14  20692746.03200 108741114.33900      -210.21700                
G15  24885293.17500 130773098.28100     -4061.36600                
G18  21949239.09900 115344029.97600      2555.41800                
G19  21610483.12400 113563855.31100     -2163.99300                
G22  23693561.31900 124510505.10700      2958.76200                
G23  20734323.58000 108959605.83200     -1171.45400                
G27  21294727.40400 111904547.79900      1927.15400                
G28  24141231.33200 126863026.90400     -3002.08200                
E01        26.73600       140.49900         6.22900                
E02        14.51700        76.28600         9.59800                
E03         5.09300        26.76600        -5.33800                
E04        18.58000        97.63800        -8.96300                
E05        29.14200       153.14100        -4.78100                
E06        32.15700       168.98400         0.84600                
> 2025 04 22 14 00 10.0000000  0 16
G03  24463630.72100 128557247.12700      1666.30800                
G09  24283041.16500 127608242.60500      -415.78300                
G14  20692786.10900 108741324.94600      -210.98200                
G15  24886065.89500 130777158.95000     -4059.99300                
G18  21948752.90800 115341475.02300      2554.49500                
G19  21610894.89600 113566019.18800     -2163.78400                
G22  23692998.28700 124507546.35700      2958.75600                
G23  20734546.54800 108960777.53500     -1171.96300                
G27  21294360.64900 111902620.49200      1927.45000                
G28  24141802.70500 126866029.49000     -3003.12500                
E01        25.49500       133.97600         6.81200                
E02        12.67700        66.61700         9.72100                
E03         6.38200        33.53900        -7.90100                
E04        20.24900       106.41200        -8.57600                
E05        29.98800       157.58800        -4.10900                
E06        31.92600       167.77000         1.58000                
> 2025 04 22 14 00 11.0000000  0 16
G03  24463313.69500 128555581.14300      1665.62500                
G09  24283120.44900 127608659.24500      -417.47600                
G14  20692826.32300 108741536.27000      -211.64900                
G15  24886838.35400 130781218.25000     -4058.63300                
G18  21948266.88300 115338920.94300      2553.67600                
G19  21611306.63900 113568182.91200     -2163.69000                
G22  23692435.24100 124504587.52700      2958.92000                
G23  20734769.61800 108961949.77800     -1172.53300                
G27  21293993.84200 111900692.90800      1927.70400                
G28  24142374.29000 126869033.19200     -3004.31400                
E01        24.14600       126.88700         7.36000                
E02        10.82700        56.89500         9.69200                
E03         8.01300        42.10900        -9.08100                
E04        21.84000       114.77200        -8.13600                
E05        30.70400       161.35300        -3.41700                
E06        31.55600       165.82700         2.30600                
> 2025 04 22 14 00 12.0000000  0 16
G03  24462996.81600 128553915.93300      1664.76200                
G09  24283200.04300 127609077.51500      -419.04100                
G14  20692866.65400 108741748.21200      -212.22000                
G15  24887610.55700 130785276.20600     -4057.31000                
G18  21947781.00300 115336367.62600      2552.97000                
G19  21611718.37600 113570346.60200     -2163.71700                
G22  23691872.14700 124501628.45100      2959.24800                
G23  20734992.80300 108963122.61800     -1173.15900                
G27  21293626.99200 111898765.09800      1927.90100                
G28  24142946.11500 126872038.14900     -3005.63200                
E01        22.69600       119.26900         7.86900                
E02         9.00400        47.31400         9.41600                
E03         9.79600        51.47700        -9.57700                
E04        23.34300       122.66900        -7.65100                
E05        31.28800       164.41700        -2.70900                
E06        31.04900       163.16200         3.02200                
> 2025 04 22 14 00 13.0000000  0 16
G03  24462680.11800 128552251.67400      1663.72400                
G09  24283279.92100 127609497.27900      -420.46200                
G14  20692907.08500 108741960.67800      -212.69700                
G15  24888382.51400 130789332.86900     -4056.04800                
G18  21947295.24500 115333814.95300      2552.38800                
G19  21612130.13000 113572510.38300     -2163.87200                
G22  23691308.97700 124498668.96900      2959.73000                
G23  20735216.11100 108964296.11100     -1173.83700                
G27  21293260.11100 111896837.12400      1928.02800                
G28  24143518.20100 126875044.48300     -3007.06400                
E01        21.15400       111.16300         8.33500                
E02         7.27200        38.21300         8.68000                
E03        11.63600        61.14900        -9.72700                
E04        24.75000       130.06000        -7.12400                
E05        31.73500       166.76700        -1.98900                
E06        30.40700       159.78800         3.72300                
> 2025 04 22 14 00 14.0000000  0 16
G03  24462363.63300 128550588.53600      1662.52300                
G09  24283360.05500 127609918.38600      -421.72500                
G14  20692947.59800 108742173.57600      -213.08400                
G15  24889154.23900 130793388.31100     -4054.87100                
G18  21946809.58600 115331262.79900      2551.93400                
G19  21612541.92500 113574674.38300     -2164.15800                
G22  23690745.70000 124495708.93300      2960.35500                
G23  20735439.55300 108965470.30700     -1174.56300                
G27  21292893.21300 111894909.06400      1928.07300                
G28  24144090.56900 126878052.29700     -3008.58900                
E01        19.52700       102.61500         8.75300                
E02         5.75900        30.26300         7.00400                
E03        13.48600        70.86700        -9.68200                
E04        26.05200       136.90400        -6.56000                
E05        32.04400       168.39100        -1.25900                
E06        29.63300       155.72200         4.40600                
> 2025 04 22 14 00 15.0000000  0 16
G03  24462047.39100 128548926.67600      1661.16900                
G09  24283440.41400 127610340.67200      -422.81900                
G14  20692988.17700 108742386.81800      -213.38800                
G15  24889925.75000 130797442.62500     -4053.79800                
G18  21946324.00100 115328711.03200      2551.61400                
G19  21612953.78800 113576838.73600     -2164.57600                
G22  23690182.29300 124492748.20600      2961.10700                
G23  20735663.13700 108966645.24900     -1175.32900                
G27  21292526.31600 111892981.00500      1928.02400                
G28  24144663.23400 126881061.67400     -3010.18700                
E01        17.82600        93.67700         9.11400                
E02         4.71900        24.79800         3.56800                
E03        15.31300        80.47100        -9.50900                
E04        27.24400       143.16900        -5.96300                
E05        32.21300       169.28200        -0.52300                
E06        28.73100       150.98300         5.06900                
> 2025 04 22 14 00 16.0000000  0 16
G03  24461731.42100 128547266.24000      1659.67900                
G09  24283520.96300 127610763.96500      -423.73600                
G14  20693028.80600 108742600.32600      -213.61500                
G15  24890697.06800 130801495.92800     -4052.85000                
G18  21945838.46400 115326159.51800      2551.42900                
G19  21613365.74300 113579003.57300     -2165.12400                
G22  23689618.73100 124489786.66900      2961.97100                
G23  20735886.87000 108967820.97500     -1176.12900                
G27  21292159.43700 111891053.04600      1927.87200                
G28  24145236.20900 126884072.67500     -3011.83400                
E01        16.06200        84.40900         9.41000                
E02         4.51500        23.72700        -1.54100                
E03        17.09900        89.85500        -9.24600                
E04        28.32000       148.82100        -5.33700                
E05        32.24300       169.43600         0.21600                
E06        27.70500       145.59300         5.70600                
> 2025 04 22 14 00 17.0000000  0 16
G03  24461415.74600 128545607.35500      1658.07000                
G09  24283601.67100 127611188.08400      -424.47200                
G14  20693069.47100 108742814.02600      -213.77500                
G15  24891468.21800 130805548.35200     -4052.04400                
G18  21945352.95000 115323608.12100      2551.37900                
G19  21613777.81400 113581169.02200     -2165.80100                
G22  23689054.99600 124486824.22100      2962.92800                
G23  20736110.75800 108968997.51500     -1176.95600                
G27  21291792.59800 111889125.29400      1927.60900                
G28  24145809.50000 126887085.33900     -3013.50900                
E01        14.25000        74.88400         9.62300                
E02         5.24900        27.58300        -5.83600                
E03        18.82700        98.93900        -8.91000                
E04        29.27400       153.83300        -4.68400                
E05        32.13100       168.85100         0.95300                
E06        26.56100       139.57900         6.31600                
> 2025 04 22 14 00 18.0000000  0 16
G03  24461100.38600 128543950.13000      1656.36100                
G09  24283682.50100 127611612.84800      -425.02500                
G14  20693110.16200 108743027.85600      -213.87800                
G15  24892239.23000 130809600.04700     -4051.39400                
G18  21944867.43200 115321056.70800      2551.46000                
G19  21614190.02500 113583335.20800     -2166.59800                
G22  23688491.07100 124483860.77700      2963.95800                
G23  20736334.80500 108970174.89100     -1177.80100                
G27  21291425.82000 111887197.86200      1927.23100                
G28  24146383.11000 126890099.68200     -3015.18700                
E01        12.40700        65.19800         9.72800                
E02         6.60600        34.71300        -8.13900                
E03        20.48600       107.65600        -8.51500                
E04        30.10100       158.18200        -4.00900                
E05        31.88000       167.53000         1.68600                
E06        25.30400       132.97200         6.89400                
> 2025 04 22 14 00 19.0000000  0 16
G03  24460785.36000 128542294.65400      1654.57600                
G09  24283763.41800 127612038.07400      -425.39700                
G14  20693150.86800 108743241.76600      -213.93400                
G15  24893010.13400 130813651.17600     -4050.91200                
G18  21944381.88700 115318505.15000      2551.66800                
G19  21614602.40000 113585502.25100     -2167.51000                
G22  23687926.94600 124480896.27700      2965.03800                
G23  20736559.01500 108971353.11800     -1178.65500                
G27  21291059.12500 111885270.86700      1926.73300                
G28  24146957.03800 126893115.69400     -3016.84400                
E01        10.55800        55.48300         9.67100                
E02         8.26700        43.44600        -9.18500                
E03        22.06500       115.95100        -8.06800                
E04        30.79800       161.84500        -3.31500                
E05        31.49000       165.48100         2.41100                
E06        23.94000       125.80300         7.43700                
> 2025 04 22 14 00 20.0000000  0 16
G03  24460470.67900 128540640.99400      1652.73500                
G09  24283844.39000 127612463.58300      -425.59200                
G14  20693191.58000 108743455.71300      -213.95600                
G15  24893780.96400 130817701.91000     -4050.60800                
G18  21943896.29000 115315953.32400      2551.99400                
G19  21615014.95800 113587670.25700     -2168.52500                
G22  23687362.61200 124477930.68200      2966.14600                
G23  20736783.38600 108972532.20000     -1179.51100                
G27  21290692.53700 111883344.43000      1926.11500                
G28  24147531.27800 126896133.34400     -3018.45800                
E01         8.74300        45.94500         9.34500                
E02        10.06300        52.88100        -9.61600                
E03        23.55400       123.77800        -7.57700                
E04        31.36200       164.80700        -2.60500                
E05        30.96300       162.71100         3.12500                
E06        22.47600       118.11200         7.94000                
> 2025 04 22 14 00 21.0000000  0 16
G03  24460156.35100 128538989.19100      1650.86400                
G09  24283925.38300 127612889.20200      -425.61900                
G14  20693232.29500 108743669.67100      -213.95600                
G15  24894551.75200 130821752.43100     -4050.48600                
G18  21943410.62100 115313401.11700      2552.43000                
G19  21615427.71800 113589839.32500     -2169.63200                
G22  23686798.06600 124474963.97200      2967.26000                
G23  20737007.92100 108973712.13600     -1180.36000                
G27  21290326.07700 111881418.67200      1925.37700                
G28  24148105.81900 126899152.57600     -3020.00500                
E01         7.03300        36.95900         8.51000                
E02        11.90700        62.57300        -9.73100                
E03        24.94600       131.09100        -7.04400                
E04        31.78900       167.05100        -1.88300                
E05        30.30200       159.23600         3.82400                
E06        20.92100       109.93800         8.39900                
> 2025 04 22 14 00 22.0000000  0 16
G03  24459842.38000 128537339.26400      1648.98700                
G09  24284006.36500 127613314.76900      -425.48900                
G14  20693273.00900 108743883.62300      -213.94700                
G15  24895322.53500 130825802.92300     -4050.54900                
G18  21942924.86000 115310848.42400      2552.96300                
G19  21615840.69600 113592009.54100     -2170.81700                
G22  23686233.30900 124471996.15600      2968.35600                
G23  20737232.61500 108974892.91300     -1181.19300                
G27  21289959.76900 111879493.71100      1924.52200                
G28  24148680.64600 126902173.31300     -3021.46400                
E01         5.56900        29.26700         6.63300                
E02        13.75500        72.28300        -9.66400                
E03        26.23300       137.85400        -6.47500                
E04        32.07800       168.56900        -1.15200                
E05        29.50900       155.07000         4.50400                
E06        19.28200       101.33000         8.80900                
> 2025 04 22 14 00 23.0000000  0 16
G03  24459528.76600 128535691.20800      1647.12700                
G09  24284087.30900 127613740.13200      -425.21500                
G14  20693313.72100 108744097.56700      -213.94200                
G15  24896093.34700 130829853.57000     -4050.79700                
G18  21942438.98900 115308295.15400      2553.58100                
G19  21616253.90600 113594180.97500     -2172.06600                
G22  23685668.34700 124469027.26100      2969.41200                
G23  20737457.46600 108976074.51200     -1182.00200                
G27  21289593.63500 111877569.66100      1923.55500                
G28  24149255.74100 126905195.45600     -3022.81500                
E01         4.62900        24.32600         2.89000                
E02        15.57800        81.86100        -9.47600                
E03        27.40800       144.03100        -5.87400                
E04        32.22700       169.35300        -0.41500                
E05        28.58900       150.23400         5.16300                
E06        17.57200        92.34000         9.16100                
> 2025 04 22 14 00 24.0000000  0 16
G03  24459215.50100 128534044.99200      1645.31000                
G09  24284168.18900 127614165.15600      -424.81400                
G14  20693354.43400 108744311.51300      -213.95400                
G15  24896864.22500 130833904.55600     -4051.22500                
G18  21941952.99300 115305741.23000      2554.26800                
G19  21616667.35900 113596353.68300     -2173.36300                
G22  23685103.19000 124466057.34100      2970.40500                
G23  20737682.46800 108977256.90400     -1182.78000                
G27  21289227.69400 111875646.63000      1922.48400                
G28  24149831.08100 126908218.88900     -3024.04000                
E01         4.56800        24.00500        -2.28300                
E02        17.35600        91.20600        -9.20100                
E03        28.46600       149.59100        -5.24300                
E04        32.23500       169.39800         0.32400                
E05        27.54500       144.75200         5.79700                
E06        15.80000        83.03000         9.44600                
> 2025 04 22 14 00 25.0000000  0 16
G03  24458902.57700 128532400.56200      1643.55900                
G09  24284248.98100 127614589.72400      -424.30500                
G14  20693395.15100 108744525.48500      -213.99600                
G15  24897635.20000 130837956.05800     -4051.82700                
G18  21941466.86200 115303186.59100      2555.00900                
G19  21617081.06100 113598527.70400     -2174.69000                
G22  23684537.85200 124463086.46700      2971.31500                
G23  20737907.61400 108978440.05600     -1183.51800                
G27  21288861.96700 111873724.72000      1921.31700                
G28  24150406.64100 126911243.47900     -3025.12400                
E01         5.41700        28.46600        -6.28500                
E02        19.07500       100.23900        -8.85600                
E03        29.40200       154.50900        -4.58700                
E04        32.10400       168.70600         1.06100                
E05        26.38400       138.65000         6.40200                
E06        13.98200        73.47600         9.64600                
> 2025 04 22 14 00 26.0000000  0 16
G03  24458589.97700 128530757.84100      1641.89700                
G09  24284329.66800 127615013.73700      -423.70800                
G14  20693435.88100 108744739.51900      -214.07900                
G15  24898406.30500 130842008.24300     -4052.59100                
G18  21940980.58600 115300631.19300      2555.78600                
G19  21617495.01800 113600703.06100     -2176.03100                
G22  23683972.35000 124460114.73400      2972.12200                
G23  20738132.89700 108979623.92400     -1184.21200                
G27  21288496.47000 111871804.02100      1920.06400                
G28  24150982.39300 126914269.07500     -3026.05400                
E01         6.83400        35.91300        -8.34900                
E02        20.72300       108.89800        -8.45300                
E03        30.21100       158.75900        -3.90900                
E04        31.83200       167.27900         1.79300                
E05        25.11100       131.95800         6.97500                
E06        12.13600        63.77600         9.73100                
> 2025 04 22 14 00 27.0000000  0 16
G03  24458277.68400 128529116.72900      1640.34300                
G09  24284410.23500 127615437.11900      -423.04600                
G14  20693476.63000 108744953.66100      -214.21500                
G15  24899177.57000 130846061.26800     -4053.50400                
G18  21940494.15900 115298075.00600      2556.58200                
G19  21617909.23000 113602879.75800     -2177.36700                
G22  23683406.70500 124457142.25200      2972.80800                
G23  20738358.30600 108980808.46100     -1184.85400                
G27  21288131.21800 111869884.61300      1918.73800                
G28  24151558.30600 126917295.51900     -3026.81800                
E01         8.52300        44.79000        -9.27600                
E02        22.28900       117.12800        -7.99900                
E03        30.88900       162.32100        -3.21300                
E04        31.42200       165.12300         2.51600                
E05        23.73200       124.71100         7.51200                
E06        10.28900        54.07100         9.64300                
> 2025 04 22 14 00 28.0000000  0 16
G03  24457965.67500 128527477.10900      1638.91600                
G09  24284490.67100 127615859.81500      -422.34100                
G14  20693517.41200 108745167.97100      -214.41500                
G15  24899949.02200 130850115.27600     -4054.55200                
G18  21940007.58100 115295518.02100      2557.37800                
G19  21618323.69400 113605057.78200     -2178.68200                
G22  23682840.94300 124454169.15100      2973.35800                
G23  20738583.83300 108981993.61200     -1185.44000                
G27  21287766.22500 111867966.56100      1917.35200                
G28  24152134.34800 126920322.64100     -3027.40900                
E01        10.33000        54.28400        -9.64800                
E02        23.76400       124.88200        -7.50100                
E03        31.43300       165.17900        -2.50100                
E04        30.87500       162.25000         3.22800                
E05        22.25400       116.94700         8.01000                
E06         8.48400        44.58600         9.26300                
> 2025 04 22 14 00 29.0000000  0 16
G03  24457653.92300 128525838.84500      1637.63400                
G09  24284570.97200 127616281.79500      -421.61800                
G14  20693558.23900 108745382.51600      -214.68800                
G15  24900720.68400 130854170.38900     -4055.71400                
G18  21939520.85300 115292960.24600      2558.15800                
G19  21618738.40500 113607237.10300     -2179.95800                
G22  23682275.09000 124451195.57400      2973.76000                
G23  20738809.46600 108983179.31900     -1185.96700                
G27  21287401.50000 111866049.91800      1915.92100                
G28  24152710.48600 126923350.26600     -3027.82300                
E01        12.17700        63.99100        -9.73100                
E02        25.14100       132.11700        -6.96300                
E03        31.84000       167.31900        -1.77700                
E04        30.19400       158.67300         3.92400                
E05        20.68600       108.70700         8.46200                
E06         6.79900        35.73000         8.31900                
> 2025 04 22 14 00 30.0000000  0 16
G03  24457342.40100 128524201.78400      1636.51100                
G09  24284651.13400 127616703.05300      -420.90200                
G14  20693599.12500 108745597.37400      -215.04200                
G15  24901492.57700 130858226.71400     -4056.97200                
G18  21939033.97900 115290401.70800      2558.90300                
G19  21619153.35400 113609417.67300     -2181.17800                
G22  23681709.17600 124448221.67400      2974.00100                
G23  20739035.19300 108984365.52300     -1186.43100                
G27  21287037.05100 111864134.72400      1914.46000                
G28  24153286.68600 126926378.21600     -3028.05800                
E01        14.02300        73.68900        -9.64300                
E02        26.41200       138.79600        -6.38900                
E03        32.10800       168.73000        -1.04500                
E04        29.38300       154.40800         4.60200                
E05        19.03700       100.03900         8.86400                
E06         5.39100        28.32800         6.22000                
> 2025 04 22 14 00 31.0000000  0 16
G03  24457031.07700 128522565.76400      1635.55600                
G09  24284731.16300 127617123.60800      -420.21500                
G14  20693640.08700 108745812.62900      -215.48300                
G15  24902264.71700 130862284.33500     -4058.30200                
G18  21938546.96900 115287842.45000      2559.59600                
G19  21619568.52800 113611599.43000     -2182.32800                
G22  23681143.23100 124445247.61700      2974.07500                
G23  20739261.00200 108985552.15800     -1186.83100                
G27  21286672.88100 111862220.99900      1912.98400                
G28  24153862.91300 126929406.31300     -3028.11700                
E01        15.84000        83.23900        -9.44100                
E02        27.57100       144.88500        -5.78300                
E03        32.23700       169.40600        -0.30800                
E04        28.44400       149.47600         5.25700                
E05        17.31600        90.99800         9.20700                
E06         4.55900        23.95600         2.17200                
> 2025 04 22 14 00 32.0000000  0 16
G03  24456719.91700 128520930.61000      1634.77900                
G09  24284811.06600 127617543.50200      -419.58300                
G14  20693681.14100 108746028.37100      -216.01700                
G15  24903037.11500 130866343.31400     -4059.68200                
G18  21938059.83200 115285282.53000      2560.22100                
G19  21619983.91300 113613782.29500     -2183.39300                
G22  23680577.28900 124442273.57000      2973.97800                
G23  20739486.88100 108986739.16100     -1187.16600                
G27  21286308.99300 111860308.75100      1911.51000                
G28  24154439.13600 126932434.38100     -3028.00400                
E01        17.61000        92.54300        -9.15500                
E02        28.61100       150.35300        -5.14900                
E03        32.22500       169.34400         0.43100                
E04        27.38400       143.90200         5.88700                
E05        15.53700        81.64800         9.48100                
E06         4.64100        24.39100        -2.99500                
> 2025 04 22 14 00 33.0000000  0 16
G03  24456408.88800 128519296.14200      1634.18400                
G09  24284890.85600 127617962.80000      -419.02800                
G14  20693722.30600 108746244.69500      -216.64600                
G15  24903809.77800 130870403.68800     -4061.08800                
G18  21937572.58400 115282722.02600      2560.76400                
G19  21620399.49200 113615966.17700     -2184.36000                
G22  23680011.38200 124439299.70700      2973.70700                
G23  20739712.81800 108987926.46700     -1187.43700                
G27  21285945.38300 111858397.96900      1910.05400                
G28  24155015.32100 126935462.25500     -3027.72700                
E01        19.32000       101.52600        -8.80100                
E02        29.52900       155.17400        -4.49000                
E03        32.07300       168.54500         1.16800                
E04        26.20600       137.71200         6.48800                
E05        13.71400        72.06500         9.66600                
E06         5.59700        29.41400        -6.69200                
> 2025 04 22 14 00 34.0000000  0 16
G03  24456097.95500 128517662.17800      1633.77300                
G09  24284970.54900 127618381.59100      -418.57100                
G14  20693763.60000 108746461.69700      -217.37400                
G15  24904582.71000 130874465.47000     -4062.49400                
G18  21937085.24200 115280161.02600      2561.21000                
G19  21620815.24500 113618150.97200     -2185.21800                
G22  23679445.54200 124436326.20200      2973.26400                
G23  20739938.80100 108989114.01300     -1187.64600                
G27  21285582.04700 111856488.62800      1908.63100                
G28  24155591.43900 126938489.77400     -3027.29800                
E01        20.95600       110.12600        -8.39000                
E02        30.31900       159.32500        -3.80900                
E03        31.78100       167.01100         1.89900                
E04        24.91600       130.93700         7.05600                
E05        11.86600        62.35500         9.73000                
E06         7.06900        37.14700        -8.53700                
> 2025 04 22 14 00 35.0000000  0 16
G03  24455787.08300 128516028.53200      1633.54400                
G09  24285050.16700 127618799.98200      -418.23300                
G14  20693805.04200 108746679.47400      -218.19800                
G15  24905355.90700 130878528.64800     -4063.87700                
G18  21936597.82600 115277599.63300      2561.54800                
G19  21621231.15000 113620336.56700     -2185.95800                
G22  23678879.80300 124433353.22300      2972.65400                
G23  20740164.81700 108990301.73700     -1187.79500                
G27  21285218.97800 111854580.68700      1907.25600                
G28  24156167.46100 126941516.79200     -3026.72900                
E01        22.51000       118.28900        -7.92900                
E02        30.97700       162.78500        -3.10900                
E03        31.35100       164.75100         2.62100                
E04        23.52300       123.61200         7.58800                
E05        10.02200        52.66500         9.61000                
E06         8.78200        46.15100        -9.35600                
> 2025 04 22 14 00 36.0000000  0 16
G03  24455476.23700 128514395.02600      1633.49400                
G09  24285129.73200 127619218.10100      -418.03000                
G14  20693846.65000 108746898.12500      -219.11800                
G15  24906129.36300 130882593.18600     -4065.21100                
G18  21936110.35500 115275037.96100      2561.76900                
G19  21621647.18400 113622522.84000     -2186.57300                
G22  23678314.19600 124430380.93600      2971.88400                
G23  20740390.85600 108991489.58300     -1187.88900                
G27  21284856.16500 111852674.09000      1905.94400                
G28  24156743.36300 126944543.18000     -3026.03800                
E01        23.97100       125.97000        -7.42500                
E02        31.50100       165.53900        -2.39500                
E03        30.78500       161.77400         3.33000                
E04        22.03100       115.77500         8.07900                
E05         8.22800        43.24000         9.17000                
E06        10.59800        55.69500        -9.67400                
> 2025 04 22 14 00 37.0000000  0 16
G03  24455165.38400 128512761.48500      1633.61300                
G09  24285209.27300 127619636.09100      -417.97700                
G14  20693888.44100 108747117.74200      -220.13100                
G15  24906903.06600 130886659.02600     -4066.47400                
G18  21935622.85500 115272476.13000      2561.86300                
G19  21622063.32200 113624709.66300     -2187.05800                
G22  23677748.74900 124427409.49400      2970.96400                
G23  20740616.90900 108992677.49600     -1187.93200                
G27  21284493.59400 111850768.76800      1904.70800                
G28  24157319.12400 126947568.82100     -3025.24100                
E01        25.33300       133.12700        -6.88200                
E02        31.88800       167.57200        -1.67000                
E03        30.08500       158.09500         4.02400                
E04        20.45100       107.46900         8.52400                
E05         6.57100        34.53100         8.10400                
E06        12.44800        65.41200        -9.72700                
> 2025 04 22 14 00 38.0000000  0 16
G03  24454854.49400 128511127.74400      1633.89100                
G09  24285288.81900 127620054.11000      -418.08800                
G14  20693930.43400 108747338.41500      -221.23000                
G15  24907677.00200 130890726.08300     -4067.64400                
G18  21935135.34900 115269914.26900      2561.82700                
G19  21622479.54100 113626896.90600     -2187.41200                
G22  23677183.49100 124424439.04100      2969.90800                
G23  20740842.96500 108993865.42900     -1187.93000                
G27  21284131.25100 111848864.64000      1903.56000                
G28  24157894.72400 126950593.62200     -3024.36100                
E01        26.58800       139.72200        -6.30300                
E02        32.13600       168.87600        -0.93700                
E03        29.25400       153.73200         4.69900                
E04        18.79000        98.74400         8.91800                
E05         5.22400        27.45300         5.76300                
E06        14.29000        75.09600        -9.62000                
> 2025 04 22 14 00 39.0000000  0 16
G03  24454543.53700 128509493.65200      1634.31300                
G09  24285368.40300 127620472.32500      -418.37100                
G14  20693972.64400 108747560.22900      -222.41000                
G15  24908451.14900 130894794.25500     -4068.69900                
G18  21934647.86300 115267352.51200      2561.65700                
G19  21622895.81400 113629084.43600     -2187.63300                
G22  23676618.44500 124421469.70700      2968.73100                
G23  20741069.01700 108995053.34100     -1187.88900                
G27  21283769.11700 111846961.61200      1902.50900                
G28  24158470.15100 126953617.50900     -3023.41700                
E01        27.73000       145.72200        -5.69300                
E02        32.24400       169.44500        -0.19900                
E03        28.29800       148.70500         5.35100                
E04        17.06000        89.65300         9.25200                
E05         4.50900        23.69400         1.42500                
E06        16.10200        84.61500        -9.40400                
> 2025 04 22 14 00 40.0000000  0 16
G03  24454232.48600 128507859.07200      1634.86400                
G09  24285448.05700 127620890.91200      -418.83400                
G14  20694015.08500 108747783.25900      -223.66100                
G15  24909225.48500 130898863.41600     -4069.62200                
G18  21934160.42200 115264790.99200      2561.35100                
G19  21623312.11700 113631272.12200     -2187.72300                
G22  23676053.63400 124418501.60300      2967.44900                
G23  20741295.05800 108996241.19600     -1187.81800                
G27  21283407.17200 111845059.58300      1901.56400                
G28  24159045.39400 126956640.43100     -3022.43300                
E01        28.75300       151.09700        -5.05400                
E02        32.21200       169.27500         0.53900                
E03        27.21900       143.03900         5.97700                
E04        15.27400        80.26300         9.51400                
E05         4.73400        24.88000        -3.66800                
E06        17.86400        93.87700        -9.10700                
> 2025 04 22 14 00 41.0000000  0 16
G03  24453921.32000 128506223.88300      1635.52600                
G09  24285527.81700 127621310.05400      -419.47900                
G14  20694057.77100 108748007.57300      -224.97600                
G15  24909999.98200 130902933.42700     -4070.39600                
G18  21933673.05200 115262229.84500      2560.91300                
G19  21623728.42500 113633459.83500     -2187.68900                
G22  23675489.07500 124415534.82500      2966.08400                
G23  20741521.08400 108997428.96800     -1187.72400                
G27  21283045.39700 111843158.44200      1900.73100                
G28  24159620.44800 126959662.35900     -3021.43300                
E01        29.65200       155.82200        -4.39100                
E02        32.03900       168.36700         1.27500                
E03        26.02500       136.76200         6.57300                
E04        13.44500        70.65500         9.68400                
E05         5.78900        30.42000        -7.05700                
E06        19.56400       102.80700        -8.74400                
> 2025 04 22 14 00 42.0000000  0 16
G03  24453610.02000 128504587.98800      1636.27600                
G09  24285607.71800 127621729.93200      -420.30700                
G14  20694100.71100 108748233.22800      -226.34200                
G15  24910774.61100 130907004.13300     -4071.00800                
G18  21933185.77800 115259669.20300      2560.34400                
G19  21624144.71500 113635647.45300     -2187.53500                
G22  23674924.78200 124412569.44600      2964.65500                
G23  20741747.09000 108998616.63700     -1187.61500                
G27  21282683.77000 111841258.07600      1900.01600                
G28  24160195.31100 126962683.28800     -3020.44000                
E01        30.42300       159.87300        -3.70800                
E02        31.72700       166.72700         2.00500                
E03        24.72000       129.90400         7.13600                
E04        11.59600        60.93700         9.72700                
E05         7.30900        38.40800        -8.70400                
E06        21.18800       111.34600        -8.32500                
> 2025 04 22 14 00 43.0000000  0 16
G03  24453298.56900 128502951.30600      1637.09300                
G09  24285687.79200 127622150.72800      -421.31500                
G14  20694143.91600 108748460.27100      -227.74900                
G15  24911549.34100 130911075.36400     -4071.44700                
G18  21932698.62400 115257109.19000      2559.65300                
G19  21624560.96500 113637834.86200     -2187.27100                
G22  23674360.76500 124409605.51800      2963.18500                
G23  20741973.07400 108999804.19300     -1187.49900                
G27  21282322.26700 111839358.36500      1899.42100                
G28  24160769.98900 126965703.23800     -3019.47800                
E01        31.06200       163.23200        -3.00600                
E02        31.27700       164.36000         2.72600                
E03        23.31100       122.50200         7.66200                
E04         9.75600        51.26700         9.57000                
E05         9.04400        47.52500        -9.42600                
E06        22.72900       119.44200        -7.85800                
> 2025 04 22 14 00 44.0000000  0 16
G03  24452986.95900 128501313.78300      1637.95400                
G09  24285768.07600 127622572.61900      -422.49500                
G14  20694187.39200 108748688.73600      -229.18500                
G15  24912324.13700 130915146.94500     -4071.70600                
G18  21932211.61200 115254549.92700      2558.84700                
G19  21624977.15500 113640021.95700     -2186.90900                
G22  23673797.03000 124406643.07100      2961.69600                
G23  20742199.03700 109000991.63400     -1187.38600                
G27  21281960.86600 111837459.19000      1898.94500                
G28  24161344.48700 126968722.25000     -3018.56900                
E01        31.56600       165.88100        -2.29000                
E02        30.69100       161.28000         3.43300                
E03        21.80700       114.59400         8.14700                
E04         7.97500        41.91100         9.06400                
E05        10.86800        57.11200        -9.69500                
E06        24.17600       127.04800        -7.34800                
> 2025 04 22 14 00 45.0000000  0 16
G03  24452675.18300 128499675.38800      1638.83500                
G09  24285848.59900 127622995.77200      -423.83900                
G14  20694231.14200 108748918.64600      -230.63600                
G15  24913098.96500 130919218.69400     -4071.78100                
G18  21931724.76400 115251991.52300      2557.93600                
G19  21625393.26800 113642208.64500     -2186.45900                
G22  23673233.57900 124403682.11300      2960.21100                
G23  20742424.97900 109002178.96700     -1187.28400                
G27  21281599.54400 111835560.43100      1898.58800                
G28  24161918.82100 126971740.39100     -3017.73700                
E01        31.93300       167.80800        -1.56400                
E02        29.97100       157.49900         4.12400                
E03        20.21400       106.22400         8.58500                
E04         6.34900        33.36700         7.86300                
E05        12.71800        66.83400        -9.71900                
E06        25.52300       134.12500        -6.79900                
> 2025 04 22 14 00 46.0000000  0 16
G03  24452363.23900 128498036.11200      1639.71000                
G09  24285929.39300 127623420.34600      -425.33400                
G14  20694275.16900 108749150.00900      -232.09000                
G15  24913873.79000 130923290.42400     -4071.67000                
G18  21931238.09800 115249434.07600      2556.93400                
G19  21625809.28800 113644394.84500     -2185.93700                
G22  23672670.40800 124400722.62800      2958.75400                
G23  20742650.90300 109003366.20600     -1187.20100                
G27  21281238.27900 111833661.97100      1898.34500                
G28  24162493.00400 126974757.74600     -3017.00200                
E01        32.16100       169.00500        -0.83000                
E02        29.12200       153.03700         4.79600                
E03        18.54300        97.44200         8.97100                
E04         5.07100        26.65000         5.26000                
E05        14.55800        76.50100        -9.59400                
E06        26.76200       140.63500        -6.21500                
> 2025 04 22 14 00 47.0000000  0 16
G03  24452051.13100 128496395.97500      1640.55600                
G09  24286010.48400 127623846.48500      -426.96500                
G14  20694319.47200 108749382.82300      -233.53400                
G15  24914648.57500 130927361.95100     -4071.37500                
G18  21930751.63100 115246877.67300      2555.85300                
G19  21626225.20300 113646580.49400     -2185.35800                
G22  23672107.50900 124397764.57600      2957.34700                
G23  20742876.81400 109004553.37600     -1187.14500                
G27  21280877.05000 111831763.70000      1898.21000                
G28  24163067.05900 126977774.42200     -3016.38300                
E01        32.24800       169.46600        -0.09200                
E02        28.14700       147.91500         5.44400                
E03        16.80300        88.30300         9.29500                
E04         4.48000        23.54400         0.65800                
E05        16.36300        85.98800        -9.36500                
E06        27.88700       146.54500        -5.60100                
> 2025 04 22 14 00 48.0000000  0 16
G03  24451738.86700 128494755.01600      1641.34800                
G09  24286091.89800 127624274.31500      -428.71400                
G14  20694364.04800 108749617.07000      -234.95500                
G15  24915423.28800 130931433.09400     -4070.90300                
G18  21930265.37500 115244322.38300      2554.71000                
G19  21626641.00400 113648765.54100     -2184.73800                
G22  23671544.87200 124394807.89900      2956.01100                
G23  20743102.71700 109005740.50600     -1187.12400                
G27  21280515.83700 111829865.51200      1898.17600                
G28  24163641.00800 126980790.54500     -3015.89700                
E01        32.19500       169.18800         0.64700                
E02        27.05200       142.15800         6.06600                
E03        15.00900        78.87500         9.54600                
E04         4.84600        25.46400        -4.29800                
E05        18.11700        95.20500        -9.05700                
E06        28.89200       151.82700        -4.95900                
> 2025 04 22 14 00 49.0000000  0 16
G03  24451426.45900 128493113.30100      1642.06400                
G09  24286173.65400 127624703.94600      -430.56300                
G14  20694408.89000 108749852.72000      -236.34000                
G15  24916197.89500 130935503.67900     -4070.26200                
G18  21929779.34200 115241768.26000      2553.52100                
G19  21627056.68400 113650949.95500     -2184.09400                
G22  23670982.48100 124391852.51300      2954.76700                
G23  20743328.62000 109006927.63700     -1187.14600                
G27  21280154.62200 111827967.31300      1898.23300                
G28  24164214.87800 126983806.25400     -3015.55900                
E01        32.00200       168.17400         1.38200                
E02        25.84100       135.79300         6.65800                
E03        13.17700        69.24300         9.70000                
E04         5.99000        31.47700        -7.38500                
E05        19.80600       104.08100        -8.68600                
E06        29.77200       156.45500        -4.29300                
> 2025 04 22 14 00 50.0000000  0 16
G03  24451113.92400 128491470.91800      1642.68100                
G09  24286255.76900 127625135.46700      -432.48900                
G14  20694453.99300 108750089.73300      -237.67700                
G15  24916972.36400 130939573.54300     -4069.46300                
G18  21929293.53800 115239215.34200      2552.30300                
G19  21627472.24100 113653133.72100     -2183.44400                
G22  23670420.31600 124388898.31700      2953.63300                
G23  20743554.53200 109008114.81200     -1187.21600                
G27  21279793.38800 111826069.01600      1898.36900                
G28  24164788.69900 126986821.70400     -3015.38000                
E01        31.67000       166.42600         2.11100                
E02        24.52000       128.85400         7.21600                
E03        11.32600        59.52000         9.71900                
E04         7.55300        39.69200        -8.85100                
E05        21.41900       112.55800        -8.26000                
E06        30.52400       160.40500        -3.60600                
> 2025 04 22 14 00 51.0000000  0 16
G03  24450801.28300 128489827.97500      1643.18100                
G09  24286338.25700 127625568.94300      -434.47100                
G14  20694499.34400 108750328.05600      -238.95600                
G15  24917746.66800 130943642.53600     -4068.52100                
G18  21928807.96700 115236663.65000      2551.07300                
G19  21627887.67500 113655316.84200     -2182.80600                
G22  23669858.35500 124385945.19300      2952.62700                
G23  20743780.46300 109009302.08400     -1187.33900                
G27  21279432.12100 111824170.54900      1898.57200                
G28  24165362.50200 126989837.05900     -3015.37000                
E01        31.20000       163.95500         2.83000                
E02        23.09700       121.37400         7.73600                
E03         9.49100        49.87600         9.52400                
E04         9.30700        48.90700        -9.48600                
E05        22.94700       120.58500        -7.78600                
E06        31.14400       163.66100        -2.90200                
> 2025 04 22 14 00 52.0000000  0 16
G03  24450488.55800 128488184.59800      1643.54500                
G09  24286421.12500 127626004.41800      -436.48300                
G14  20694544.93200 108750567.62400      -240.16700                
G15  24918520.78000 130947710.52200     -4067.45200                
G18  21928322.63000 115234113.18600      2549.85000                
G19  21628302.99000 113657499.33700     -2182.19700                
G22  23669296.57300 124382993.00500      2951.76200                
G23  20744006.42200 109010489.50800     -1187.52000                
G27  21279070.81100 111822271.85100      1898.82700                
G28  24165936.32000 126992852.49100     -3015.53500                
E01        30.59400       160.77100         3.53500                
E02        21.57900       113.39600         8.21400                
E03         7.72600        40.59800         8.94400                
E04        11.13800        58.53000        -9.71000                
E05        24.38000       128.11600        -7.27000                
E06        31.62800       166.20500        -2.18400                
> 2025 04 22 14 00 53.0000000  0 16
G03  24450175.77900 128486540.93200      1643.75800                
G09  24286504.37700 127626441.91100      -438.50300                
G14  20694590.74300 108750808.36500      -241.30100                
G15  24919294.67800 130951777.38400     -4066.27800                
G18  21927837.52300 115231563.93400      2548.65200                
G19  21628718.19300 113659681.24500     -2181.63400                
G22  23668734.94000 124380041.60600      2951.05100                
G23  20744232.42200 109011677.14400     -1187.76300                
G27  21278709.44800 111820372.87700      1899.12200                
G28  24166510.18600 126995868.17700     -3015.87900                
E01        29.85500       156.89000         4.22400                
E02        19.97400       104.96200         8.64500                
E03         6.13500        32.24000         7.59300                
E04        12.98800        68.25400        -9.70900                
E05        25.71100       135.11200        -6.71600                
E06        31.97400       168.02600        -1.45600                
> 2025 04 22 14 00 54.0000000  0 16
G03  24449862.97500 128484897.13300      1643.80700                
G09  24286588.01300 127626881.41700      -440.50500                
G14  20694636.76300 108751050.19800      -242.35100                
G15  24920068.34400 130955843.02700     -4065.01700                
G18  21927352.64100 115229015.86100      2547.49500                
G19  21629133.29500 113661862.62000     -2181.13300                
G22  23668173.42700 124377090.83800      2950.50300                
G23  20744458.47300 109012865.05400     -1188.07000                
G27  21278348.02700 111818473.59600      1899.43800                
G28  24167084.13400 126998884.29600     -3016.40000                
E01        28.98800       152.33100         4.89200                
E02        18.29200        96.12300         9.02300                
E03         4.93300        25.92200         4.71100                
E04        14.82400        77.90100        -9.56600                
E05        26.93300       141.53600        -6.12700                
E06        32.18200       169.11600        -0.72200                
> 2025 04 22 14 00 55.0000000  0 16
G03  24449550.17700 128483253.37100      1643.68300                
G09  24286672.02500 127627322.90600      -442.46500                
G14  20694682.97300 108751293.03600      -243.31000                
G15  24920841.76400 130959907.37600     -4063.69300                
G18  21926867.97400 115226468.91500      2546.39700                
G19  21629548.30900 113664043.53100     -2180.70900                
G22  23667612.00300 124374140.53300      2950.12400                
G23  20744684.59000 109014053.30300     -1188.44200                
G27  21277986.54500 111816573.99300      1899.76200                
G28  24167658.19800 127001901.02400     -3017.09600                
E01        27.99500       147.11400         5.53700                
E02        16.54400        86.93800         9.33700                
E03         4.47300        23.50400        -0.11700                
E04        16.62300        87.35300        -9.32400                
E05        28.04100       147.35600        -5.50800                
E06        32.24900       169.46800         0.01600                
> 2025 04 22 14 00 56.0000000  0 16
G03  24449237.42000 128481609.82300      1643.37900                
G09  24286756.40500 127627766.32500      -444.36100                
G14  20694729.35800 108751536.78600      -244.17500                
G15  24921614.92800 130963970.37900     -4062.33000                
G18  21926383.50800 115223923.03200      2545.37400                
G19  21629963.25000 113666224.06300     -2180.37600                
G22  23667050.63500 124371190.52100      2949.91800                
G23  20744910.78300 109015241.95700     -1188.87800                
G27  21277625.00200 111814674.07000      1900.07600                
G28  24168232.41100 127004918.53400     -3017.96100                
E01        26.88200       141.26600         6.15400                
E02        14.74300        77.47400         9.57500                
E03         4.97300        26.13200        -4.88000                
E04        18.36800        96.52500        -9.00700                
E05        29.02800       152.54400        -4.86300                
E06        32.17500       169.08300         0.75500                
> 2025 04 22 14 00 57.0000000  0 16
G03  24448924.73900 128479966.67100      1642.89100                
G09  24286841.13800 127628211.59800      -446.16900                
G14  20694775.89700 108751781.35300      -244.94300                
G15  24922387.83000 130968032.01000     -4060.95200                
G18  21925899.22900 115221378.13100      2544.43900                
G19  21630378.13800 113668404.31200     -2180.14600                
G22  23666489.28900 124368240.62800      2949.88500                
G23  20745137.06600 109016431.08000     -1189.37900                
G27  21277263.40100 111812773.84400      1900.36600                
G28  24168806.80400 127007936.98800     -3018.98500                
E01        25.65500       134.81600         6.74100                
E02        12.90600        67.82100         9.71300                
E03         6.19900        32.57400        -7.67700                
E04        20.04700       105.34600        -8.62700                
E05        29.89000       157.07400        -4.19300                
E06        31.96200       167.96000         1.48900                
> 2025 04 22 14 00 58.0000000  0 16
G03  24448612.16800 128478324.09900      1642.21900                
G09  24286926.20400 127628658.62700      -447.87000                
G14  20694822.57300 108752026.63900      -245.61300                
G15  24923160.47100 130972092.26500     -4059.58300                
G18  21925415.11900 115218834.11400      2543.60400                
G19  21630792.99200 113670584.38600     -2180.02900                
G22  23665927.93300 124365290.68400      2950.02100                
G23  20745363.44900 109017620.73400     -1189.94100                
G27  21276901.74800 111810873.34800      1900.61500                
G28  24169381.40600 127010956.54000     -3020.15500                
E01        24.31900       127.79500         7.29400                
E02        11.05500        58.09600         9.70600                
E03         7.80000        40.99000        -8.98200                
E04        21.64800       113.76000        -8.19300                
E05        30.62300       160.92400        -3.50400                
E06        31.60900       166.10700         2.21700                
> 2025 04 22 14 00 59.0000000  0 16
G03  24448299.74200 128476682.29000      1641.36600                
G09  24287011.58300 127629107.29500      -449.44400                
G14  20694869.36800 108752272.54600      -246.18600                
G15  24923932.85500 130976151.16700     -4058.25000                
G18  21924931.15700 115216290.87600      2542.88200                
G19  21631207.83600 113672764.40400     -2180.03400                
G22  23665366.53500 124362340.52000      2950.32300                
G23  20745589.94600 109018810.98000     -1190.56200                
G27  21276540.05300 111808972.62800      1900.80900                
G28  24169956.24300 127013977.33100     -3021.45800                
E01        22.88100       120.24000         7.80800                
E02         9.22600        48.48400         9.46900                
E03         9.57000        50.29200        -9.53800                
E04        23.16200       121.71700        -7.71300                
E05        31.22300       164.07600        -2.79800                
E06        31.11900       163.53100         2.93400                
> 2025 04 22 14 01  0.0000000  0 16
G03  24447987.49500 128475041.42200      1640.33900                
G09  24287097.24800 127629557.46700      -450.87500                
G14  20694916.26300 108752518.98000      -246.66500                
G15  24924704.98900 130980208.76200     -4056.97400                
G18  21924447.32100 115213748.30000      2542.28100                
G19  21631622.69200 113674944.49100     -2180.16600                
G22  23664805.06600 124359389.97600      2950.77900                
G23  20745816.56500 109020001.87500     -1191.23700                
G27  21276178.32800 111807071.74800      1900.93400                
G28  24170531.34000 127016999.48300     -3022.87600                
E01        21.35000       112.19200         8.28000                
E02         7.47800        39.29700         8.80800                
E03        11.40700        59.94500        -9.72100                
E04        24.58100       129.17300        -7.19100                
E05        31.68700       166.51500        -2.07900                
E06        30.49300       160.24400         3.63700                
> 2025 04 22 14 01  1.0000000  0 16
G03  24447675.46000 128473401.66400      1639.14600                
G09  24287183.17100 127630008.99400      -452.15000                
G14  20694963.24000 108752765.84600      -247.05400                
G15  24925476.88900 130984265.12100     -4055.78000                
G18  21923963.58700 115211206.26300      2541.80800                
G19  21632037.58600 113677124.77400     -2180.42900                
G22  23664243.49500 124356438.90200      2951.38000                
G23  20746043.31800 109021193.46800     -1191.96000                
G27  21275816.58600 111805170.78200      1900.97800                
G28  24171106.71500 127020023.10300     -3024.38900                
E01        19.73300       103.69600         8.70400                
E02         5.92700        31.14800         7.28900                
E03        13.25700        69.66600        -9.69500                
E04        25.89700       136.08700        -6.63200                
E05        32.01300       168.23000        -1.34900                
E06        29.73600       156.26300         4.32300                
> 2025 04 22 14 01  2.0000000  0 16
G03  24447363.66600 128471763.17700      1637.80100                
G09  24287269.32000 127630461.71100      -453.25600                
G14  20695010.28300 108753013.05900      -247.35900                
G15  24926248.57000 130988320.33500     -4054.68800                
G18  21923479.93100 115208664.63300      2541.46700                
G19  21632452.54300 113679305.38700     -2180.82500                
G22  23663681.79700 124353487.16100      2952.11200                
G23  20746270.21200 109022385.80700     -1192.72600                
G27  21275454.84500 111803269.81800      1900.93000                
G28  24171682.38600 127023048.27400     -3025.97700                
E01        18.04000        94.80300         9.07300                
E02         4.81000        25.27400         4.11100                
E03        15.08900        79.29100        -9.53600                
E04        27.10300       142.42500        -6.03900                
E05        32.20000       169.21200        -0.61400                
E06        28.85000       151.60600         4.98800                
> 2025 04 22 14 01  3.0000000  0 16
G03  24447052.14100 128470126.10500      1636.31800                
G09  24287355.66300 127630915.44700      -454.18700                
G14  20695057.37700 108753260.53900      -247.58800                
G15  24927020.05500 130992374.51700     -4053.71800                
G18  21922996.32700 115206123.27700      2541.26000                
G19  21632867.58800 113681486.46300     -2181.35400                
G22  23663119.94900 124350534.63000      2952.95600                
G23  20746497.25600 109023578.93000     -1193.52600                
G27  21275093.12200 111801368.95200      1900.78000                
G28  24172258.36500 127026075.06200     -3027.61800                
E01        16.28400        85.57200         9.37700                
E02         4.48600        23.57600        -0.89400                
E03        16.88100        88.70800        -9.28200                
E04        28.19300       148.15500        -5.41600                
E05        32.24700       169.45700         0.12400                
E06        27.83900       146.29500         5.62900                
> 2025 04 22 14 01  4.0000000  0 16
G03  24446740.91100 128468490.57800      1634.71400                
G09  24287442.16600 127631370.02300      -454.93600                
G14  20695104.50700 108753508.21200      -247.74900                
G15  24927791.36900 130996427.79800     -4052.88900                
G18  21922512.75000 115203582.06000      2541.18700                
G19  21633282.74600 113683668.13100     -2182.01100                
G22  23662557.93100 124347581.20500      2953.89700                
G23  20746724.45500 109024772.86800     -1194.35500                
G27  21274731.43800 111799468.28900      1900.52200                
G28  24172834.65900 127029103.50800     -3029.28800                
E01        14.47700        76.07500         9.60200                
E02         5.11600        26.88500        -5.41800                
E03        18.61700        97.83200        -8.95500                
E04        29.16200       153.24800        -4.76600                
E05        32.15300       168.96300         0.86200                
E06        26.70900       140.35700         6.24200                
> 2025 04 22 14 01  5.0000000  0 16
G03  24446429.99600 128466856.70700      1633.01000                
G09  24287528.79400 127631825.25700      -455.50200                
G14  20695151.66300 108753756.01700      -247.85200                
G15  24928562.53900 131000480.32500     -4052.21400                
G18  21922029.17400 115201040.85000      2541.24600                
G19  21633698.04100 113685850.52000     -2182.79100                
G22  23661995.72700 124344626.80000      2954.91300                
G23  20746951.81400 109025967.64500     -1195.20400                
G27  21274369.81400 111797567.94200      1900.14800                
G28  24173411.27200 127032133.62900     -3030.96400                
E01        12.63600        66.40300         9.72200                
E02         6.41600        33.71600        -7.93900                
E03        20.28500       106.59800        -8.56700                
E04        30.00500       157.68000        -4.09400                
E05        31.91900       167.73400         1.59600                
E06        25.46500       133.82200         6.82400                
> 2025 04 22 14 01  6.0000000  0 16
G03  24446119.41300 128465224.58200      1631.22600                
G09  24287615.51300 127632280.96600      -455.88600                
G14  20695198.83400 108754003.90000      -247.90800                
G15  24929333.59700 131004532.26000     -4051.70600                
G18  21921545.57400 115198499.51800      2541.43100                
G19  21634113.49500 113688033.74700     -2183.68700                
G22  23661433.32300 124341671.35100      2955.98300                
G23  20747179.33500 109027163.27700     -1196.06300                
G27  21274008.27200 111795668.02800      1899.65600                
G28  24173988.20200 127035165.41900     -3032.62200                
E01        10.78600        56.68200         9.68900                
E02         8.05200        42.31300        -9.09800                
E03        21.87400       114.94800        -8.12600                
E04        30.71900       161.42900        -3.40200                
E05        31.54600       165.77400         2.32200                
E06        24.11400       126.72100         7.37100                
> 2025 04 22 14 01  7.0000000  0 16
G03  24445809.17500 128463594.27200      1629.38500                
G09  24287702.28700 127632736.97000      -456.09300                
G14  20695246.01200 108754251.82100      -247.93000                
G15  24930104.57500 131008583.77500     -4051.37400                
G18  21921061.92800 115195957.93900      2541.73600                
G19  21634529.13000 113690217.92300     -2184.68900                
G22  23660870.71300 124338714.81300      2957.08400                
G23  20747407.02000 109028359.77000     -1196.92500                
G27  21273646.83500 111793768.66600      1899.04400                
G28  24174565.44400 127038198.84800     -3034.23800                
E01         8.96400        47.10700         9.40600                
E02         9.83700        51.69100        -9.58300                
E03        23.37500       122.83500        -7.64000                
E04        31.29900       164.47800        -2.69400                
E05        31.03600       163.09300         3.03700                
E06        22.66200       119.09200         7.88000                
> 2025 04 22 14 01  8.0000000  0 16
G03  24445499.29100 128461965.81900      1627.51200                
G09  24287789.08500 127633193.09600      -456.13200                
G14  20695293.19100 108754499.75200      -247.92900                
G15  24930875.50600 131012635.04900     -4051.22500                
G18  21920578.21300 115193416.00000      2542.15100                
G19  21634944.96500 113692403.15000     -2185.78600                
G22  23660307.89200 124335757.16800      2958.19500                
G23  20747634.86900 109029557.12300     -1197.78100                
G27  21273285.52600 111791869.97500      1898.31400                
G28  24175142.98900 127041233.86300     -3035.79100                
E01         7.23600        38.02300         8.65500                
E02        11.67800        61.36800        -9.72800                
E03        24.77900       130.21400        -7.11200                
E04        31.74300       166.81200        -1.97300                
E05        30.39100       159.70400         3.73800                
E06        21.11800       110.97600         8.34500                
> 2025 04 22 14 01  9.0000000  0 16
G03  24445189.76400 128460339.24700      1625.63000                
G09  24287875.87500 127633649.18000      -456.01200                
G14  20695340.37000 108754747.67600      -247.91900                
G15  24931646.42700 131016686.26600     -4051.26100                
G18  21920094.40900 115190873.59600      2542.66500                
G19  21635361.01600 113694589.51500     -2186.96300                
G22  23659744.86000 124332798.41700      2959.29100                
G23  20747862.87900 109030755.32500     -1198.62200                
G27  21272924.36800 111789972.07300      1897.46600                
G28  24175720.82000 127044270.38900     -3037.25700                
E01         5.73000        30.10900         6.95100                
E02        13.52700        71.08400        -9.67900                
E03        26.07900       137.04700        -6.54800                
E04        32.04900       168.42100        -1.24200                
E05        29.61400       155.62300         4.42100                
E06        19.49000       102.41800         8.76100                
> 2025 04 22 14 01 10.0000000  0 16
G03  24444880.59500 128458714.55000      1623.76500                
G09  24287962.62800 127634105.07100      -455.74700                
G14  20695387.54600 108754995.59100      -247.91200                
G15  24932417.37300 131020737.61100     -4051.48200                
G18  21919610.50000 115188330.63400      2543.26400                
G19  21635777.29800 113696777.09200     -2188.20700                
G22  23659181.62300 124329838.58600      2960.35100                
G23  20748091.04700 109031954.35800     -1199.44000                
G27  21272563.38100 111788075.07400      1896.50800                
G28  24176298.92100 127047308.33000     -3038.61700                
E01         4.70400        24.72000         3.46900                
E02        15.35400        80.68500        -9.50500                
E03        27.26900       143.29800        -5.95000                
E04        32.21600       169.29500        -0.50600                
E05        28.70900       150.86900         5.08300                
E06        17.78700        93.47200         9.12100                
> 2025 04 22 14 01 11.0000000  0 16
G03  24444571.77700 128457091.70000      1621.94000                
G09  24288049.31900 127634560.63200      -455.35400                
G14  20695434.72300 108755243.50600      -247.92200                
G15  24933188.37700 131024789.26800     -4051.88400                
G18  21919126.46900 115185787.03500      2543.93500                
G19  21636193.82200 113698965.94000     -2189.50100                
G22  23658618.19000 124326877.72400      2961.35100                
G23  20748319.36800 109033154.19300     -1200.22700                
G27  21272202.58700 111786179.08800      1895.44400                
G28  24176877.26900 127050347.57000     -3039.85300                
E01         4.52200        23.76100        -1.65400                
E02        17.13800        90.06300        -9.23900                
E03        28.34200       148.93700        -5.32300                
E04        32.24200       169.43300         0.23200                
E05        27.68100       145.46500         5.72000                
E06        16.02200        84.19800         9.41500                
> 2025 04 22 14 01 12.0000000  0 16
G03  24444263.30000 128455470.64500      1620.17900                
G09  24288135.92300 127635015.74300      -454.85100                
G14  20695481.90400 108755491.44500      -247.96200                
G15  24933959.47600 131028841.41600     -4052.46000                
G18  21918642.30500 115183242.73700      2544.66100                
G19  21636610.59600 113701156.10100     -2190.82900                
G22  23658054.57300 124323915.90000      2962.27100                
G23  20748547.83500 109034354.79700     -1200.97500                
G27  21271842.00400 111784284.21300      1894.28500                
G28  24177455.84000 127053387.97800     -3040.94900                
E01         5.27300        27.71000        -5.90600                
E02        18.86600        99.13900        -8.90200                
E03        29.29300       153.93500        -4.67000                
E04        32.12800       168.83200         0.97000                
E05        26.53400       139.43800         6.32900                
E06        14.20900        74.66900         9.62700                
> 2025 04 22 14 01 13.0000000  0 16
G03  24443955.15100 128453851.31000      1618.50400                
G09  24288222.42400 127635470.30400      -454.25900                
G14  20695529.09700 108755739.44300      -248.04200                
G15  24934730.69900 131032894.22200     -4053.20000                
G18  21918157.99900 115180697.69100      2545.42600                
G19  21637027.62400 113703347.59900     -2192.17400                
G22  23657490.79100 124320953.20600      2963.09100                
G23  20748776.44100 109035556.12700     -1201.67800                
G27  21271481.65000 111782390.54200      1893.04000                
G28  24178034.60400 127056429.40500     -3041.89100                
E01         6.63900        34.89000        -8.17200                
E02        20.52300       107.84700        -8.50600                
E03        30.11800       158.26900        -3.99400                
E04        31.87300       167.49500         1.70200                
E05        25.27400       132.81800         6.90600                
E06        12.36600        64.98100         9.72800                
> 2025 04 22 14 01 14.0000000  0 16
G03  24443647.31000 128452233.59800      1616.93700                
G09  24288308.80400 127635924.23800      -453.59900                
G14  20695576.30900 108755987.54700      -248.17600                
G15  24935502.07800 131036947.84600     -4054.09200                
G18  21917673.54500 115178151.86900      2546.21200                
G19  21637444.90800 113705540.44200     -2193.51700                
G22  23656926.86400 124317989.74800      2963.79300                
G23  20749005.17500 109036758.13400     -1202.33000                
G27  21271121.54100 111780498.15400      1891.72100                
G28  24178613.53200 127059471.69300     -3042.66900                
E01         8.30600        43.64600        -9.19900                
E02        22.09900       116.13300        -8.05800                
E03        30.81200       161.91800        -3.30000                
E04        31.48000       165.43000         2.42700                
E05        23.90800       125.63800         7.44800                
E06        10.51700        55.26700         9.66700                
> 2025 04 22 14 01 15.0000000  0 16
G03  24443339.75700 128450617.39100      1615.49500                
G09  24288395.05500 127636377.48700      -452.89500                
G14  20695623.55300 108756235.81600      -248.37300                
G15  24936273.64000 131041002.43100     -4055.12000                
G18  21917188.94100 115175605.25800      2547.00200                
G19  21637862.44600 113707734.62000     -2194.84100                
G22  23656362.81600 124315025.65300      2964.36200                
G23  20749234.02900 109037960.76600     -1202.92500                
G27  21270761.68800 111778607.11600      1890.34200                
G28  24179192.59200 127062514.67300     -3043.27400                
E01        10.10300        53.09100        -9.62100                
E02        23.58700       123.94800        -7.56500                
E03        31.37300       164.86400        -2.59000                
E04        30.95000       162.64500         3.14100                
E05        22.44200       117.93500         7.95000                
E06         8.70400        45.73800         9.33300                
> 2025 04 22 14 01 16.0000000  0 16
G03  24443032.46400 128449002.55600      1614.19700                
G09  24288481.16900 127636830.02100      -452.17100                
G14  20695670.84100 108756484.31800      -248.64300                
G15  24937045.40900 131045058.10500     -4056.26600                
G18  21916704.18800 115173057.86200      2547.77700                
G19  21638280.23300 113709930.10500     -2196.12800                
G22  23655798.67300 124312061.06200      2964.78300                
G23  20749462.98900 109039163.96300     -1203.46100                
G27  21270402.10300 111776717.48200      1888.91600                
G28  24179771.75000 127065558.17000     -3043.70200                
E01        11.94800        62.78600        -9.73100                
E02        24.97600       131.25000        -7.03200                
E03        31.79700       167.09300        -1.86700                
E04        30.28600       159.15400         3.83900                
E05        20.88500       109.75200         8.40900                
E06         6.99700        36.77000         8.48200                
> 2025 04 22 14 01 17.0000000  0 16
G03  24442725.40300 128447388.94200      1613.05500                
G09  24288567.14500 127637281.83000      -451.45100                
G14  20695718.18900 108756733.12900      -248.99400                
G15  24937817.40600 131049114.97500     -4057.50900                
G18  21916219.29000 115170509.70600      2548.52000                
G19  21638698.26100 113712126.85300     -2197.36300                
G22  23655234.46400 124309096.12800      2965.04700                
G23  20749692.04600 109040367.66400     -1203.93300                
G27  21270042.79200 111774829.29000      1887.45900                
G28  24180350.97300 127068602.00600     -3043.95200                
E01        13.79500        72.49400        -9.66100                
E02        26.26100       138.00000        -6.46200                
E03        32.08300       168.59500        -1.13600                
E04        29.49000       154.97300         4.51900                
E05        19.24500       101.13500         8.81700                
E06         5.54100        29.12100         6.57300                
> 2025 04 22 14 01 18.0000000  0 16
G03  24442418.54400 128445776.38600      1612.08200                
G09  24288652.98700 127637732.93200      -450.75900                
G14  20695765.61100 108756982.33400      -249.43200                
G15  24938589.64600 131053173.12700     -4058.82800                
G18  21915734.25500 115167960.83000      2549.21400                
G19  21639116.51600 113714324.80100     -2198.52800                
G22  23654670.22200 124306131.01200      2965.14500                
G23  20749921.18600 109041571.80500     -1204.34000                
G27  21269683.76000 111772942.56400      1885.98700                
G28  24180930.22600 127071646.00200     -3044.02400                
E01        15.61700        82.06800        -9.47100                
E02        27.43300       144.16400        -5.86000                
E03        32.22900       169.36200        -0.39900                
E04        28.56700       150.12300         5.17700                
E05        17.53300        92.13700         9.16800                
E06         4.61700        24.26300         2.78300                
> 2025 04 22 14 01 19.0000000  0 16
G03  24442111.85300 128444164.71500      1611.28600                
G09  24288738.70200 127638183.36600      -450.12000                
G14  20695813.12500 108757232.02400      -249.96300                
G15  24939362.14300 131057232.62700     -4060.20000                
G18  21915249.09400 115165411.29200      2549.84200                
G19  21639534.98600 113716523.87500     -2199.61100                
G22  23654105.97600 124303165.88400      2965.07200                
G23  20750150.39800 109042776.32000     -1204.68100                
G27  21269325.00800 111771057.31000      1884.51500                
G28  24181509.47700 127074689.98400     -3043.92300                
E01        17.39400        91.40700        -9.19400                
E02        28.48900       149.71000        -5.22900                
E03        32.23400       169.39200         0.34000                
E04        27.52100       144.62600         5.81100                
E05        15.76000        82.82000         9.45100                
E06         4.57800        24.05700        -2.39300                
> 2025 04 22 14 01 20.0000000  0 16
G03  24441805.29700 128442553.75000      1610.67100                
G09  24288824.30200 127638633.19700      -449.55600                
G14  20695860.75000 108757482.29200      -250.58900                
G15  24940134.90500 131061293.51500     -4061.60000                
G18  21914763.82100 115162861.16400      2550.39100                
G19  21639953.65300 113718723.98400     -2200.59600                
G22  23653541.76200 124300200.91500      2964.82600                
G23  20750379.66800 109043981.14300     -1204.95600                
G27  21268966.53500 111769173.52200      1883.06000                
G28  24182088.69200 127077733.78200     -3043.65700                
E01        19.11200       100.43300        -8.84800                
E02        29.42200       154.61300        -4.57200                
E03        32.09900       168.68400         1.07700                
E04        26.35800       138.51100         6.41500                
E05        13.94100        73.26200         9.64900                
E06         5.44300        28.60600        -6.35000                
> 2025 04 22 14 01 21.0000000  0 16
G03  24441498.84000 128440943.30800      1610.24100                
G09  24288909.80300 127639082.51000      -449.08900                
G14  20695908.50300 108757733.23500      -251.31400                
G15  24940907.93300 131065355.80800     -4063.00500                
G18  21914278.45200 115160310.53300      2550.84500                
G19  21640372.49700 113720925.02600     -2201.47400                
G22  23652977.61000 124297236.27800      2964.40800                
G23  20750608.98500 109045186.21000     -1205.16900                
G27  21268608.33600 111767291.17500      1881.63600                
G28  24182667.84200 127080777.23600     -3043.23800                
E01        20.75800       109.08300        -8.44400                
E02        30.22800       158.84800        -3.89400                
E03        31.82500       167.24100         1.80800                
E04        25.08200       131.80700         6.98800                
E05        12.09500        63.56100         9.73100                
E06         6.86900        36.09900        -8.37900                
> 2025 04 22 14 01 22.0000000  0 16
G03  24441192.44700 128439333.20400      1609.99300                
G09  24288995.22700 127639531.41300      -448.73800                
G14  20695956.40300 108757984.95200      -252.13600                
G15  24941681.22800 131069419.49700     -4064.38800                
G18  21913793.00700 115157759.50100      2551.19300                
G19  21640791.49800 113723126.88800     -2202.23500                
G22  23652413.55400 124294272.14400      2963.82200                
G23  20750838.33600 109046391.45800     -1205.32000                
G27  21268250.40400 111765410.23000      1880.26000                
G28  24183246.89900 127083820.19900     -3042.67700                
E01        22.32200       117.30300        -7.98900                
E02        30.90300       162.39500        -3.19700                
E03        31.41200       165.07000         2.53200                
E04        23.70100       124.54800         7.52400                
E05        10.24900        53.85800         9.63800                
E06         8.56200        44.99600        -9.28900                
> 2025 04 22 14 01 23.0000000  0 16
G03  24440886.08500 128437723.25900      1609.92300                
G09  24289080.59600 127639980.03100      -448.52200                
G14  20696004.46800 108758237.53900      -253.05400                
G15  24942454.78100 131073484.54900     -4065.72600                
G18  21913307.50600 115155208.17800      2551.42500                
G19  21641210.63100 113725329.44900     -2202.87100                
G22  23651849.62500 124291308.67700      2963.07500                
G23  20751067.71000 109047596.82800     -1205.41400                
G27  21267892.72900 111763530.63100      1878.94400                
G28  24183825.83700 127086862.53700     -3041.99200                
E01        23.79500       125.04600        -7.49000                
E02        31.44300       165.23600        -2.48400                
E03        30.86200       162.18100         3.24300                
E04        22.22100       116.77200         8.02000                
E05         8.44500        44.38100         9.24900                
E06        10.37100        54.49800        -9.65200                
> 2025 04 22 14 01 24.0000000  0 16
G03  24440579.71900 128436113.29800      1610.02400                
G09  24289165.93800 127640428.50600      -448.45500                
G14  20696052.71800 108758491.09000      -254.06400                
G15  24943228.58300 131077550.90600     -4066.99600                
G18  21912821.97300 115152656.68400      2551.53400                
G19  21641629.87300 113727532.58200     -2203.37800                
G22  23651285.85300 124288346.03300      2962.17700                
G23  20751297.09700 109048802.26600     -1205.45600                
G27  21267535.29600 111761652.31200      1877.70300                
G28  24184404.63300 127089904.13500     -3041.19900                
E01        25.17000       132.27000        -6.95100                
E02        31.84700       167.36000        -1.76000                
E03        30.17800       158.58900         3.93900                
E04        20.65100       108.52200         8.47200                
E05         6.76400        35.54600         8.28800                
E06        12.21800        64.20700        -9.73000                
> 2025 04 22 14 01 25.0000000  0 16
G03  24440273.31900 128434503.15400      1610.28500                
G09  24289251.28200 127640876.99400      -448.55000                
G14  20696101.16800 108758745.69600      -255.16200                
G15  24944002.61900 131081618.48900     -4068.17400                
G18  21912336.43100 115150105.14600      2551.51200                
G19  21642049.19900 113729736.15400     -2203.75100                
G22  23650722.26400 124285384.35700      2961.14100                
G23  20751526.48800 109050007.72200     -1205.45100                
G27  21267178.09200 111759775.19100      1876.54800                
G28  24184983.27100 127092944.89400     -3040.32000                
E01        26.43900       138.93600        -6.37600                
E02        32.11300       168.75500        -1.02800                
E03        29.36400       154.30900         4.61600                
E04        19.00000        99.84600         8.87200                
E05         5.36500        28.19200         6.15300                
E06        14.06300        73.90300        -9.63900                
> 2025 04 22 14 01 26.0000000  0 16
G03  24439966.85600 128432892.67600      1610.69100                
G09  24289336.66100 127641325.66300      -448.81800                
G14  20696149.83400 108759001.44100      -256.34000                
G15  24944776.86800 131085687.19600     -4069.24100                
G18  21911850.90600 115147553.69500      2551.35800                
G19  21642468.58300 113731940.03300     -2203.99200                
G22  23650158.88500 124282423.78000      2959.98200                
G23  20751755.87400 109051213.15300     -1205.40600                
G27  21266821.09900 111757899.17900      1875.48900                
G28  24185561.73400 127095984.74100     -3039.37600                
E01        27.59500       145.01200        -5.77000                
E02        32.23800       169.41400        -0.29100                
E03        28.42300       149.36300         5.27100                
E04        17.27800        90.79700         9.21400                
E05         4.55000        23.91000         2.06000                
E06        15.88000        83.44800        -9.43500                
> 2025 04 22 14 01 27.0000000  0 16
G03  24439660.30200 128431281.72600      1611.22700                
G09  24289422.10800 127641774.68900      -449.26400                
G14  20696198.73200 108759258.40100      -257.59100                
G15  24945551.30800 131089756.90800     -4070.17800                
G18  21911365.42400 115145002.46600      2551.06900                
G19  21642888.00100 113734144.08700     -2204.10100                
G22  23649595.73800 124279464.41800      2958.71600                
G23  20751985.24800 109052418.52200     -1205.32900                
G27  21266464.29700 111756024.17300      1874.53500                
G28  24186140.01400 127099023.62000     -3038.38900                
E01        28.63300       150.46600        -5.13500                
E02        32.22400       169.33600         0.44800                
E03        27.35900       143.77500         5.90100                
E04        15.49800        81.44000         9.48600                
E05         4.65500        24.46000        -3.10000                
E06        17.64900        92.74600        -9.14700                
> 2025 04 22 14 01 28.0000000  0 16
G03  24439353.63500 128429670.18100      1611.87500                
G09  24289507.65700 127642224.25200      -449.89300                
G14  20696247.87400 108759516.64400      -258.90500                
G15  24946325.91300 131093827.48200     -4070.96700                
G18  21910880.00900 115142451.59200      2550.64700                
G19  21643307.42700 113736348.18700     -2204.08300                
G22  23649032.83900 124276506.36700      2957.36300                
G23  20752214.60500 109053623.80200     -1205.22800                
G27  21266107.66700 111754150.06700      1873.69300                
G28  24186718.10300 127102061.50000     -3037.38300                
E01        29.54700       155.27300        -4.47500                
E02        32.06800       168.52000         1.18400                
E03        26.17900       137.57200         6.50100                
E04        13.67300        71.85400         9.66900                
E05         5.62600        29.56500        -6.75000                
E06        19.35700       101.72100        -8.79200                
> 2025 04 22 14 01 29.0000000  0 16
G03  24439046.83600 128428057.94100      1612.61400                
G09  24289593.34300 127642674.53500      -450.70400                
G14  20696297.27100 108759776.22800      -260.27100                
G15  24947100.65300 131097898.76800     -4071.59600                
G18  21910394.68600 115139901.20600      2550.09600                
G19  21643726.83800 113738552.20700     -2203.94400                
G22  23648470.20500 124273549.70400      2955.94300                
G23  20752443.94100 109054828.97100     -1205.11000                
G27  21265751.18500 111752276.74500      1872.96600                
G28  24187296.00100 127105098.37500     -3036.38100                
E01        30.33400       159.40900        -3.79300                
E02        31.77300       166.96900         1.91500                
E03        24.88700       130.78400         7.06800                
E04        11.82500        62.14200         9.73000                
E05         7.10500        37.33900        -8.56400                
E06        20.99200       110.31100        -8.38000                
> 2025 04 22 14 01 30.0000000  0 16
G03  24438739.88900 128426444.92600      1613.42200                
G09  24289679.20100 127643125.72000      -451.69600                
G14  20696346.93200 108760037.20000      -261.67800                
G15  24947875.49600 131101970.59700     -4072.05400                
G18  21909909.48100 115137351.43400      2549.42100                
G19  21644146.21200 113740756.03100     -2203.69300                
G22  23647907.84500 124270594.48500      2954.47900                
G23  20752673.25400 109056034.01800     -1204.98500                
G27  21265394.83100 111750404.09100      1872.35800                
G28  24187873.71100 127108134.26000     -3035.40800                
E01        30.99000       162.85400        -3.09400                
E02        31.34000       164.69200         2.63700                
E03        23.49100       123.44800         7.59900                
E04         9.98200        52.45500         9.60400                
E05         8.82200        46.36100        -9.36700                
E06        22.54300       118.46400        -7.91900                
> 2025 04 22 14 01 31.0000000  0 16
G03  24438432.78400 128424831.07900      1614.27600                
G09  24289765.26400 127643577.98400      -452.86100                
G14  20696396.86400 108760299.59400      -263.11500                
G15  24948650.40900 131106042.79400     -4072.33100                
G18  21909424.41400 115134802.39400      2548.63100                
G19  21644565.52800 113742959.55300     -2203.34000                
G22  23647345.76700 124267640.74300      2952.99300                
G23  20752902.54300 109057238.93900     -1204.86000                
G27  21265038.58100 111748531.98500      1871.87000                
G28  24188451.24000 127111169.19700     -3034.48700                
E01        31.51100       165.59100        -2.38000                
E02        30.77000       161.70000         3.34600                
E03        21.99800       115.60000         8.08900                
E04         8.19000        43.03900         9.15400                
E05        10.64000        55.91200        -9.67800                
E06        24.00200       126.13400        -7.41300                
> 2025 04 22 14 01 32.0000000  0 16
G03  24438125.51500 128423216.36400      1615.15000                
G09  24289851.56400 127644031.49600      -454.19000                
G14  20696447.07200 108760563.43400      -264.56700                
G15  24949425.35800 131110115.17700     -4072.42500                
G18  21908939.50900 115132254.19800      2547.73600                
G19  21644984.76900 113745162.67600     -2202.89900                
G22  23646783.97200 124264688.48800      2951.50700                
G23  20753131.80900 109058443.73900     -1204.74600                
G27  21264682.41300 111746660.30800      1871.49900                
G28  24189028.60100 127114203.24800     -3033.64000                
E01        31.89500       167.60900        -1.65400                
E02        30.06700       158.00500         4.04000                
E03        20.41600       107.28500         8.53300                
E04         6.53700        34.35400         8.06900                
E05        12.48900        65.63000        -9.72600                
E06        25.36200       133.27800        -6.86900                
> 2025 04 22 14 01 33.0000000  0 16
G03  24437818.07800 128421600.77500      1616.02200                
G09  24289938.13200 127644486.41400      -455.67100                
G14  20696497.55600 108760828.72900      -266.02300                
G15  24950200.30700 131114187.56000     -4072.33300                
G18  21908454.78300 115129706.94600      2546.74700                
G19  21645403.91800 113747365.31900     -2202.38100                
G22  23646222.45700 124261737.70900      2950.04600                
G23  20753361.05500 109059648.43400     -1204.65000                
G27  21264326.30400 111744788.94400      1871.24200                
G28  24189605.80900 127117236.49700     -3032.88800                
E01        32.14000       168.89700        -0.92100                
E02        29.23400       153.62700         4.71400                
E03        18.75300        98.55000         8.92600                
E04         5.20000        27.32800         5.69000                
E05        14.33100        75.31100        -9.61600                
E06        26.61400       139.86000        -6.28900                
> 2025 04 22 14 01 34.0000000  0 16
G03  24437510.47800 128419984.32600      1616.86600                
G09  24290024.99600 127644942.88400      -457.29100                
G14  20696548.31600 108761095.47600      -267.46800                
G15  24950975.22100 131118259.76000     -4072.05600                
G18  21907970.25300 115127160.72300      2545.67800                
G19  21645822.96200 113749567.41300     -2201.80400                
G22  23645661.21600 124258788.37000      2948.63100                
G23  20753590.28500 109060853.04700     -1204.58100                
G27  21263970.23400 111742917.78300      1871.09300                
G28  24190182.88500 127120269.05000     -3032.25000                
E01        32.24500       169.44900        -0.18300                
E02        28.27500       148.58500         5.36500                
E03        17.02200        89.45200         9.25900                
E04         4.50300        23.66600         1.31000                
E05        16.14200        84.82500        -9.39800                
E06        27.75400       145.84600        -5.67900                
> 2025 04 22 14 01 35.0000000  0 16
G03  24437202.72200 128418367.05600      1617.65900                
G09  24290112.17900 127645401.03500      -459.03000                
G14  20696599.34900 108761363.65800      -268.89100                
G15  24951750.06500 131122331.59300     -4071.60100                
G18  21907485.93300 115124615.60300      2544.54500                
G19  21646241.89200 113751768.90600     -2201.18300                
G22  23645100.23900 124255840.41300      2947.28400                
G23  20753819.50500 109062057.60600     -1204.54600                
G27  21263614.18300 111741046.72000      1871.04500                
G28  24190759.85100 127123301.02900     -3031.74300                
E01        32.21000       169.26300         0.55500                
E02        27.19400       142.90500         5.99100                
E03        15.23400        80.05600         9.51900                
E04         4.75000        24.96400        -3.76700                
E05        17.90300        94.08000        -9.09900                
E06        28.77400       151.20800        -5.04000                
> 2025 04 22 14 01 36.0000000  0 16
G03  24436894.82200 128416749.03000      1618.37700                
G09  24290199.70300 127645860.97700      -460.87000                
G14  20696650.65000 108761633.24600      -270.27800                
G15  24952524.80600 131126402.88500     -4070.97600                
G18  21907001.83300 115122071.64100      2543.36400                
G19  21646660.70200 113753969.76400     -2200.53600                
G22  23644539.51000 124252893.76200      2946.02500                
G23  20754048.72200 109063262.15200     -1204.55400                
G27  21263258.13200 111739175.65900      1871.08700                
G28  24191336.73500 127126332.57400     -3031.38300                
E01        32.03400       168.33900         1.29100                
E02        25.99700       136.61400         6.58600                
E03        13.40500        70.44400         9.68700                
E04         5.81900        30.57900        -7.10900                
E05        19.60100       103.00200        -8.73500                
E06        29.67000       155.91800        -4.37600                
> 2025 04 22 14 01 37.0000000  0 16
G03  24436586.79400 128415130.33100      1618.99900                
G09  24290287.58500 127646322.80100      -462.78900                
G14  20696702.21000 108761904.19800      -271.61800                
G15  24953299.41300 131130473.47100     -4070.19100                
G18  21906517.96100 115119528.87700      2542.15100                
G19  21647079.38700 113756169.96800     -2199.87900                
G22  23643979.01000 124249948.31600      2944.87500                
G23  20754277.94500 109064466.72800     -1204.60900                
G27  21262902.06500 111737304.51500      1871.21000                
G28  24191913.56500 127129363.83600     -3031.18200                
E01        31.71900       166.68200         2.02100                
E02        24.68900       129.74300         7.14800                
E03        11.55600        60.72500         9.72600                
E04         7.34600        38.60300        -8.72700                
E05        21.22400       111.53100        -8.31500                
E06        30.43800       159.95300        -3.69200                
> 2025 04 22 14 01 38.0000000  0 16
G03  24436278.65800 128413511.06600      1619.50500                
G09  24290375.83800 127646786.57400      -464.76500                
G14  20696754.02100 108762176.46300      -272.90000                
G15  24954073.85600 131134543.19800     -4069.26100                
G18  21906034.32100 115116987.33500      2540.92500                
G19  21647497.94700 113758369.51900     -2199.23200                
G22  23643418.71800 124247003.96000      2943.84800                
G23  20754507.18400 109065671.38700     -1204.71900                
G27  21262545.96800 111735433.21300      1871.39900                
G28  24192490.37300 127132394.98200     -3031.14900                
E01        31.26500       164.30000         2.74100                
E02        23.27800       122.32900         7.67400                
E03         9.71600        51.05900         9.56400                
E04         9.08400        47.73500        -9.43600                
E05        22.76200       119.61600        -7.84700                
E06        31.07400       163.29600        -2.99000                
> 2025 04 22 14 01 39.0000000  0 16
G03  24435970.43800 128411891.36200      1619.87600                
G09  24290464.47100 127647252.34200      -466.77400                
G14  20696806.06900 108762449.97600      -274.11400                
G15  24954848.11000 131138611.93000     -4068.20300                
G18  21905550.91500 115114447.01800      2539.70300                
G19  21647916.38700 113760568.43500     -2198.61000                
G22  23642858.60800 124244060.56200      2942.96100                
G23  20754736.45000 109066876.18400     -1204.88700                
G27  21262189.83000 111733561.69400      1871.64300                
G28  24193067.19100 127135426.18100     -3031.29100                
E01        30.67600       161.20400         3.44900                
E02        21.77100       114.41000         8.15700                
E03         7.93800        41.71300         9.04700                
E04        10.90900        57.32800        -9.69700                
E05        24.20800       127.21100        -7.33600                
E06        31.57500       165.92900        -2.27400                
> 2025 04 22 14 01 40.0000000  0 16
G03  24435662.16200 128410271.36100      1620.09800                
G09  24290553.48700 127647720.12500      -468.79300                
G14  20696858.34000 108762724.66600      -275.25100                
G15  24955622.15200 131142679.54800     -4067.03500                
G18  21905067.74000 115111907.91400      2538.50200                
G19  21648334.71200 113762766.74900     -2198.03300                
G22  23642298.65200 124241117.97600      2942.22600                
G23  20754965.75300 109068081.17900     -1205.11700                
G27  21261833.64100 111731689.91000      1871.92600                
G28  24193644.05300 127138457.61200     -3031.61100                
E01        29.95400       157.40800         4.13900                
E02        20.17700       106.03000         8.59500                
E03         6.31700        33.19500         7.82400                
E04        12.75900        67.05100        -9.71800                
E05        25.55200       134.27500        -6.78600                
E06        31.93900       167.84000        -1.54700                
> 2025 04 22 14 01 41.0000000  0 16
G03  24435353.85900 128408651.21700      1620.15700                
G09  24290642.88600 127648189.92100      -470.79500                
G14  20696910.82000 108763000.45000      -276.30400                
G15  24956395.96300 131146745.95100     -4065.77900                
G18  21904584.78900 115109369.99200      2537.34100                
G19  21648752.93300 113764964.51400     -2197.51500                
G22  23641738.82100 124238176.04400      2941.65300                
G23  20755195.10600 109069286.43700     -1205.41200                
G27  21261477.39600 111729817.83000      1872.23200                
G28  24194220.99300 127141489.45200     -3032.11000                
E01        29.10200       152.93200         4.81100                
E02        18.50400        97.23800         8.97900                
E03         5.05000        26.53500         5.18100                
E04        14.59800        76.71400        -9.59000                
E05        26.78800       140.77200        -6.20200                
E06        32.16400       169.02100        -0.81300                
> 2025 04 22 14 01 42.0000000  0 16
G03  24435045.56100 128407031.10100      1620.04300                
G09  24290732.66300 127648661.70200      -472.75800                
G14  20696963.49200 108763277.24300      -277.26600                
G15  24957169.52800 131150811.06300     -4064.45700                
G18  21904102.05500 115106833.20400      2536.23600                
G19  21649171.06200 113767161.79800     -2197.07300                
G22  23641179.08400 124235234.60300      2941.24700                
G23  20755424.52100 109070492.02200     -1205.77200                
G27  21261121.09200 111727945.43800      1872.54700                
G28  24194798.04500 127144521.87900     -3032.78400                
E01        28.12400       147.79500         5.45800                
E02        16.76300        88.09200         9.30200                
E03         4.47800        23.53000         0.54300                
E04        16.40300        86.19600        -9.35900                
E05        27.91000       146.66900        -5.58700                
E06        32.24800       169.46500        -0.07500                
> 2025 04 22 14 01 43.0000000  0 16
G03  24434737.30200 128405411.18800      1619.74900                
G09  24290822.80800 127649135.41600      -474.65800                
G14  20697016.33800 108763554.95000      -278.13400                
G15  24957942.83700 131154874.82900     -4063.09200                
G18  21903619.52400 115104297.48700      2535.20300                
G19  21649589.11600 113769358.68300     -2196.72000                
G22  23640619.40700 124232293.48200      2941.01300                
G23  20755654.01100 109071698.00200     -1206.19900                
G27  21260764.72800 111726072.73400      1872.85300                
G28  24195375.24100 127147555.06500     -3033.62800                
E01        27.02600       142.02400         6.07900                
E02        14.96800        78.65900         9.55000                
E03         4.86300        25.55800        -4.38800                
E04        18.15500        95.40600        -9.05000                
E05        28.91300       151.93600        -4.94400                
E06        32.19200       169.17100         0.66300                
> 2025 04 22 14 01 44.0000000  0 16
G03  24434429.11600 128403791.66100      1619.27300                
G09  24290913.30700 127649610.99000      -476.47300                
G14  20697069.34000 108763833.47700      -278.90400                
G15  24958715.88400 131158937.22000     -4061.71000                
G18  21903137.18100 115101762.76100      2534.25600                
G19  21650007.11100 113771555.26500     -2196.46800                
G22  23640059.75800 124229352.50800      2940.95200                
G23  20755883.58900 109072904.44000     -1206.69100                
G27  21260408.30800 111724199.73400      1873.13700                
G28  24195952.61300 127150589.17700     -3034.63200                
E01        25.81300       135.64600         6.67000                
E02        13.13500        69.02300         9.70200                
E03         6.02000        31.63800        -7.43000                
E04        19.84300       104.27400        -8.67700                
E05        29.79000       156.54900        -4.27700                
E06        31.99600       168.13900         1.39800                
> 2025 04 22 14 01 45.0000000  0 16
G03  24434121.03900 128402172.70100      1618.61200                
G09  24291004.14100 127650088.32700      -478.18200                
G14  20697122.47900 108764112.72600      -279.57700                
G15  24959488.66800 131162998.23000     -4060.33400                
G18  21902655.01000 115099228.93400      2533.40800                
G19  21650425.07000 113773751.65100     -2196.32900                
G22  23639500.10500 124226411.50900      2941.06200                
G23  20756113.26600 109074111.40300     -1207.24600                
G27  21260051.83800 111722326.47000      1873.38100                
G28  24196530.19000 127153624.36700     -3035.78400                
E01        24.49000       128.69400         7.22700                
E02        11.28400        59.30000         9.71700                
E03         7.59000        39.88400        -8.87200                
E04        21.45400       112.74200        -8.25000                
E05        30.53900       160.48400        -3.59000                
E06        31.66000       166.37600         2.12700                
> 2025 04 22 14 01 46.0000000  0 16
G03  24433813.10400 128400554.49400      1617.77000                
G09  24291095.28800 127650567.31100      -479.76500                
G14  20697175.73700 108764392.59900      -280.15200                
G15  24960261.19400 131167057.87700     -4058.98900                
G18  21902172.99000 115096695.90100      2532.66900                
G19  21650843.01300 113775947.95900     -2196.31100                
G22  23638940.41500 124223470.31800      2941.33700                
G23  20756343.05500 109075318.95100     -1207.86100                
G27  21259695.32600 111720452.98700      1873.57100                
G28  24197108.00000 127156660.77800     -3037.07100                
E01        23.06400       121.20400         7.74700                
E02         9.45000        49.66000         9.51600                
E03         9.34600        49.11300        -9.49500                
E04        22.97900       120.75800        -7.77500                
E05        31.15600       163.72400        -2.88600                
E06        31.18700       163.88900         2.84600                
> 2025 04 22 14 01 47.0000000  0 16
G03  24433505.34700 128398937.21700      1616.75300                
G09  24291186.72400 127651047.80900      -481.20700                
G14  20697229.09600 108764672.99900      -280.63400                
G15  24961033.46800 131171116.20500     -4057.70000                
G18  21901691.09900 115094163.54800      2532.05000                
G19  21651260.96500 113778144.31000     -2196.42000                
G22  23638380.65700 124220528.77300      2941.76800                
G23  20756572.96600 109076527.14100     -1208.53100                
G27  21259338.78400 111718579.34600      1873.69400                
G28  24197686.06600 127159698.53600     -3038.47400                
E01        21.54400       113.21500         8.22400                
E02         7.68700        40.39500         8.92500                
E03        11.17800        58.74100        -9.71200                
E04        24.41000       128.27800        -7.25800                
E05        31.63700       166.25200        -2.16800                
E06        30.57800       160.68900         3.55100                
> 2025 04 22 14 01 48.0000000  0 16
G03  24433197.79800 128397321.04100      1615.56900                
G09  24291278.42000 127651529.67200      -482.49300                
G14  20697282.53700 108764953.83600      -281.02400                
G15  24961805.50400 131175173.28200     -4056.48900                
G18  21901209.31400 115091631.75100      2531.55700                
G19  21651678.95000 113780340.83700     -2196.66100                
G22  23637820.80400 124217586.72200      2942.34500                
G23  20756803.00900 109077736.02800     -1209.25200                
G27  21258982.22500 111716705.62000      1873.73800                
G28  24198264.40900 127162737.74700     -3039.97500                
E01        19.93700       104.77200         8.65400                
E02         6.10200        32.06800         7.54800                
E03        13.02800        68.46500        -9.70700                
E04        25.73900       135.26100        -6.70300                
E05        31.98000       168.05700        -1.44000                
E06        29.83700       156.79300         4.23900                
> 2025 04 22 14 01 49.0000000  0 16
G03  24432890.49000 128395706.12600      1614.23200                
G09  24291370.34400 127652012.73900      -483.61100                
G14  20697336.04500 108765235.02000      -281.33100                
G15  24962577.31900 131179229.19600     -4055.37900                
G18  21900727.61100 115089100.38100      2531.19500                
G19  21652096.99400 113782537.67100     -2197.03500                
G22  23637260.82700 124214644.02800      2943.05400                
G23  20757033.19400 109078945.65800     -1210.01600                
G27  21258625.66800 111714831.89600      1873.69000                
G28  24198843.04500 127165778.50000     -3041.55400                
E01        18.25400        95.92500         9.03000                
E02         4.91300        25.81600         4.62100                
E03        14.86400        78.10800        -9.56200                
E04        26.95900       141.67200        -6.11400                
E05        32.18400       169.13000        -0.70500                
E06        28.96600       152.21800         4.90700                
> 2025 04 22 14 01 50.0000000  0 16
G03  24432583.45000 128394092.62000      1612.75600                
G09  24291462.46500 127652496.83600      -484.55400                
G14  20697389.60300 108765516.47200      -281.56100                
G15  24963348.93300 131183284.05900     -4054.38800                
G18  21900245.96300 115086569.30800      2530.96700                
G19  21652515.12100 113784734.94600     -2197.54300                
G22  23636700.70500 124211700.56500      2943.88000                
G23  20757263.52800 109080156.07100     -1210.81700                
G27  21258269.12800 111712958.26800      1873.54300                
G28  24199421.98700 127168820.86100     -3043.18800                
E01        16.50500        86.73200         9.34300                
E02         4.47300        23.50600        -0.23700                
E03        16.66100        87.55500        -9.31800                
E04        28.06400       147.47900        -5.49400                
E05        32.24800       169.46700         0.03300                
E06        27.97100       146.98800         5.55100                
> 2025 04 22 14 01 51.0000000  0 16
G03  24432276.70300 128392480.65100      1611.15800                
G09  24291554.74800 127652981.78700      -485.31600                
G14  20697443.19900 108765798.11800      -281.72200                
G15  24964120.37200 131187337.99800     -4053.53500                
G18  21899764.34700 115084038.39600      2530.87200                
G19  21652933.35800 113786932.79400     -2198.18000                
G22  23636140.41600 124208756.22500      2944.80300                
G23  20757494.01700 109081367.30000     -1211.64800                
G27  21257912.62700 111711084.84200      1873.28800                
G28  24200001.24400 127171864.87400     -3044.85300                
E01        14.70300        77.26400         9.57900                
E02         4.99400        26.24200        -4.96600                
E03        18.40500        96.72000        -8.99900                
E04        29.04900       152.65200        -4.84800                
E05        32.17200       169.06400         0.77100                
E06        26.85500       141.12600         6.16800                
> 2025 04 22 14 01 52.0000000  0 16
G03  24431970.27000 128390870.33400      1609.45800                
G09  24291647.15800 127653467.40800      -485.89500                
G14  20697496.81900 108766079.89600      -281.82500                
G15  24964891.66300 131191391.15900     -4052.83600                
G18  21899282.73600 115081507.51200      2530.90800                
G19  21653351.72800 113789131.34200     -2198.94300                
G22  23635579.94300 124205810.92100      2945.80500                
G23  20757724.66700 109082579.37200     -1212.50000                
G27  21257556.18500 111709211.72700      1872.91900                
G28  24200580.81800 127174910.55900     -3046.52700                
E01        12.86500        67.60700         9.71400                
E02         6.23100        32.74600        -7.71900                
E03        20.08200       105.53300        -8.61800                
E04        29.90800       157.16700        -4.17800                
E05        31.95500       167.92600         1.50500                
E06        25.62500       134.66300         6.75400                
> 2025 04 22 14 01 53.0000000  0 16
G03  24431664.16800 128389261.76000      1607.67600                
G09  24291739.66200 127653953.51600      -486.29200                
G14  20697550.45500 108766361.75300      -281.88200                
G15  24965662.83700 131195443.70300     -4052.30200                
G18  21898801.10500 115078976.52800      2531.07100                
G19  21653770.25400 113791330.71300     -2199.82300                
G22  23635019.27400 124202864.58400      2946.86400                
G23  20757955.48000 109083792.30300     -1213.36400                
G27  21257199.82400 111707339.03900      1872.43200                
G28  24201160.71000 127177957.91100     -3048.18500                
E01        11.01500        57.88300         9.70400                
E02         7.83900        41.19200        -9.00000                
E03        21.68200       113.93800        -8.18400                
E04        30.63800       161.00200        -3.48900                
E05        31.59900       166.05600         2.23300                
E06        24.28700       127.63000         7.30600                
> 2025 04 22 14 01 54.0000000  0 16
G03  24431358.41200 128387654.99900      1605.83600                
G09  24291832.22400 127654439.93300      -486.51200                
G14  20697604.09800 108766643.64800      -281.90300                
G15  24966433.92500 131199495.79900     -4051.94300                
G18  21898319.43300 115076445.32100      2531.35500                
G19  21654188.95800 113793531.01900     -2200.81200                
G22  23634458.39900 124199917.16900      2947.95900                
G23  20758186.45800 109085006.10000     -1214.23200                
G27  21256843.56800 111705466.89800      1871.82700                
G28  24201740.91400 127181006.90400     -3049.80400                
E01         9.18700        48.27600         9.46000                
E02         9.61100        50.50600        -9.54600                
E03        23.19400       121.88500        -7.70200                
E04        31.23500       164.13900        -2.78200                
E05        31.10600       163.46400         2.94900                
E06        22.84700       120.06400         7.81900                
> 2025 04 22 14 01 55.0000000  0 16
G03  24431053.00900 128386050.09700      1603.96100                
G09  24291924.81100 127654926.48400      -486.56200                
G14  20697657.74200 108766925.55100      -281.90100                
G15  24967204.96200 131203547.62900     -4051.76600                
G18  21897837.69500 115073913.77400      2531.74900                
G19  21654607.86000 113795732.36200     -2201.89700                
G22  23633897.31500 124196968.65200      2949.06500                
G23  20758417.60100 109086220.76300     -1215.09500                
G27  21256487.43700 111703595.42000      1871.10300                
G28  24202321.42100 127184057.48700     -3051.36100                
E01         7.44100        39.10400         8.78600                
E02        11.44900        60.16300        -9.72300                
E03        24.61000       129.32900        -7.18000                
E04        31.69600       166.56200        -2.06300                
E05        30.47800       160.16200         3.65200                
E06        21.31400       112.00600         8.29000                
> 2025 04 22 14 01 56.0000000  0 16
G03  24430747.96500 128384447.07800      1602.07500                
G09  24292017.39300 127655413.00300      -486.45200                
G14  20697711.38500 108767207.44600      -281.88900                
G15  24967975.98400 131207599.37300     -4051.77500                
G18  21897355.87300 115071381.78200      2532.24200                
G19  21655026.97600 113797934.83400     -2203.06600                
G22  23633336.02100 124194019.03100      2950.16100                
G23  20758648.90700 109087436.28400     -1215.94400                
G27  21256131.45600 111701724.72500      1870.26400                
G28  24202902.21600 127187109.58700     -3052.83400                
E01         5.89700        30.98900         7.24000                
E02        13.29900        69.88400        -9.69300                
E03        25.92400       136.23100        -6.61900                
E04        32.01900       168.26100        -1.33300                
E05        29.71700       156.16500         4.33800                
E06        19.69600       103.50100         8.71200                
> 2025 04 22 14 01 57.0000000  0 16
G03  24430443.27800 128382845.94000      1600.20400                
G09  24292109.94000 127655899.33900      -486.19700                
G14  20697765.02600 108767489.33100      -281.88100                
G15  24968747.02400 131211651.21900     -4051.96800                
G18  21896873.94900 115068849.25200      2532.82400                
G19  21655446.32200 113800138.51100     -2204.30400                
G22  23632774.52100 124191068.32900      2951.22400                
G23  20758880.37200 109088652.64300     -1216.77100                
G27  21255775.64500 111699854.92600      1869.31300                
G28  24203483.28200 127190163.10900     -3054.20300                
E01         4.79200        25.18500         4.01700                
E02        15.12900        79.50600        -9.53200                
E03        27.12800       142.55600        -6.02600                
E04        32.20300       169.22700        -0.59800                
E05        28.82800       151.49400         5.00200                
E06        18.00200        94.60000         9.08000                
> 2025 04 22 14 01 58.0000000  0 16
G03  24430138.94400 128381246.65500      1598.37100                
G09  24292202.42500 127656385.35400      -485.81200                
G14  20697818.66600 108767771.21300      -281.88900                
G15  24969518.11900 131215703.34900     -4052.34400                
G18  21896391.90700 115066316.10300      2533.47800                
G19  21655865.90900 113802343.45500     -2205.59600                
G22  23632212.82400 124188116.59100      2952.23000                
G23  20759111.99200 109089869.81400     -1217.56700                
G27  21255420.02500 111697986.13000      1868.25700                
G28  24204064.59700 127193217.94000     -3055.45000                
E01         4.49000        23.59600        -1.00900                
E02        16.92000        88.91600        -9.27600                
E03        28.21500       148.27300        -5.40200                
E04        32.24600       169.45600         0.14100                
E05        27.81500       146.16900         5.64200                
E06        16.24400        85.36200         9.38300                
> 2025 04 22 14 01 59.0000000  0 16
G03  24429834.95400 128379649.17400      1596.60000                
G09  24292294.82600 127656870.92500      -485.31500                
G14  20697872.31100 108768053.11800      -281.92600                
G15  24970289.30200 131219755.94400     -4052.89500                
G18  21895909.73400 115063782.27000      2534.18900                
G19  21656285.74500 113804549.70900     -2206.92400                
G22  23631650.94200 124185163.88400      2953.16000                
G23  20759343.76000 109091087.76200     -1218.32500                
G27  21255064.61500 111696118.43900      1867.10600                
G28  24204646.13600 127196273.95000     -3056.55700                
E01         5.13900        27.00400        -5.49400                
E02        18.65500        98.03300        -8.94700                
E03        29.18200       153.35200        -4.75200                
E04        32.14900       168.94600         0.87800                
E05        26.68300       140.21800         6.25500                
E06        14.43600        75.86100         9.60600                
> 2025 04 22 14 02  0.0000000  0 16
G03  24429531.29300 128378053.42300      1594.91400                
G09  24292387.12400 127657355.95300      -484.72700                
G14  20697925.96600 108768335.07900      -282.00400                
G15  24971060.60600 131223809.17400     -4053.61200                
G18  21895427.42200 115061247.70200      2534.94200                
G19  21656705.83700 113806757.30400     -2208.27200                
G22  23631088.89300 124182210.29300      2953.99300                
G23  20759575.66800 109092306.44700     -1219.03800                
G27  21254709.43300 111694251.94300      1865.86800                
G28  24205227.87200 127199330.99200     -3057.51200                
E01         6.44900        33.88900        -7.97600                
E02        20.32200       106.79000        -8.55800                
E03        30.02200       157.76900        -4.07900                
E04        31.91200       167.70000         1.61200                
E05        25.43600       133.66900         6.83600                
E06        12.59500        66.18600         9.72300                
> 2025 04 22 14 02  1.0000000  0 16
G03  24429227.94300 128376459.30800      1593.33300                
G09  24292479.30300 127657840.35600      -484.07000                
G14  20697979.64100 108768617.14300      -282.13500                
G15  24971832.06100 131227863.19800     -4054.48200                
G18  21894944.96400 115058712.37000      2535.71800                
G19  21657126.18500 113808966.24800     -2209.62100                
G22  23630526.69500 124179255.92600      2954.71000                
G23  20759807.70700 109093525.81800     -1219.69900                
G27  21254354.49300 111692386.72300      1864.55700                
G28  24205809.77400 127202388.90900     -3058.30400                
E01         8.09000        42.51100        -9.11400                
E02        21.90900       115.13100        -8.11600                
E03        30.73300       161.50400        -3.38700                
E04        31.53600       165.72500         2.33800                
E05        24.08300       126.55700         7.38300                
E06        10.74500        56.46600         9.68600                
> 2025 04 22 14 02  2.0000000  0 16
G03  24428924.88200 128374866.71400      1591.87600                
G09  24292571.35200 127658324.07700      -483.36700                
G14  20698033.34700 108768899.36900      -282.32900                
G15  24972603.69500 131231918.16200     -4055.49000                
G18  21894462.35800 115056176.25700      2536.50000                
G19  21657546.78800 113811176.53400     -2210.95400                
G22  23629964.37400 124176300.90500      2955.29700                
G23  20760039.86600 109094745.82400     -1220.30400                
G27  21253999.80900 111690522.84600      1863.18400                
G28  24206391.81100 127205447.53100     -3058.92300                
E01         9.87600        51.90000        -9.58900                
E02        23.40700       123.00700        -7.62800                
E03        31.31000       164.53700        -2.67800                
E04        31.02300       163.02800         3.05300                
E05        22.62900       118.91700         7.89000                
E06         8.92400        46.89800         9.39500                
> 2025 04 22 14 02  3.0000000  0 16
G03  24428622.08500 128373275.50500      1590.56100                
G09  24292663.26500 127658807.08200      -482.64100                
G14  20698087.09700 108769181.82500      -282.59600                
G15  24973375.53300 131235974.19600     -4056.61800                
G18  21893979.60400 115053639.36600      2537.27000                
G19  21657967.64200 113813388.13800     -2212.25200                
G22  23629401.95400 124173345.37000      2955.73900                
G23  20760272.13400 109095966.40400     -1220.84800                
G27  21253645.39100 111688660.36600      1861.76400                
G28  24206973.94800 127208506.68500     -3059.36600                
E01        11.71800        61.58000        -9.72900                
E02        24.80900       130.37500        -7.10000                
E03        31.75200       166.85600        -1.95700                
E04        30.37500       159.62400         3.75300                
E05        21.08300       110.79000         8.35400                
E06         7.19900        37.83100         8.63000                
> 2025 04 22 14 02  4.0000000  0 16
G03  24428319.52400 128371685.53500      1589.40300                
G09  24292755.03900 127659289.36000      -481.91800                
G14  20698140.90500 108769464.58700      -282.94300                
G15  24974147.59500 131240031.41100     -4057.84700                
G18  21893496.70500 115051101.71800      2538.01100                
G19  21658388.73900 113815601.01600     -2213.50000                
G22  23628839.46500 124170389.46900      2956.02500                
G23  20760504.50100 109097187.49700     -1221.32800                
G27  21253291.24600 111686799.32400      1860.31200                
G28  24207556.15300 127211566.19100     -3059.62900                
E01        13.56700        71.29600        -9.67700                
E02        26.10700       137.19500        -6.53500                
E03        32.05500       168.44800        -1.22700                
E04        29.59600       155.52800         4.43600                
E05        19.45300       102.22400         8.76900                
E06         5.70000        29.95500         6.89600                
> 2025 04 22 14 02  5.0000000  0 16
G03  24428017.16700 128370096.64100      1588.41100                
G09  24292846.67800 127659770.92600      -481.22100                
G14  20698194.78700 108769747.74000      -283.37800                
G15  24974919.89900 131244089.89600     -4059.15400                
G18  21893013.67000 115048563.35200      2538.70500                
G19  21658810.06700 113817815.11000     -2214.68200                
G22  23628276.93700 124167433.36400      2956.14600                
G23  20760736.95200 109098409.03700     -1221.74200                
G27  21252937.38000 111684939.74300      1858.84300                
G28  24208138.39100 127214625.87100     -3059.71500                
E01        15.39300        80.89300        -9.50000                
E02        27.29400       143.43300        -5.93600                
E03        32.21800       169.30700        -0.49000                
E04        28.68800       150.75900         5.09700                
E05        17.74900        93.27000         9.12800                
E06         4.69000        24.64400         3.36700                
> 2025 04 22 14 02  6.0000000  0 16
G03  24427714.98300 128368508.65100      1587.59600                
G09  24292938.18900 127660251.81900      -480.57500                
G14  20698248.76100 108770031.37400      -283.90600                
G15  24975692.45800 131248149.71700     -4060.51700                
G18  21892530.50900 115046024.32200      2539.33600                
G19  21659231.61300 113820030.34600     -2215.78100                
G22  23627714.40200 124164477.22200      2956.09700                
G23  20760969.47600 109099630.95700     -1222.09000                
G27  21252583.79300 111683081.63300      1857.37400                
G28  24208720.62800 127217685.55000     -3059.62700                
E01        17.17700        90.26500        -9.23200                
E02        28.36500       149.05800        -5.30900                
E03        32.24100       169.42900         0.24800                
E04        27.65800       145.34100         5.73400                
E05        15.98300        83.98900         9.42100                
E06         4.52900        23.79900        -1.76800                
> 2025 04 22 14 02  7.0000000  0 16
G03  24427412.93600 128366921.38600      1586.96200                
G09  24293029.58400 127660732.10100      -480.00200                
G14  20698302.84400 108770315.58300      -284.52900                
G15  24976465.27900 131252210.92000     -4061.91200                
G18  21892047.23500 115043484.69900      2539.88900                
G19  21659653.35800 113822246.63500     -2216.78600                
G22  23627151.89200 124161521.21500      2955.87600                
G23  20761202.05900 109100853.19200     -1222.37100                
G27  21252230.48500 111681224.98600      1855.91900                
G28  24209302.83300 127220745.05700     -3059.37300                
E01        18.90300        99.33400        -8.89400                
E02        29.31300       154.04100        -4.65500                
E03        32.12400       168.81200         0.98500                
E04        26.50800       139.30100         6.34200                
E05        14.16900        74.45600         9.63000                
E06         5.29800        27.84200        -5.97700                
> 2025 04 22 14 02  8.0000000  0 16
G03  24427110.99300 128365334.66300      1586.51200                
G09  24293120.87800 127661211.85500      -479.52400                
G14  20698357.05500 108770600.46500      -285.25100                
G15  24977238.36600 131256273.52200     -4063.31300                
G18  21891563.86400 115040944.56600      2540.35100                
G19  21660075.28500 113824463.87600     -2217.68400                
G22  23626589.44100 124158565.51600      2955.48300                
G23  20761434.69000 109102075.67500     -1222.58600                
G27  21251877.45100 111679369.78000      1854.49500                
G28  24209884.97500 127223804.23200     -3058.96300                
E01        20.55800       108.03400        -8.49600                
E02        30.13500       158.36000        -3.97900                
E03        31.86600       167.45900         1.71800                
E04        25.24600       132.66800         6.91900                
E05        12.32500        64.76600         9.72900                
E06         6.67400        35.07100        -8.20500                
> 2025 04 22 14 02  9.0000000  0 16
G03  24426809.11800 128363748.29900      1586.24400                
G09  24293212.09200 127661691.18800      -479.16200                
G14  20698411.41300 108770886.11800      -286.07000                
G15  24978011.71900 131260337.51900     -4064.69700                
G18  21891080.41400 115038404.02300      2540.70900                
G19  21660497.37200 113826681.95800     -2218.46500                
G22  23626027.08100 124155610.29400      2954.92100                
G23  20761667.35600 109103298.34200     -1222.74000                
G27  21251524.68400 111677515.97600      1853.11700                
G28  24210467.02400 127226862.92400     -3058.41000                
E01        22.13300       116.31000        -8.04800                
E02        30.82600       161.99300        -3.28400                
E03        31.47000       165.37800         2.44300                
E04        23.87700       125.47600         7.46000                
E05        10.47600        55.05300         9.66300                
E06         8.34400        43.85000        -9.21400                
> 2025 04 22 14 02 10.0000000  0 16
G03  24426507.27700 128362162.11200      1586.15600                
G09  24293303.24900 127662170.22200      -478.93200                
G14  20698465.93600 108771172.63800      -286.98600                
G15  24978785.33200 131264402.88200     -4066.03900                
G18  21890596.90800 115035863.17900      2540.95300                
G19  21660919.59600 113828900.75900     -2219.12200                
G22  23625464.84400 124152655.71700      2954.19800                
G23  20761900.04500 109104521.13400     -1222.83500                
G27  21251172.17400 111675663.52200      1851.79800                
G28  24211048.95700 127229920.99900     -3057.73100                
E01        23.61800       124.11400        -7.55400                
E02        31.38400       164.92300        -2.57300                
E03        30.93700       162.57800         3.15600                
E04        22.40900       117.76200         7.96100                
E05         8.66400        45.53200         9.32100                
E06        10.14300        53.30400        -9.62600                
> 2025 04 22 14 02 11.0000000  0 16
G03  24426205.43600 128360575.92800      1586.23800                
G09  24293394.37700 127662649.10100      -478.85000                
G14  20698520.64200 108771460.12100      -287.99400                
G15  24979559.19400 131268469.55500     -4067.31500                
G18  21890113.36600 115033322.15100      2541.07400                
G19  21661341.93300 113831120.15300     -2219.65000                
G22  23624902.75900 124149701.93900      2953.32200                
G23  20762132.74800 109105743.99200     -1222.87600                
G27  21250819.90800 111673812.35100      1850.55300                
G28  24211630.74900 127232978.33800     -3056.94300                
E01        25.00500       131.40400        -7.02000                
E02        31.80500       167.13600        -1.85100                
E03        30.27000       159.07100         3.85400                
E04        20.85000       109.56900         8.41800                
E05         6.96200        36.58400         8.45400                
E06        11.98900        63.00100        -9.73100                
> 2025 04 22 14 02 12.0000000  0 16
G03  24425903.56400 128358989.57900      1586.48100                
G09  24293485.50400 127663127.97700      -478.93100                
G14  20698575.54800 108771748.65600      -289.09000                
G15  24980333.29100 131272537.46100     -4068.50200                
G18  21889629.81400 115030781.06500      2541.06800                
G19  21661764.35700 113833340.00800     -2220.04400                
G22  23624340.85400 124146749.10800      2952.30600                
G23  20762365.45300 109106966.86700     -1222.86900                
G27  21250467.87100 111671962.38400      1849.39100                
G28  24212212.38300 127236034.84300     -3056.06600                
E01        26.28700       138.14200        -6.44900                
E02        32.08800       168.62200        -1.11900                
E03        29.47200       154.87600         4.53400                
E04        19.20900       100.94200         8.82600                
E05         5.51400        28.97700         6.51200                
E06        13.83600        72.70800        -9.65800                
> 2025 04 22 14 02 13.0000000  0 16
G03  24425601.63100 128357402.91300      1586.87200                
G09  24293576.66200 127663607.01900      -479.18200                
G14  20698630.67100 108772038.32800      -290.26700                
G15  24981107.60400 131276606.50200     -4069.58100                
G18  21889146.27500 115028240.05200      2540.92900                
G19  21662186.84400 113835560.19000     -2220.30400                
G22  23623779.15400 124143797.35700      2951.16500                
G23  20762598.15300 109108189.71400     -1222.82000                
G27  21250116.04600 111670113.53200      1848.32500                
G28  24212793.84200 127239090.43500     -3055.12100                
E01        27.45800       144.29200        -5.84700                
E02        32.23100       169.37300        -0.38200                
E03        28.54600       150.01100         5.19200                
E04        17.49500        91.93600         9.17600                
E05         4.60600        24.20400         2.67500                
E06        15.65700        82.27800        -9.46600                
> 2025 04 22 14 02 14.0000000  0 16
G03  24425299.61100 128355815.78900      1587.39300                
G09  24293667.88600 127664086.40000      -479.61200                
G14  20698686.02500 108772329.21400      -291.51700                
G15  24981882.11000 131280676.55800     -4070.53000                
G18  21888662.77500 115025699.24400      2540.65600                
G19  21662609.36700 113837780.56500     -2220.43200                
G22  23623217.68200 124140846.80300      2949.91500                
G23  20762830.84100 109109412.49500     -1222.73800                
G27  21249764.41400 111668265.69600      1847.36200                
G28  24213375.11800 127242145.05800     -3054.13100                
E01        28.51100       149.82500        -5.21500                
E02        32.23300       169.38600         0.35600                
E03        27.49800       144.50100         5.82400                
E04        15.72100        82.61400         9.45700                
E05         4.58800        24.11300        -2.50300                
E06        17.43300        91.61000        -9.18700                
> 2025 04 22 14 02 15.0000000  0 16
G03  24424997.48200 128354228.08500      1588.02800                
G09  24293759.20800 127664566.30300      -480.22400                
G14  20698741.62300 108772621.38300      -292.83000                
G15  24982656.78300 131284747.49300     -4071.33500                
G18  21888179.34000 115023158.77500      2540.25100                
G19  21663031.90200 113840001.00400     -2220.43100                
G22  23622656.45800 124137897.54600      2948.57500                
G23  20763063.51000 109110635.17900     -1222.62900                
G27  21249412.95500 111666418.76700      1846.50900                
G28  24213956.20200 127245198.67800     -3053.11900                
E01        29.44100       154.71400        -4.55800                
E02        32.09500       168.66100         1.09300                
E03        26.33100       138.37200         6.42800                
E04        13.90100        73.05100         9.65200                
E05         5.47100        28.74900        -6.41300                
E06        19.14900       100.62900        -8.83900                
> 2025 04 22 14 02 16.0000000  0 16
G03  24424695.22200 128352639.69900      1588.75500                
G09  24293850.66400 127665046.90900      -481.01900                
G14  20698797.47600 108772914.89200      -294.19600                
G15  24983431.59400 131288819.15500     -4071.98100                
G18  21887695.99400 115020618.77600      2539.71700                
G19  21663454.42600 113842221.38000     -2220.30700                
G22  23622095.49500 124134949.66600      2947.16500                
G23  20763296.15600 109111857.74600     -1222.50300                
G27  21249061.64800 111664572.63400      1845.77200                
G28  24214537.09400 127248251.28500     -3052.11000                
E01        30.24400       158.93400        -3.87900                
E02        31.81700       167.20100         1.82500                
E03        25.05300       131.65600         7.00000                
E04        12.05500        63.34800         9.73100                
E05         6.90500        36.28700        -8.40900                
E06        20.79300       109.27000        -8.43400                
> 2025 04 22 14 02 17.0000000  0 16
G03  24424392.81600 128351050.54800      1589.55300                
G09  24293942.28900 127665528.40100      -481.99400                
G14  20698853.59300 108773209.78900      -295.60400                
G15  24984206.51300 131292891.37800     -4072.45600                
G18  21887212.76200 115018079.37400      2539.05900                
G19  21663876.91500 113844441.57400     -2220.06900                
G22  23621534.80500 124132003.22200      2945.70700                
G23  20763528.77800 109113080.18100     -1222.36800                
G27  21248710.47000 111662727.18000      1845.15200                
G28  24215117.79600 127251302.89500     -3051.12700                
E01        30.91600       162.46500        -3.18100                
E02        31.40100       165.01400         2.54800                
E03        23.67000       124.38500         7.53500                
E04        10.20900        53.64700         9.63400                
E05         8.60200        45.20400        -9.30200                
E06        22.35600       117.48000        -7.97800                
> 2025 04 22 14 02 18.0000000  0 16
G03  24424090.25400 128349460.57300      1590.39900                
G09  24294034.11600 127666010.95600      -483.14400                
G14  20698909.98100 108773506.11000      -297.04100                
G15  24984981.50400 131296963.98700     -4072.75300                
G18  21886729.66700 115015540.68900      2538.28500                
G19  21664299.34800 113846661.47700     -2219.72700                
G22  23620974.39500 124129058.24900      2944.22400                
G23  20763761.37400 109114302.48000     -1222.23300                
G27  21248359.39800 111660882.28600      1844.65100                
G28  24215698.31500 127254353.54300     -3050.19300                
E01        31.45400       165.29100        -2.46900                
E02        30.84800       162.10900         3.25900                
E03        22.18800       116.59800         8.03100                
E04         8.40700        44.17900         9.23600                
E05        10.41200        54.71400        -9.65600                
E06        23.82700       125.21100        -7.47800                
> 2025 04 22 14 02 19.0000000  0 16
G03  24423787.52800 128347869.73900      1591.26800                
G09  24294126.17800 127666494.74400      -484.45900                
G14  20698966.64400 108773803.87700      -298.49400                
G15  24985756.53500 131301036.80100     -4072.86500                
G18  21886246.72800 115013002.83200      2537.40400                
G19  21664721.70800 113848880.99100     -2219.29300                
G22  23620414.26800 124126114.76300      2942.73900                
G23  20763993.94400 109115524.64700     -1222.10600                
G27  21248008.41100 111659037.83500      1844.26600                
G28  24216278.66300 127257403.29200     -3049.33100                
E01        31.85500       167.39900        -1.74400                
E02        30.16200       158.50000         3.95500                
E03        20.61600       108.33900         8.48100                
E04         6.73000        35.36500         8.25600                
E05        12.26000        64.42500        -9.73000                
E06        25.19900       132.42300        -6.93800                
> 2025 04 22 14 02 20.0000000  0 16
G03  24423484.63700 128346278.03300      1592.13600                
G09  24294218.50500 127666979.92400      -485.92700                
G14  20699023.58400 108774103.10000      -299.95100                
G15  24986531.56900 131305109.63400     -4072.79200                
G18  21885763.96700 115010465.90400      2536.42900                
G19  21665143.97700 113851100.03200     -2218.78200                
G22  23619854.42300 124123172.75300      2941.27300                
G23  20764226.49300 109116746.69600     -1221.99800                
G27  21247657.48600 111657193.71100      1843.99600                
G28  24216858.85600 127260452.22300     -3048.56100                
E01        32.11700       168.77700        -1.01200                
E02        29.34400       154.20500         4.63200                
E03        18.96300        99.65300         8.88100                
E04         5.33900        28.05800         6.08600                
E05        14.10400        74.11800        -9.63600                
E06        26.46500       139.07600        -6.36300                
> 2025 04 22 14 02 21.0000000  0 16
G03  24423181.58200 128344685.47100      1592.97900                
G09  24294311.12400 127667466.64400      -487.53400                
G14  20699080.80100 108774403.77600      -301.39900                
G15  24987306.57200 131309182.30100     -4072.53400                
G18  21885281.39900 115007929.99300      2535.37300                
G19  21665566.14300 113853318.52800     -2218.20700                
G22  23619294.85200 124120232.19000      2939.85100                
G23  20764459.02300 109117968.64900     -1221.91500                
G27  21247306.60200 111655349.80400      1843.83300                
G28  24217438.91200 127263500.44000     -3047.90500                
E01        32.24000       169.42100        -0.27500                
E02        28.40000       149.24500         5.28600                
E03        17.24000        90.59700         9.22100                
E04         4.54200        23.86800         1.94800                
E05        15.92000        83.65900        -9.43000                
E06        27.61900       145.13800        -5.75600                
> 2025 04 22 14 02 22.0000000  0 16
G03  24422878.37200 128343092.08900      1593.77200                
G09  24294404.06200 127667955.03200      -489.26200                
G14  20699138.29100 108774705.89000      -302.82400                
G15  24988081.50900 131313254.62000     -4072.09600                
G18  21884799.03900 115005395.17300      2534.25000                
G19  21665988.19400 113855536.42400     -2217.58600                
G22  23618735.54600 124117293.01800      2938.49400                
G23  20764691.54000 109119190.53600     -1221.86700                
G27  21246955.73900 111653506.00900      1843.77000                
G28  24218018.85500 127266548.06400     -3047.37800                
E01        32.22200       169.32600         0.46400                
E02        27.33400       143.64200         5.91500                
E03        15.45800        81.23400         9.49200                
E04         4.66800        24.53200        -3.20300                
E05        17.68800        92.95000        -9.14000                
E06        28.65400       150.57800        -5.12000                
> 2025 04 22 14 02 23.0000000  0 16
G03  24422575.01700 128341497.94800      1594.49300                
G09  24294497.33800 127668445.20200      -491.09300                
G14  20699196.05000 108775009.41200      -304.21300                
G15  24988856.34600 131317326.41600     -4071.48700                
G18  21884316.89700 115002861.50100      2533.07700                
G19  21666410.12500 113857753.68200     -2216.93500                
G22  23618176.49100 124114355.16400      2937.22200                
G23  20764924.05200 109120412.39500     -1221.86000                
G27  21246604.88000 111651662.22900      1843.79900                
G28  24218598.71200 127269595.23300     -3046.99700                
E01        32.06300       168.49300         1.20000                
E02        26.15100       137.42500         6.51400                
E03        13.63300        71.64400         9.67200                
E04         5.65500        29.71700        -6.80700                
E05        19.39400       101.91700        -8.78300                
E06        29.56600       155.37000        -4.46000                
> 2025 04 22 14 02 24.0000000  0 16
G03  24422271.53300 128339903.13100      1595.11900                
G09  24294590.97100 127668937.24500      -493.00500                
G14  20699254.06800 108775314.30100      -305.55600                
G15  24989631.05100 131321397.52000     -4070.71700                
G18  21883834.98300 115000329.02200      2531.87000                
G19  21666831.93000 113859970.28300     -2216.27200                
G22  23617617.66800 124111418.53000      2936.05400                
G23  20765156.56700 109121634.27000     -1221.90100                
G27  21246254.00700 111649818.38000      1843.90800                
G28  24219178.51200 127272642.09800     -3046.77300                
E01        31.76500       166.92700         1.93100                
E02        24.85700       130.62500         7.08100                
E03        11.78500        61.93000         9.73000                
E04         7.14200        37.53000        -8.59000                
E05        21.02700       110.49800        -8.37000                
E06        30.35000       159.49100        -3.77800                
> 2025 04 22 14 02 25.0000000  0 16
G03  24421967.94100 128338307.74500      1595.63000                
G09  24294684.97300 127669431.23100      -494.97600                
G14  20699312.33700 108775620.50500      -306.84100                
G15  24990405.59600 131325467.77900     -4069.79900                
G18  21883353.29900 114997797.75800      2530.64800                
G19  21667253.60900 113862186.22200     -2215.61500                
G22  23617059.05600 124108483.00400      2935.00900                
G23  20765389.09500 109122856.21400     -1221.99700                
G27  21245903.10600 111647974.38600      1844.08500                
G28  24219758.28400 127275688.82300     -3046.71700                
E01        31.32900       164.63400         2.65300                
E02        23.45900       123.27600         7.61100                
E03         9.94200        52.24600         9.59900                
E04         8.86200        46.57000        -9.37800                
E05        22.57700       118.64000        -7.90800                
E06        31.00300       162.92000        -3.07800                
> 2025 04 22 14 02 26.0000000  0 16
G03  24421664.26500 128336711.91200      1596.00900                
G09  24294779.35400 127669927.20800      -496.98200                
G14  20699370.84400 108775927.96100      -308.05800                
G15  24991179.95300 131329537.05400     -4068.75100                
G18  21882871.84800 114995267.71800      2529.42700                
G19  21667675.16500 113864401.51500     -2214.98300                
G22  23616500.63000 124105548.45600      2934.10000                
G23  20765621.64700 109124078.28200     -1222.15100                
G27  21245552.16700 111646130.18800      1844.31600                
G28  24220338.06200 127278735.57900     -3046.83600                
E01        30.75600       161.62600         3.36200                
E02        21.96300       115.41700         8.10000                
E03         8.15200        42.84000         9.13900                
E04        10.68100        56.12700        -9.68100                
E05        24.03400       126.29800        -7.40100                
E06        31.52100       165.64100        -2.36300                
> 2025 04 22 14 02 27.0000000  0 16
G03  24421360.53000 128335115.77400      1596.23900                
G09  24294874.11900 127670425.19800      -498.99800                
G14  20699429.57500 108776236.59500      -309.19800                
G15  24991954.10000 131333605.22300     -4067.59100                
G18  21882390.62900 114992738.89000      2528.22500                
G19  21668096.60500 113866616.19500     -2214.39100                
G22  23615942.36300 124102614.74300      2933.34100                
G23  20765854.23400 109125300.53500     -1222.36800                
G27  21245201.18000 111644285.73600      1844.58800                
G28  24220917.88000 127281782.54200     -3047.13200                
E01        30.05000       157.91600         4.05500                
E02        20.37900       107.09100         8.54300                
E03         6.50400        34.17800         8.03400                
E04        12.53000        65.84600        -9.72500                
E05        25.39100       133.43000        -6.85600                
E06        31.90100       167.64300        -1.63800                
> 2025 04 22 14 02 28.0000000  0 16
G03  24421056.76600 128333519.48500      1596.30700                
G09  24294969.26600 127670925.20000      -501.00200                
G14  20699488.51500 108776546.32800      -310.25300                
G15  24992728.01700 131337672.18500     -4066.34000                
G18  21881909.63400 114990211.24800      2527.06000                
G19  21668517.93700 113868830.31000     -2213.85700                
G22  23615384.22600 124099681.70900      2932.74200                
G23  20766086.86800 109126523.03700     -1222.65000                
G27  21244850.13800 111642441.00000      1844.88400                
G28  24221497.77200 127284829.89200     -3047.60800                
E01        29.21400       153.52300         4.72900                
E02        18.71500        98.34800         8.93500                
E03         5.17700        27.20500         5.61700                
E04        14.37200        75.52500        -9.61200                
E05        26.64100       139.99900        -6.27600                
E06        32.14300       168.91400        -0.90400                
> 2025 04 22 14 02 29.0000000  0 16
G03  24420753.00600 128331923.21300      1596.20400                
G09  24295064.79100 127671427.18900      -502.96700                
G14  20699547.64800 108776857.07200      -311.21900                
G15  24993501.68900 131341737.85900     -4065.01900                
G18  21881428.85700 114987684.74500      2525.94800                
G19  21668939.17400 113871043.92700     -2213.39600                
G22  23614826.18600 124096749.19200      2932.31000                
G23  20766319.56300 109127745.85600     -1222.99900                
G27  21244499.03900 111640595.96100      1845.18900                
G28  24222077.77000 127287877.80500     -3048.26000                
E01        28.25200       148.46700         5.37900                
E02        16.98200        89.24200         9.26600                
E03         4.49800        23.63800         1.19600                
E04        16.18200        85.03400        -9.39200                
E05        27.77800       145.97200        -5.66400                
E06        32.24500       169.45000        -0.16700                
> 2025 04 22 14 02 30.0000000  0 16
G03  24420449.28200 128330327.13400      1595.92100                
G09  24295160.68500 127671931.11400      -504.87200                
G14  20699606.95500 108777168.73400      -312.08900                
G15  24994275.10500 131345802.18800     -4063.65400                
G18  21880948.28400 114985159.32100      2524.90600                
G19  21669360.33200 113873257.12600     -2213.02300                
G22  23614268.21300 124093817.02200      2932.04900                
G23  20766552.33100 109128969.05700     -1223.41600                
G27  21244147.88200 111638750.61900      1845.48800                
G28  24222657.90900 127290926.45600     -3049.08200                
E01        27.16900       142.77200         6.00400                
E02        15.19300        79.84100         9.52400                
E03         4.76600        25.04600        -3.86200                
E04        17.94100        94.28200        -9.09200                
E05        28.79500       151.31900        -5.02500                
E06        32.20700       169.24700         0.57200                
> 2025 04 22 14 02 31.0000000  0 16
G03  24420145.62900 128328731.42900      1595.45500                
G09  24295256.93300 127672436.90400      -506.69200                
G14  20699666.41900 108777481.21800      -312.86300                
G15  24995048.25900 131349865.13800     -4062.26700                
G18  21880467.90300 114982634.89800      2523.94700                
G19  21669781.42800 113875470.00100     -2212.75100                
G22  23613710.27200 124090885.02600      2931.96000                
G23  20766785.18400 109130192.70800     -1223.89900                
G27  21243796.67000 111636904.98800      1845.76400                
G28  24223238.22000 127293976.01200     -3050.06600                
E01        25.96900       136.46800         6.59900                
E02        13.36300        70.22500         9.69000                
E03         5.84800        30.73400        -7.15900                
E04        19.63800       103.19600        -8.72600                
E05        29.68800       156.01400        -4.36100                
E06        32.02800       168.30700         1.30800                
> 2025 04 22 14 02 32.0000000  0 16
G03  24419842.08300 128327136.28200      1594.80600                
G09  24295353.51900 127672944.46300      -508.40800                
G14  20699726.02000 108777794.42600      -313.53800                
G15  24995821.14900 131353926.70100     -4060.88400                
G18  21879987.69500 114980111.38700      2523.08400                
G19  21670202.48300 113877682.65900     -2212.58900                
G22  23613152.33300 124087953.03300      2932.04300                
G23  20767018.13500 109131416.87400     -1224.44600                
G27  21243445.40900 111635059.09800      1846.00300                
G28  24223818.73300 127297026.62700     -3051.20000                
E01        24.65900       129.58600         7.16000                
E02        11.51400        60.50400         9.72500                
E03         7.38200        38.79200        -8.75000                
E04        21.25900       111.71600        -8.30500                
E05        30.45400       160.03400        -3.67600                
E06        31.70900       166.63400         2.03700                
> 2025 04 22 14 02 33.0000000  0 16
G03  24419538.67700 128325541.87500      1593.97400                
G09  24295450.41900 127673453.67900      -510.00100                
G14  20699785.74100 108778108.26100      -314.11600                
G15  24996593.77700 131357986.89400     -4059.52900                
G18  21879507.64000 114977588.68500      2522.33000                
G19  21670623.51800 113879895.21400     -2212.54800                
G22  23612594.36100 124085020.87400      2932.29000                
G23  20767251.19600 109132641.61900     -1225.05500                
G27  21243094.10700 111633212.99500      1846.19000                
G28  24224399.47500 127300078.44600     -3052.47000                
E01        23.24600       122.16000         7.68500                
E02         9.67500        50.84100         9.55700                
E03         9.12300        47.94000        -9.44500                
E04        22.79500       119.79100        -7.83600                
E05        31.08700       163.36100        -2.97400                
E06        31.25300       164.23600         2.75700                
> 2025 04 22 14 02 34.0000000  0 16
G03  24419235.44700 128323948.38800      1592.96800                
G09  24295547.61000 127673964.41800      -511.45300                
G14  20699845.56300 108778422.62700      -314.59900                
G15  24997366.15300 131362045.75600     -4058.22600                
G18  21879027.71900 114975066.67900      2521.69300                
G19  21671044.55800 113882107.79200     -2212.63500                
G22  23612036.32800 124082088.38900      2932.69600                
G23  20767484.37800 109133867.00100     -1225.72100                
G27  21242742.77600 111631366.73600      1846.31100                
G28  24224980.47000 127303131.59600     -3053.85900                
E01        21.73700       114.23000         8.16700                
E02         7.89900        41.50800         9.02900                
E03        10.94900        57.53800        -9.70000                
E04        24.23900       127.37400        -7.32400                
E05        31.58500       165.97800        -2.25800                
E06        30.66100       161.12400         3.46400                
> 2025 04 22 14 02 35.0000000  0 16
G03  24418932.42400 128322355.99300      1591.79400                
G09  24295645.06200 127674476.53300      -512.75000                
G14  20699905.46800 108778737.42900      -314.99100                
G15  24998138.28800 131366103.35200     -4057.00000                
G18  21878547.90600 114972545.24800      2521.18100                
G19  21671465.62600 113884320.52100     -2212.85300                
G22  23611478.20300 124079155.42200      2933.24900                
G23  20767717.69200 109135093.07500     -1226.43800                
G27  21242391.42800 111629520.39400      1846.35400                
G28  24225561.73900 127306186.18600     -3055.34800                
E01        20.14100       105.84100         8.60400                
E02         6.28300        33.01800         7.78400                
E03        12.79900        67.26100        -9.71600                
E04        25.58100       134.42600        -6.77400                
E05        31.94500       167.87300        -1.53100                
E06        29.93600       157.31300         4.15500                
> 2025 04 22 14 02 36.0000000  0 16
G03  24418629.63900 128320764.84900      1590.46500                
G09  24295742.74500 127674989.86200      -513.88100                
G14  20699965.43900 108779052.58100      -315.29900                
G15  24998910.19800 131370159.76700     -4055.87100                
G18  21878068.17900 114970024.26500      2520.79900                
G19  21671886.74900 113886533.53500     -2213.20500                
G22  23610919.96000 124076221.83500      2933.93600                
G23  20767951.14800 109136319.89000     -1227.20100                
G27  21242040.08100 111627674.05300      1846.30700                
G28  24226143.30000 127309242.30700     -3056.91700                
E01        18.46600        97.04100         8.98700                
E02         5.02700        26.41800         5.09800                
E03        14.63800        76.92200        -9.58600                
E04        26.81400       140.91000        -6.18900                
E05        32.16700       169.03700        -0.79700                
E06        29.08100       152.82100         4.82500                
> 2025 04 22 14 02 37.0000000  0 16
G03  24418327.12100 128319175.10600      1588.99600                
G09  24295840.62700 127675504.23600      -514.83600                
G14  20700025.46200 108779368.00200      -315.53000                
G15  24999681.90400 131374215.11100     -4054.85900                
G18  21877588.51200 114967503.59900      2520.54900                
G19  21672307.95100 113888746.96900     -2213.69100                
G22  23610361.57400 124073287.49900      2934.74200                
G23  20768184.75200 109137547.48800     -1228.00200                
G27  21241688.75300 111625827.80800      1846.16200                
G28  24226725.16500 127312300.02700     -3058.54300                
E01        16.72400        87.88700         9.30800                
E02         4.47500        23.51800         0.42300                
E03        16.44100        86.39900        -9.35300                
E04        27.93400       146.79300        -5.57300                
E05        32.24800       169.46500        -0.05900                
E06        28.10100       147.67000         5.47200                
> 2025 04 22 14 02 38.0000000  0 16
G03  24418024.89500 128317586.89400      1587.40400                
G09  24295938.67400 127676019.47500      -515.61100                
G14  20700085.52100 108779683.61800      -315.69200                
G15  25000453.43100 131378269.51000     -4053.98400                
G18  21877108.88000 114964983.11500      2520.43200                
G19  21672729.25900 113890960.95500     -2214.30900                
G22  23609803.02600 124070352.30600      2935.64800                
G23  20768418.51100 109138775.90300     -1228.83500                
G27  21241337.46200 111623981.76000      1845.91000                
G28  24227307.34200 127315359.39200     -3060.20300                
E01        14.92800        78.44900         9.55500                
E02         4.88200        25.65600        -4.48000                
E03        18.19200        95.60200        -9.04200                
E04        28.93400       152.04700        -4.93000                
E05        32.18900       169.15400         0.68000                
E06        27.00000       141.88600         6.09300                
> 2025 04 22 14 02 39.0000000  0 16
G03  24417722.98100 128316000.32900      1585.70700                
G09  24296036.85100 127676535.39700      -516.20300                
G14  20700145.60600 108779999.36600      -315.79500                
G15  25001224.80500 131382323.10900     -4053.26000                
G18  21876629.25800 114962462.68200      2520.44600                
G19  21673150.69600 113893175.62300     -2215.05300                
G22  23609244.29700 124067416.16500      2936.63600                
G23  20768652.43200 109140005.16300     -1229.69000                
G27  21240986.22900 111622136.02100      1845.54500                
G28  24227889.83800 127318420.42600     -3061.87500                
E01        13.09400        68.81000         9.70400                
E02         6.05200        31.80500        -7.47700                
E03        19.87900       104.46200        -8.66800                
E04        29.80800       156.64500        -4.26300                
E05        31.99000       168.10700         1.41500                
E06        25.78400       135.49500         6.68300                
> 2025 04 22 14 02 40.0000000  0 16
G03  24417421.39900 128314415.50400      1583.92800                
G09  24296135.12300 127677051.82000      -516.61300                
G14  20700205.70600 108780315.19200      -315.85100                
G15  25001996.05700 131386376.06400     -4052.70000                
G18  21876149.62100 114959942.17300      2520.58700                
G19  21673572.28600 113895391.09500     -2215.91700                
G22  23608685.37400 124064479.00400      2937.68400                
G23  20768886.51600 109141235.28500     -1230.55800                
G27  21240635.07700 111620290.70400      1845.06400                
G28  24228472.65000 127321483.12600     -3063.53300                
E01        11.24400        59.08600         9.71600                
E02         7.62800        40.08300        -8.89300                
E03        21.48800       112.92100        -8.24000                
E04        30.55400       160.56500        -3.57500                
E05        31.65100       166.32700         2.14300                
E06        24.45900       128.53100         7.23900                
> 2025 04 22 14 02 41.0000000  0 16
G03  24417120.16200 128312832.49000      1582.08800                
G09  24296233.45600 127677568.56400      -516.84500                
G14  20700265.81300 108780631.05600      -315.87100                
G15  25002767.21800 131390428.54500     -4052.31400                
G18  21875669.94500 114957421.46000      2520.84800                
G19  21673994.05200 113897607.48700     -2216.89100                
G22  23608126.24700 124061540.77400      2938.77000                
G23  20769120.76700 109142466.28000     -1231.43200                
G27  21240284.02800 111618445.92800      1844.46500                
G28  24229055.77500 127324547.46800     -3065.15400                
E01         9.41000        49.45100         9.50800                
E02         9.38700        49.32600        -9.50300                
E03        23.01200       120.92600        -7.76400                
E04        31.16800       163.78900        -2.87000                
E05        31.17500       163.82400         2.86100                
E06        23.03100       121.02900         7.75800                
> 2025 04 22 14 02 42.0000000  0 16
G03  24416819.27800 128311251.33700      1580.21200                
G09  24296331.81700 127678085.45300      -516.90600                
G14  20700325.92100 108780946.92700      -315.86800                
G15  25003538.32400 131394480.73100     -4052.11000                
G18  21875190.20900 114954900.43000      2521.22100                
G19  21674416.01200 113899824.90500     -2217.96500                
G22  23607566.91200 124058601.44800      2939.87200                
G23  20769355.18300 109143698.14600     -1232.30200                
G27  21239933.10400 111616601.80900      1843.74800                
G28  24229639.20300 127327613.40300     -3066.71600                
E01         7.65000        40.20000         8.90500                
E02        11.21900        58.95900        -9.71400                
E03        24.44000       128.43500        -7.24600                
E04        31.64600       166.30100        -2.15200                
E05        30.56300       160.60900         3.56600                
E06        21.50900       113.03000         8.23400                
> 2025 04 22 14 02 43.0000000  0 16
G03  24416518.75300 128309672.06800      1578.32300                
G09  24296430.17400 127678602.32200      -516.80700                
G14  20700386.02800 108781262.79000      -315.85500                
G15  25004309.40800 131398532.80600     -4052.09100                
G18  21874710.39200 114952378.97500      2521.69500                
G19  21674838.18600 113902043.44100     -2219.12600                
G22  23607007.36700 124055661.02100      2940.96700                
G23  20769589.76400 109144930.87800     -1233.15900                
G27  21239582.32700 111614758.46500      1842.91600                
G28  24230222.92100 127330680.86000     -3068.19600                
E01         6.07100        31.90200         7.50400                
E02        13.07000        68.68300        -9.70500                
E03        25.76700       135.40700        -6.69100                
E04        31.98700       168.09000        -1.42400                
E05        29.81900       156.69800         4.25400                
E06        19.90000       104.57700         8.66300                
> 2025 04 22 14 02 44.0000000  0 16
G03  24416218.58700 128308094.68500      1576.44600                
G09  24296528.49700 127679119.01700      -516.56100                
G14  20700446.13200 108781578.63900      -315.84500                
G15  25005080.50600 131402584.95500     -4052.25800                
G18  21874230.47700 114949857.00200      2522.25800                
G19  21675260.58700 113904263.17400     -2220.35800                
G22  23606447.61700 124052719.51300      2942.03200                
G23  20769824.50600 109146164.45600     -1233.99400                
G27  21239231.71900 111612916.00900      1841.97300                
G28  24230806.91100 127333749.74800     -3069.57400                
E01         4.89300        25.71500         4.53400                
E02        14.90400        78.32300        -9.55700                
E03        26.98500       141.80500        -6.10100                
E04        32.18800       169.14700        -0.68900                
E05        28.94500       152.10800         4.92100                
E06        18.21500        95.72200         9.03800                
> 2025 04 22 14 02 45.0000000  0 16
G03  24415918.77500 128306519.16200      1574.60500                
G09  24296626.76200 127679635.40000      -516.18400                
G14  20700506.23500 108781894.48500      -315.85100                
G15  25005851.65400 131406637.36200     -4052.60700                
G18  21873750.44600 114947334.42700      2522.89500                
G19  21675683.22800 113906484.16900     -2221.64600                
G22  23605887.66800 124049776.96500      2943.04400                
G23  20770059.40400 109147398.85400     -1234.80000                
G27  21238881.30100 111611074.55000      1840.92600                
G28  24231391.15200 127336819.95500     -3070.83000                
E01         4.47400        23.51200        -0.35300                
E02        16.70100        87.76500        -9.31200                
E03        28.08700       147.59800        -5.48100                
E04        32.24900       169.46700         0.04900                
E05        27.94700       146.86300         5.56500                
E06        16.46500        86.52300         9.34900                
> 2025 04 22 14 02 46.0000000  0 16
G03  24415619.30800 128304945.45100      1572.82400                
G09  24296724.94300 127680151.34600      -515.69300                
G14  20700566.34300 108782210.35000      -315.88500                
G15  25006622.88400 131410690.20600     -4053.13200                
G18  21873270.28900 114944811.18300      2523.59200                
G19  21676106.11800 113908706.47300     -2222.97400                
G22  23605327.53400 124046833.43900      2943.98300                
G23  20770294.45300 109148634.04100     -1235.56700                
G27  21238531.09200 111609234.18600      1839.78200                
G28  24231975.61900 127339891.35200     -3071.95000                
E01         5.01400        26.35000        -5.04900                
E02        18.44400        96.92200        -8.99100                
E03        29.06900       152.75800        -4.83400                
E04        32.16900       169.04900         0.78700                
E05        26.82900       140.98800         6.18100                
E06        14.66200        77.04900         9.58300                
> 2025 04 22 14 02 47.0000000  0 16
G03  24415320.17200 128303373.48200      1571.12700                
G09  24296823.02200 127680666.75500      -515.11000                
G14  20700626.46000 108782526.26800      -315.96000                
G15  25007394.23100 131414743.66100     -4053.82500                
G18  21872789.99500 114942287.22100      2524.33200                
G19  21676529.26400 113910930.11800     -2224.32400                
G22  23604767.23000 124043889.01900      2944.82800                
G23  20770529.64200 109149869.97200     -1236.29000                
G27  21238181.10800 111607395.01100      1838.55200                
G28  24232560.28500 127342963.79300     -3072.91800                
E01         6.26300        32.91400        -7.76000                
E02        20.11900       105.72700        -8.60900                
E03        29.92500       157.25900        -4.16400                
E04        31.94900       167.89500         1.52100                
E05        25.59700       134.51200         6.76600                
E06        12.82400        67.39000         9.71500                
> 2025 04 22 14 02 48.0000000  0 16
G03  24415021.35000 128301803.16100      1569.53200                
G09  24296920.98300 127681181.54200      -514.45500                
G14  20700686.59600 108782842.28700      -316.08800                
G15  25008165.72500 131418797.88800     -4054.67300                
G18  21872309.55700 114939762.50300      2525.09700                
G19  21676952.66700 113913155.11700     -2225.67900                
G22  23604206.77500 124040943.80900      2945.56100                
G23  20770764.96500 109151106.60100     -1236.96100                
G27  21237831.36600 111605557.10300      1837.24700                
G28  24233145.12000 127346037.12200     -3073.72300                
E01         7.87600        41.38800        -9.01900                
E02        21.71700       114.12200        -8.17300                
E03        30.65200       161.07900        -3.47400                
E04        31.59000       166.00900         2.24900                
E05        24.25600       127.46700         7.31700                
E06        10.97400        57.66700         9.70100                
> 2025 04 22 14 02 49.0000000  0 16
G03  24414722.82000 128300234.37400      1568.06100                
G09  24297018.81400 127681695.64900      -513.75300                
G14  20700746.76300 108783158.46500      -316.27900                
G15  25008937.39300 131422853.03300     -4055.66100                
G18  21871828.97300 114937237.01500      2525.87100                
G19  21677376.32700 113915381.46500     -2227.02000                
G22  23603646.19200 124037997.92900      2946.16500                
G23  20771000.41000 109152343.87300     -1237.57500                
G27  21237481.87800 111603720.53200      1835.88100                
G28  24233730.09200 127349111.16900     -3074.35600                
E01         9.65100        50.71500        -9.55300                
E02        23.22700       122.05800        -7.69100                
E03        31.24600       164.20000        -2.76700                
E04        31.09400       163.40100         2.96500                
E05        22.81400       119.89000         7.83000                
E06         9.14700        48.06500         9.45100                
> 2025 04 22 14 02 50.0000000  0 16
G03  24414424.55600 128298666.98900      1566.73000                
G09  24297116.50900 127682209.03900      -513.02600                
G14  20700806.97300 108783474.86900      -316.54200                
G15  25009709.26200 131426909.23000     -4056.77200                
G18  21871348.24200 114934710.75600      2526.63600                
G19  21677800.24000 113917609.14000     -2228.32900                
G22  23603085.50800 124035051.51500      2946.62700                
G23  20771235.96600 109153581.73000     -1238.12900                
G27  21237132.65500 111601885.35200      1834.46700                
G28  24234315.16800 127352185.76300     -3074.81300                
E01        11.48900        60.37500        -9.72400                
E02        24.64100       129.49100        -7.16700                
E03        31.70400       166.60800        -2.04700                
E04        30.46300       160.08300         3.66700                
E05        21.27900       111.82200         8.30000                
E06         7.40400        38.90800         8.76400                
> 2025 04 22 14 02 51.0000000  0 16
G03  24414126.53200 128297100.85800      1565.55400                
G09  24297214.06500 127682721.70100      -512.30000                
G14  20700867.24000 108783791.57600      -316.88600                
G15  25010481.35200 131430966.59000     -4057.98500                
G18  21870867.36700 114932183.74400      2527.37400                
G19  21678224.39700 113919838.10200     -2229.59100                
G22  23602524.75100 124032104.71600      2946.93500                
G23  20771471.62200 109154820.10700     -1238.61700                
G27  21236783.70400 111600051.60500      1833.02000                
G28  24234900.31300 127355260.72400     -3075.09100                
E01        13.33900        70.09600        -9.69100                
E02        25.95200       136.38100        -6.60600                
E03        32.02500       168.29100        -1.31800                
E04        29.70000       156.07200         4.35200                
E05        19.65900       103.30700         8.72100                
E06         5.86600        30.82800         7.19000                
> 2025 04 22 14 02 52.0000000  0 16
G03  24413828.71500 128295535.82200      1564.54400                
G09  24297311.48500 127683233.64700      -511.59800                
G14  20700927.58100 108784108.67100      -317.31800                
G15  25011253.68100 131435025.20600     -4059.28100                
G18  21870386.35700 114929656.01500      2528.06700                
G19  21678648.78800 113922068.29400     -2230.78700                
G22  23601963.95100 124029157.68900      2947.07900                
G23  20771707.36400 109156058.94000     -1239.03900                
G27  21236435.03100 111598219.31400      1831.55500                
G28  24235485.49500 127358335.87400     -3075.19000                
E01        15.16900        79.71400        -9.52700                
E02        27.15400       142.69300        -6.01200                
E03        32.20500       169.24100        -0.58200                
E04        28.80800       151.38600         5.01700                
E05        17.96300        94.39800         9.08700                
E06         4.77600        25.09600         3.92200                
> 2025 04 22 14 02 53.0000000  0 16
G03  24413531.07400 128293971.70800      1563.71000                
G09  24297408.77600 127683744.91300      -510.94500                
G14  20700988.01300 108784426.24300      -317.84200                
G15  25012026.26200 131439085.14900     -4060.63400                
G18  21869905.21900 114927127.62100      2528.70100                
G19  21679073.40000 113924299.64400     -2231.90400                
G22  23601403.13900 124026210.60300      2947.05500                
G23  20771943.18000 109157298.16100     -1239.39300                
G27  21236086.63700 111596388.49100      1830.08800                
G28  24236070.67900 127361411.03400     -3075.11500                
E01        16.95900        89.11900        -9.27000                
E02        28.23900       148.39500        -5.38800                
E03        32.24600       169.45400         0.15700                
E04        27.79200       146.04700         5.65600                
E05        16.20400        85.15500         9.38800                
E06         4.49500        23.61900        -1.12500                
> 2025 04 22 14 02 54.0000000  0 16
G03  24413233.57500 128292408.33900      1563.05700                
G09  24297505.94900 127684255.56000      -510.36300                
G14  20701048.55400 108784744.38700      -318.46300                
G15  25012799.10500 131443146.46600     -4062.02300                
G18  21869423.96800 114924598.63000      2529.25900                
G19  21679498.21600 113926532.06400     -2232.92700                
G22  23600842.34800 124023263.62600      2946.85800                
G23  20772179.05700 109158537.70200     -1239.67900                
G27  21235738.52100 111594559.13000      1828.63500                
G28  24236655.83200 127364486.03500     -3074.87200                
E01        18.69200        98.22900        -8.93900                
E02        29.20200       153.46000        -4.73700                
E03        32.14600       168.92800         0.89400                
E04        26.65700       140.08200         6.26800                
E05        14.39500        75.64800         9.60900                
E06         5.16200        27.12600        -5.57100                
> 2025 04 22 14 02 55.0000000  0 16
G03  24412936.18200 128290845.53100      1562.58700                
G09  24297603.02000 127684765.67100      -509.87500                
G14  20701109.22200 108785063.20100      -319.18100                
G15  25013572.21400 131447209.17800     -4063.42100                
G18  21868942.62000 114922069.12600      2529.72800                
G19  21679923.21600 113928765.45600     -2233.84500                
G22  23600281.61100 124020316.93300      2946.49000                
G23  20772414.98200 109159777.49600     -1239.89900                
G27  21235390.67900 111592731.20800      1827.21100                
G28  24237240.92400 127367560.71400     -3074.47300                
E01        20.35700       106.97800        -8.54900                
E02        30.04000       157.86200        -4.06400                
E03        31.90600       167.66700         1.62800                
E04        25.40800       133.52100         6.84900                
E05        12.55400        65.97100         9.72400                
E06         6.48300        34.06700        -8.01300                
> 2025 04 22 14 02 56.0000000  0 16
G03  24412638.86200 128289283.10000      1562.30100                
G09  24297700.00800 127685275.34800      -509.50000                
G14  20701170.03600 108785382.78300      -319.99800                
G15  25014345.58700 131451273.28300     -4064.80500                
G18  21868461.19100 114919539.20100      2530.09500                
G19  21680348.38000 113930999.70900     -2234.64700                
G22  23599720.96000 124017370.69200      2945.95300                
G23  20772650.94200 109161017.47700     -1240.05500                
G27  21235043.10400 111590904.69000      1825.83100                
G28  24237825.92600 127370634.92100     -3073.92900                
E01        21.94300       115.30900        -8.10600                
E02        30.74800       161.58100        -3.37100                
E03        31.52700       165.67500         2.35400                
E04        24.05200       126.39600         7.39500                
E05        10.70400        56.25200         9.68300                
E06         8.12800        42.71400        -9.13000                
> 2025 04 22 14 02 57.0000000  0 16
G03  24412341.57900 128287720.86700      1562.19300                
G09  24297796.93800 127685784.71500      -509.25700                
G14  20701231.01500 108785703.22900      -320.91100                
G15  25015119.22000 131455338.75400     -4066.15000                
G18  21867979.70300 114917008.96500      2530.35000                
G19  21680773.68500 113933234.70300     -2235.32500                
G22  23599160.42700 124014425.07100      2945.25300                
G23  20772886.92700 109162257.58500     -1240.15100                
G27  21234695.78700 111589079.52300      1824.50900                
G28  24238410.81200 127373708.51800     -3073.25600                
E01        23.43900       123.17400        -7.61700                
E02        31.32200       164.59900        -2.66200                
E03        31.01100       162.96300         3.06800                
E04        22.59600       118.74500         7.90100                
E05         8.88500        46.69000         9.38400                
E06         9.91700        52.11300        -9.59500                
> 2025 04 22 14 02 58.0000000  0 16
G03  24412044.29900 128286158.65400      1562.25700                
G09  24297893.83400 127686293.91100      -509.16100                
G14  20701292.17700 108786024.63600      -321.91700                
G15  25015893.10400 131459405.54100     -4067.43200                
G18  21867498.17800 114914478.53400      2530.48400                
G19  21681199.10700 113935470.31000     -2235.87400                
G22  23598600.04200 124011480.22700      2944.39900                
G23  20773122.92400 109163497.76000     -1240.19200                
G27  21234348.71400 111587255.64400      1823.25900                
G28  24238995.55900 127376781.38500     -3072.47300                
E01        24.83900       130.53000        -7.08800                
E02        31.76000       166.90100        -1.94100                
E03        30.36000       159.54300         3.76800                
E04        21.04800       110.60800         8.36400                
E05         7.16300        37.64000         8.60500                
E06        11.75900        61.79600        -9.73000                
> 2025 04 22 14 02 59.0000000  0 16
G03  24411746.99300 128284596.29500      1562.48300                
G09  24297990.72800 127686803.09100      -509.22600                
G14  20701353.53900 108786347.09400      -323.01200                
G15  25016667.22400 131463473.56900     -4068.62800                
G18  21867016.63900 114911948.03100      2530.49200                
G19  21681624.62100 113937706.39900     -2236.28800                
G22  23598039.83300 124008536.30900      2943.40400                
G23  20773358.92500 109164737.95000     -1240.18300                
G27  21234001.87200 111585432.97400      1822.09100                
G28  24239580.14800 127379853.42100     -3071.59800                
E01        26.13500       137.33800        -6.52200                
E02        32.06000       168.47700        -1.21000                
E03        29.57800       155.43200         4.45100                
E04        19.41600       102.03300         8.77800                
E05         5.67200        29.80400         6.84000                
E06        13.60800        71.51000        -9.67400                
> 2025 04 22 14 03  0.0000000  0 16
G03  24411449.62800 128283033.63600      1562.85700                
G09  24298087.65000 127687312.42000      -509.46100                
G14  20701415.11600 108786670.68600      -324.18700                
G15  25017441.56200 131467542.74000     -4069.71700                
G18  21866535.11100 114909417.58500      2530.36900                
G19  21682050.20100 113939942.83600     -2236.56900                
G22  23597479.82500 124005593.45000      2942.28100                
G23  20773594.91900 109165978.11000     -1240.13100                
G27  21233655.24200 111583611.42600      1821.01800                
G28  24240164.56300 127382924.54400     -3070.65200                
E01        27.31900       143.56300        -5.92300                
E02        32.22000       169.32000        -0.47400                
E03        28.66800       150.64900         5.11100                
E04        17.71100        93.07100         9.13600                
E05         4.67600        24.57200         3.26400                
E06        15.43300        81.10300        -9.49500                
> 2025 04 22 14 03  1.0000000  0 16
G03  24411152.18000 128281470.53400      1563.36400                
G09  24298184.63400 127687822.07300      -509.87500                
G14  20701476.92500 108786995.49200      -325.43600                
G15  25018216.09500 131471612.93900     -4070.68000                
G18  21866053.62000 114906887.33000      2530.11200                
G19  21682475.82100 113942179.48500     -2236.71500                
G22  23596920.04200 124002651.77200      2941.04700                
G23  20773830.90000 109167218.19900     -1240.04300                
G27  21233308.80800 111581790.90100      1820.04600                
G28  24240748.79400 127385994.69800     -3069.66000                
E01        28.38700       149.17400        -5.29500                
E02        32.24000       169.42400         0.26500                
E03        27.63400       145.21800         5.74700                
E04        15.94300        83.78300         9.42600                
E05         4.53700        23.84100        -1.88200                
E06        17.21600        90.47000        -9.22600                
> 2025 04 22 14 03  2.0000000  0 16
G03  24410854.62400 128279906.86700      1563.98500                
G09  24298281.71400 127688332.23000      -510.47000                
G14  20701538.97700 108787321.57900      -326.74900                
G15  25018990.79800 131475684.03100     -4071.50000                
G18  21865572.19000 114904357.39700      2529.72400                
G19  21682901.45700 113944416.21600     -2236.73100                
G22  23596360.50400 123999711.37600      2939.72000                
G23  20774066.86200 109168458.18500     -1239.92800                
G27  21232962.54800 111579971.29300      1819.18400                
G28  24241332.83300 127389063.84400     -3068.64300                
E01        29.33300       154.14400        -4.64000                
E02        32.12000       168.79000         1.00200                
E03        26.48200       139.16400         6.35500                
E04        14.12800        74.24600         9.63400                
E05         5.32400        27.97700        -6.04600                
E06        18.94000        99.53100        -8.88600                
> 2025 04 22 14 03  3.0000000  0 16
G03  24410556.94000 128278342.53000      1564.70100                
G09  24298378.92400 127688843.07400      -511.24900                
G14  20701601.28500 108787649.00700      -328.11500                
G15  25019765.64200 131479755.86600     -4072.16200                
G18  21865090.84600 114901827.91700      2529.20700                
G19  21683327.08300 113946652.90000     -2236.62300                
G22  23595801.22500 123996772.34500      2938.32100                
G23  20774302.80000 109169698.04700     -1239.79400                
G27  21232616.44200 111578152.49100      1818.43500                
G28  24241916.67900 127392131.97200     -3067.62600                
E01        30.15200       158.44800        -3.96400                
E02        31.85900       167.42200         1.73500                
E03        25.21700       132.51900         6.93100                
E04        12.28400        64.55300         9.72900                
E05         6.70900        35.25600        -8.23800                
E06        20.59400       108.22100        -8.48700                
> 2025 04 22 14 03  4.0000000  0 16
G03  24410259.11300 128276777.43800      1565.48900                
G09  24298476.30000 127689354.78800      -512.20800                
G14  20701663.85600 108787977.82200      -329.52300                
G15  25020540.59700 131483828.27900     -4072.65500                
G18  21864609.61200 114899299.01700      2528.56500                
G19  21683752.67900 113948889.41800     -2236.39900                
G22  23595242.21700 123993834.74000      2936.87100                
G23  20774538.71100 109170937.76800     -1239.64900                
G27  21232270.46600 111576334.37900      1817.80400                
G28  24242500.33200 127395199.09200     -3066.63200                
E01        30.84000       162.06500        -3.26900                
E02        31.46000       165.32400         2.45900                
E03        23.84700       125.31500         7.47100                
E04        10.43600        54.84200         9.65900                
E05         8.38400        44.05600        -9.22800                
E06        22.16700       116.48700        -8.03700                
> 2025 04 22 14 03  5.0000000  0 16
G03  24409961.13100 128275211.53100      1566.32700                
G09  24298573.87500 127689867.54800      -513.34200                
G14  20701726.69900 108788308.06200      -330.96000                
G15  25021315.62800 131487901.09700     -4072.97000                
G18  21864128.51200 114896770.81700      2527.80700                
G19  21684178.22100 113951125.65600     -2236.06800                
G22  23594683.48900 123990898.60200      2935.39100                
G23  20774774.59400 109172177.34200     -1239.50300                
G27  21231924.60000 111574516.84000      1817.29000                
G28  24243083.80100 127398265.24100     -3065.68600                
E01        31.39500       164.98000        -2.55800                
E02        30.92400       162.50700         3.17200                
E03        22.37700       117.59000         7.97200                
E04         8.62600        45.32700         9.30900                
E05        10.18400        53.51900        -9.63100                
E06        23.65000       124.28100        -7.54200                
> 2025 04 22 14 03  6.0000000  0 16
G03  24409662.98700 128273644.77200      1567.19000                
G09  24298671.68200 127690381.52600      -514.64200                
G14  20701789.81600 108788639.74800      -332.41500                
G15  25022090.70200 131491974.13800     -4073.10200                
G18  21863647.56600 114894243.43100      2526.94100                
G19  21684603.69100 113953361.51600     -2235.64300                
G22  23594125.04300 123987963.94800      2933.90600                
G23  20775010.45000 109173416.77400     -1239.36500                
G27  21231578.82100 111572699.75600      1816.89300                
G28  24243667.09500 127401330.47500     -3064.80900                
E01        31.81300       167.17700        -1.83500                
E02        30.25400       158.98500         3.87000                
E03        20.81500       109.38600         8.42800                
E04         6.92600        36.39900         8.42600                
E05        12.03000        63.21900        -9.73100                
E06        25.03500       131.55900        -7.00700                
> 2025 04 22 14 03  7.0000000  0 15
G03  24409364.67800 128272077.14700      1568.05500                
G09  24298769.75100 127690896.88300      -516.09600                
G14  20701853.21200 108788972.89300      -333.87300                
G18  21863166.79400 114891716.95900      2525.98000                
G19  21685029.07200 113955596.90900     -2235.13700                
G22  23593566.87800 123985030.77300      2932.43800                
G23  20775246.28100 109174656.07600     -1239.24400                
G27  21231233.10600 111570883.01300      1816.60800                
G28  24244250.23200 127404394.87700     -3064.02300                
E01        32.09200       168.64600        -1.10300                
E02        29.45300       154.77400         4.54900                
E03        19.17200       100.75100         8.83400                
E04         5.48700        28.83500         6.45000                
E05        13.87700        72.92300        -9.65400                
E06        26.31400       138.28300        -6.43600                
> 2025 04 22 14 03  8.0000000  0 15
G03  24409066.20600 128270508.66700      1568.89600                
G09  24298868.11000 127691413.76500      -517.69100                
G14  20701916.88400 108789307.49200      -335.32300                
G18  21862686.21400 114889191.49100      2524.93600                
G19  21685454.35000 113957831.76200     -2234.56500                
G22  23593008.98900 123982099.04800      2931.00900                
G23  20775482.09200 109175895.26800     -1239.14800                
G27  21230887.43500 111569066.49900      1816.43200                
G28  24244833.22900 127407458.54600     -3063.34800                
E01        32.23200       169.38100        -0.36600                
E02        28.52400       149.89500         5.20600                
E03        17.45700        91.73700         9.18300                
E04         4.59500        24.14800         2.56700                
E05        15.69700        82.48900        -9.46000                
E06        27.48200       144.42000        -5.83300                
> 2025 04 22 14 03  9.0000000  0 15
G03  24408767.57800 128268939.36800      1569.68900                
G09  24298966.78500 127691932.30500      -519.40900                
G14  20701980.83000 108789643.53000      -336.75000                
G18  21862205.83800 114886667.10100      2523.82400                
G19  21685879.51500 113960066.01700     -2233.94400                
G22  23592451.36700 123979168.72400      2929.64100                
G23  20775717.88700 109177134.38000     -1239.08500                
G27  21230541.78800 111567250.11100      1816.35500                
G28  24245416.10900 127410521.60400     -3062.80100                
E01        32.23200       169.37800         0.37300                
E02        27.47300       144.37000         5.83800                
E03        15.68200        82.40800         9.46200                
E04         4.60000        24.17100        -2.61100                
E05        17.47200        91.81500        -9.18000                
E06        28.53200       149.93900        -5.20000                
> 2025 04 22 14 03 10.0000000  0 15
G03  24408468.80600 128267369.30900      1570.41200                
G09  24299065.79700 127692452.61700      -521.23000                
G14  20702045.04400 108789980.98000      -338.14200                
G18  21861725.68000 114884143.85200      2522.65900                
G19  21686304.55800 113962299.63300     -2233.29000                
G22  23591893.99800 123976239.72800      2928.35600                
G23  20775953.67400 109178373.45000     -1239.06400                
G27  21230196.14600 111565433.75400      1816.37000                
G28  24245998.89900 127413584.18500     -3062.39800                
E01        32.09000       168.63700         1.10900                
E02        26.30400       138.22800         6.44200                
E03        13.86100        72.84100         9.65600                
E04         5.49800        28.89400        -6.47600                
E05        19.18600       100.82600        -8.83100                
E06        29.46000       154.81300        -4.54300                
> 2025 04 22 14 03 11.0000000  0 15
G03  24408169.90500 128265798.57200      1571.04200                
G09  24299165.16400 127692974.79300      -523.13500                
G14  20702109.51900 108790319.79900      -339.48700                
G18  21861245.74700 114881621.78700      2521.45900                
G19  21686729.47500 113964532.58700     -2232.62200                
G22  23591336.86300 123973311.96700      2927.17200                
G23  20776189.46200 109179612.52300     -1239.09100                
G27  21229850.49400 111563617.34000      1816.46600                
G28  24246581.62700 127416646.44100     -3062.15200                
E01        31.81000       167.16100         1.84100                
E02        25.02300       131.49800         7.01200                
E03        12.01400        63.13600         9.73100                
E04         6.94100        36.47500        -8.43800                
E05        20.82900       109.45700        -8.42400                
E06        30.26000       159.01700        -3.86300                
> 2025 04 22 14 03 12.0000000  0 15
G03  24407870.89400 128264227.26000      1571.55900                
G09  24299264.89900 127693498.90600      -525.10000                
G14  20702174.24500 108790659.93500      -340.77500                
G18  21860766.04400 114879100.93200      2520.24000                
G19  21687154.26400 113966764.87200     -2231.95700                
G22  23590779.94300 123970385.33200      2926.10800                
G23  20776425.25900 109180851.64900     -1239.17200                
G27  21229504.81700 111561800.79500      1816.63000                
G28  24247164.32400 127419708.53300     -3062.07300                
E01        31.39000       164.95700         2.56400                
E02        23.63700       124.21500         7.54700                
E03        10.16900        53.43700         9.62900                
E04         8.64200        45.41200        -9.31400                
E05        22.38900       117.65700        -7.96700                
E06        30.92900       162.53300        -3.16500                
> 2025 04 22 14 03 13.0000000  0 15
G03  24407571.79700 128262655.49500      1571.94500                
G09  24299365.01300 127694025.00500      -527.10200                
G14  20702239.21000 108791001.32600      -341.99500                
G18  21860286.57400 114876581.29800      2519.02100                
G19  21687578.92900 113968996.50100     -2231.31300                
G22  23590223.21300 123967459.69500      2925.17800                
G23  20776661.07800 109182090.88500     -1239.31300                
G27  21229159.10400 111559984.05700      1816.84900                
G28  24247747.02200 127422770.63300     -3062.16800                
E01        30.83500       162.03700         3.27500                
E02        22.15300       116.41700         8.04200                
E03         8.36900        43.97700         9.22200                
E04        10.45300        54.92900        -9.66000                
E05        23.85900       125.37700        -7.46600                
E06        31.46400       165.34300        -2.45300                
> 2025 04 22 14 03 14.0000000  0 15
G03  24407272.64000 128261083.41700      1572.18300                
G09  24299465.50900 127694553.11500      -529.11700                
G14  20702304.39900 108791343.89900      -343.13800                
G18  21859807.33400 114874062.87700      2517.81800                
G19  21688003.47500 113971227.50400     -2230.70700                
G22  23589666.64600 123964534.91600      2924.39600                
G23  20776896.93000 109183330.29300     -1239.51600                
G27  21228813.34400 111558167.07900      1817.10900                
G28  24248329.75500 127425832.91700     -3062.44200                
E01        30.14500       158.41300         3.97000                
E02        20.58000       108.14700         8.49100                
E03         6.69600        35.18500         8.22500                
E04        12.30100        64.64100        -9.72900                
E05        25.22800       132.57700        -6.92600                
E06        31.86200       167.43400        -1.72800                
> 2025 04 22 14 03 15.0000000  0 15
G03  24406973.45400 128259511.17900      1572.26100                
G09  24299566.38700 127695083.23500      -531.12100                
G14  20702369.79800 108791687.57400      -344.19700                
G18  21859328.32000 114871545.64300      2516.64900                
G19  21688427.91100 113973457.92800     -2230.15700                
G22  23589110.21300 123961610.84100      2923.77200                
G23  20777132.82600 109184569.93800     -1239.78600                
G27  21228467.53200 111556349.82600      1817.39500                
G28  24248912.55800 127428895.56400     -3062.89400                
E01        29.32500       154.10300         4.64600                
E02        18.92500        99.45200         8.88900                
E03         5.31400        27.92600         6.01900                
E04        14.14500        74.33300        -9.63200                
E05        26.49200       139.21700        -6.35000                
E06        32.12100       168.79700        -0.99500                
> 2025 04 22 14 03 16.0000000  0 15
G03  24406674.26800 128257938.94900      1572.16800                
G09  24299667.64400 127695615.34400      -533.08800                
G14  20702435.39000 108792032.26200      -345.16500                
G18  21858849.52500 114869029.55400      2515.53100                
G19  21688852.24800 113975687.83600     -2229.67900                
G22  23588553.88300 123958687.30700      2923.31300                
G23  20777368.78100 109185809.88500     -1240.12300                
G27  21228121.66500 111554532.28000      1817.69200                
G28  24249495.46300 127431958.75300     -3063.52400                
E01        28.37800       149.12800         5.30000                
E02        17.20000        90.38800         9.22800                
E03         4.53400        23.82600         1.83700                
E04        15.96000        83.86900        -9.42400                
E05        27.64300       145.26500        -5.74200                
E06        32.24000       169.42300        -0.25800                
> 2025 04 22 14 03 17.0000000  0 15
G03  24406375.11700 128256366.90000      1571.89600                
G09  24299769.27000 127696149.39200      -534.99700                
G14  20702501.15800 108792377.87200      -346.03800                
G18  21858370.93500 114866514.55000      2514.48000                
G19  21689276.50200 113977917.30700     -2229.28600                
G22  23587997.62400 123955764.14600      2923.02500                
G23  20777604.80600 109187050.20500     -1240.52900                
G27  21227775.74100 111552714.44000      1817.98200                
G28  24250078.50500 127435022.65700     -3064.32500                
E01        27.30900       143.51200         5.92800                
E02        15.41700        81.01900         9.49700                
E03         4.68200        24.60200        -3.30500                
E04        17.72600        93.15300        -9.13300                
E05        28.67600       150.69100        -5.10600                
E06        32.21900       169.31200         0.48000                
> 2025 04 22 14 03 18.0000000  0 15
G03  24406076.03500 128254795.21500      1571.44100                
G09  24299871.25200 127696685.31000      -536.82300                
G14  20702567.08200 108792724.30700      -346.81500                
G18  21857892.53800 114864000.55800      2513.51000                
G19  21689700.69100 113980146.43400     -2228.99200                
G22  23587441.40400 123952841.18900      2922.90900                
G23  20777840.91400 109188290.96500     -1241.00300                
G27  21227429.76400 111550896.31800      1818.25200                
G28  24250661.71400 127438087.44500     -3065.28800                
E01        26.12400       137.28100         6.52700                
E02        13.59200        71.42400         9.67500                
E03         5.68300        29.86500        -6.86200                
E04        19.43100       102.11200        -8.77500                
E05        29.58500       155.46800        -4.44500                
E06        32.05800       168.46300         1.21700                
> 2025 04 22 14 03 19.0000000  0 15
G03  24405777.05800 128253224.07600      1570.80300                
G09  24299973.57200 127697223.00500      -538.54700                
G14  20702633.14500 108793071.46800      -347.49200                
G18  21857414.31800 114861487.49000      2512.63400                
G19  21690124.83400 113982375.32200     -2228.80900                
G22  23586885.18900 123949918.26100      2922.96400                
G23  20778077.11900 109189532.23000     -1241.54200                
G27  21227083.73900 111549077.94300      1818.48600                
G28  24251245.12200 127441153.27200     -3066.40400                
E01        24.82700       130.46900         7.09300                
E02        11.74300        61.70900         9.73000                
E03         7.17700        37.71700        -8.61500                
E04        21.06200       110.68400        -8.36000                
E05        30.36600       159.57300        -3.76200                
E06        31.75600       166.88100         1.94700                
> 2025 04 22 14 03 20.0000000  0 15
G03  24405478.21900 128251653.66800      1569.98200                
G09  24300076.20800 127697762.36300      -540.14800                
G14  20702699.32700 108793419.25900      -348.07300                
G18  21856936.25300 114858975.24600      2511.86500                
G19  21690548.95400 113984604.08500     -2228.74500                
G22  23586328.94800 123946995.19500      2923.18500                
G23  20778313.43300 109190774.06800     -1242.14400                
G27  21226737.67400 111547259.35900      1818.66900                
G28  24251828.75500 127444220.28600     -3067.65700                
E01        23.42700       123.10800         7.62200                
E02         9.90100        52.02800         9.59300                
E03         8.90100        46.77300        -9.38900                
E04        22.61000       118.81600        -7.89700                
E05        31.01500       162.98700        -3.06200                
E06        31.31700       164.57200         2.66900                
> 2025 04 22 14 03 21.0000000  0 15
G03  24405179.55300 128250084.16700      1568.98600                
G09  24300179.13600 127698303.25500      -541.61100                
G14  20702765.61100 108793767.58200      -348.55800                
G18  21856458.32500 114856463.71400      2511.21100                
G19  21690973.07300 113986832.84800     -2228.80800                
G22  23585772.65000 123944071.82700      2923.56500                
G23  20778549.86700 109192016.53700     -1242.80500                
G27  21226391.58000 111545440.62200      1818.78800                
G28  24252412.63900 127447288.61500     -3069.03100                
E01        21.92900       115.23900         8.11000                
E02         8.11300        42.63200         9.12300                
E03        10.72100        56.33800        -9.68400                
E04        24.06500       126.46300        -7.39000                
E05        31.53000       165.69300        -2.34700                
E06        30.74100       161.54800         3.37700                
> 2025 04 22 14 03 22.0000000  0 15
G03  24404881.09300 128248515.74800      1567.82200                
G09  24300282.32800 127698845.53300      -542.91900                
G14  20702831.97800 108794116.34400      -348.95200                
G18  21855980.50900 114853952.77600      2510.67900                
G19  21691397.21700 113989061.73900     -2229.00300                
G22  23585216.26500 123941148.00500      2924.09300                
G23  20778786.43200 109193259.69300     -1243.51900                
G27  21226045.47000 111543621.80500      1818.83000                
G28  24252996.79400 127450358.37000     -3070.50700                
E01        20.34300       106.90300         8.55200                
E02         6.46900        33.99500         7.99800                
E03        12.57000        66.05700        -9.72400                
E04        25.42000       133.58300        -6.84400                
E05        31.90800       167.67800        -1.62100                
E06        30.03300       157.82200         4.07000                
> 2025 04 22 14 03 23.0000000  0 15
G03  24404582.86900 128246948.57300      1566.50200                
G09  24300385.75400 127699389.03700      -544.06200                
G14  20702898.41200 108794465.45700      -349.26100                
G18  21855502.78200 114851442.30500      2510.27700                
G19  21691821.41100 113991290.89300     -2229.33300                
G22  23584659.76600 123938223.58500      2924.75800                
G23  20779023.13700 109194503.58800     -1244.28000                
G27  21225699.36100 111541802.98800      1818.78400                
G28  24253581.23800 127453429.64500     -3072.06600                
E01        18.67800        98.15100         8.94300                
E02         5.15300        27.07700         5.54000                
E03        14.41200        75.73300        -9.60800                
E04        26.66800       140.13900        -6.26300                
E05        32.14700       168.93300        -0.88800                
E06        29.19400       153.41400         4.74300                
> 2025 04 22 14 03 24.0000000  0 15
G03  24404284.91000 128245382.78900      1565.04000                
G09  24300489.38000 127699933.59700      -545.03000                
G14  20702964.89700 108794814.83900      -349.49200                
G18  21855025.12000 114848932.17000      2510.00600                
G19  21692245.68000 113993520.44400     -2229.79800                
G22  23584103.12900 123935298.43800      2925.54300                
G23  20779259.99100 109195748.26400     -1245.08100                
G27  21225353.27000 111539984.26600      1818.64000                
G28  24254165.98500 127456502.51000     -3073.68400                
E01        16.94300        89.03800         9.27200                
E02         4.49300        23.61100         1.07800                
E03        16.22000        85.23800        -9.38600                
E04        27.80200       146.09800        -5.65100                
E05        32.24600       169.45200        -0.15000                
E06        28.22900       148.34400         5.39400                
> 2025 04 22 14 03 25.0000000  0 15
G03  24403987.24200 128243818.53100      1563.45400                
G09  24300593.17400 127700479.03600      -545.81700                
G14  20703031.42000 108795164.41800      -349.65500                
G18  21854547.49600 114846422.24100      2509.86700                
G19  21692670.05100 113995750.52600     -2230.39500                
G22  23583546.33300 123932372.45300      2926.43200                
G23  20779497.00100 109196993.75900     -1245.91500                
G27  21225007.21600 111538165.73900      1818.39100                
G28  24254751.04300 127459577.01300     -3075.33900                
E01        15.15300        79.63100         9.52900                
E02         4.78300        25.13300        -3.96100                
E03        17.97900        94.47900        -9.08400                
E04        28.81600       151.43100        -5.01100                
E05        32.20400       169.23300         0.58800                
E06        27.14300       142.63600         6.01700                
> 2025 04 22 14 03 26.0000000  0 15
G03  24403689.88600 128242255.91400      1561.76100                
G09  24300697.10000 127701025.17100      -546.42200                
G14  20703097.96700 108795514.12800      -349.75800                
G18  21854069.88600 114843912.38500      2509.85900                
G19  21693094.54800 113997981.27100     -2231.12100                
G22  23582989.35900 123929445.53500      2927.40500                
G23  20779734.17200 109198240.10000     -1246.77200                
G27  21224661.22000 111536347.51800      1818.03000                
G28  24255336.41800 127462653.18100     -3077.00800                
E01        13.32300        70.01100         9.69200                
E02         5.87900        30.89400        -7.21100                
E03        19.67400       103.38500        -8.71800                
E04        29.70700       156.11100        -4.34600                
E05        32.02200       168.27600         1.32400                
E06        25.94100       136.31900         6.61200                
> 2025 04 22 14 03 27.0000000  0 15
G03  24403392.86000 128240695.03300      1559.98400                
G09  24300801.12400 127701571.81900      -546.84500                
G14  20703164.53000 108795863.91700      -349.81300                
G18  21853592.26600 114841402.47300      2509.97800                
G19  21693519.19400 114000212.80200     -2231.96800                
G22  23582432.19300 123926517.61200      2928.44100                
G23  20779971.50700 109199487.30700     -1247.64600                
G27  21224315.30300 111534529.71300      1817.55500                
G28  24255922.11100 127465731.01400     -3078.66600                
E01        11.47300        60.29000         9.72400                
E02         7.41900        38.98900        -8.77300                
E03        21.29300       111.89600        -8.29600                
E04        30.46900       160.11700        -3.66100                
E05        31.70000       166.58700         2.05300                
E06        24.62900       129.42400         7.17200                
> 2025 04 22 14 03 28.0000000  0 15
G03  24403096.17900 128239135.96200      1558.14500                
G09  24300905.21100 127702118.80000      -547.08900                
G14  20703231.10000 108796213.74300      -349.83300                
G18  21853114.61100 114838892.38100      2510.21700                
G19  21693944.01200 114002445.23800     -2232.92800                
G22  23581874.82700 123923588.63000      2929.51900                
G23  20780209.01000 109200735.39100     -1248.52500                
G27  21223969.48800 111532712.44300      1816.96200                
G28  24256508.11500 127468810.48900     -3080.28900                
E01         9.63500        50.63100         9.55000                
E02         9.16300        48.15200        -9.45500                
E03        22.82800       119.96100        -7.82600                
E04        31.09900       163.42800        -2.95900                
E05        31.24100       164.17300         2.77300                
E06        23.21300       121.98600         7.69600                
> 2025 04 22 14 03 29.0000000  0 15
G03  24402799.85200 128237578.75300      1556.26700                
G09  24301009.32800 127702665.93900      -547.16100                
G14  20703297.67000 108796563.57500      -349.82800                
G18  21852636.90000 114836381.99300      2510.56900                
G19  21694369.02300 114004678.68600     -2233.99000                
G22  23581317.25200 123920658.55700      2930.61600                
G23  20780446.68000 109201984.35400     -1249.40200                
G27  21223623.79700 111530895.82500      1816.25200                
G28  24257094.42400 127471891.56100     -3081.85500                
E01         7.86100        41.30900         9.01100                
E02        10.99100        57.75600        -9.70300                
E03        24.26900       127.53300        -7.31300                
E04        31.59400       166.02900        -2.24200                
E05        30.64600       161.04600         3.48000                
E06        21.70200       114.04600         8.17700                
> 2025 04 22 14 03 30.0000000  0 15
G03  24402503.88400 128236023.43000      1554.37500                
G09  24301113.44300 127703213.06900      -547.07300                
G14  20703364.23900 108796913.39600      -349.81300                
G18  21852159.11200 114833871.20100      2511.02300                
G19  21694794.24500 114006913.24100     -2235.14100                
G22  23580759.46900 123917727.38800      2931.70900                
G23  20780684.51500 109203234.18900     -1250.26600                
G27  21223278.25200 111529079.97400      1815.42700                
G28  24257681.02300 127474974.16100     -3083.34200                
E01         6.25100        32.84700         7.74400                
E02        12.84100        67.48000        -9.71500                
E03        25.60800       134.57300        -6.76100                
E04        31.95200       167.90800        -1.51500                
E05        29.91800       157.21900         4.17000                
E06        20.10400       105.64700         8.61200                
> 2025 04 22 14 03 31.0000000  0 15
G03  24402208.27500 128234469.99700      1552.49200                
G09  24301217.52700 127703760.03500      -546.83600                
G14  20703430.80500 108797263.20200      -349.80100                
G18  21851681.22900 114831359.90900      2511.56700                
G19  21695219.69300 114009148.98600     -2236.36600                
G22  23580201.48100 123914795.13700      2932.77600                
G23  20780922.51400 109204484.87800     -1251.11000                
G27  21222932.87500 111527265.00400      1814.49100                
G28  24258267.89600 127478058.19900     -3084.72800                
E01         5.00600        26.30600         5.01600                
E02        14.67900        77.13800        -9.58200                
E03        26.84000       141.04500        -6.17600                
E04        32.17000       169.05600        -0.78000                
E05        29.06000       152.71300         4.84000                
E06        18.42800        96.83900         8.99400                
> 2025 04 22 14 03 32.0000000  0 15
G03  24401913.02200 128232918.43100      1550.64400                
G09  24301321.55300 127704306.69600      -546.46600                
G14  20703497.37000 108797613.00200      -349.80400                
G18  21851203.23600 114828848.03400      2512.18700                
G19  21695645.38000 114011385.98700     -2237.65100                
G22  23579643.29300 123911861.84200      2933.79400                
G23  20781160.67000 109205736.39800     -1251.92500                
G27  21222587.68600 111525451.02300      1813.45100                
G28  24258855.02200 127481143.56500     -3085.99500                
E01         4.47400        23.50900         0.30700                
E02        16.48100        86.60900        -9.34700                
E03        27.95700       146.91500        -5.55900                
E04        32.24900       169.46800        -0.04200                
E05        28.07700       147.54800         5.48600                
E06        16.68500        87.67900         9.31400                
> 2025 04 22 14 03 33.0000000  0 15
G03  24401618.11500 128231368.68600      1548.85400                
G09  24301425.49800 127704852.92900      -545.98200                
G14  20703563.93800 108797962.81900      -349.83500                
G18  21850725.11700 114826335.50600      2512.86900                
G19  21696071.31600 114013624.29600     -2238.97800                
G22  23579084.91800 123908927.56300      2934.74100                
G23  20781398.97800 109206988.71400     -1252.70200                
G27  21222242.70400 111523638.13000      1812.31600                
G28  24259442.37600 127484230.13200     -3087.12600                
E01         4.90100        25.75400        -4.56900                
E02        18.23100        95.80600        -9.03500                
E03        28.95400       152.15400        -4.91500                
E04        32.18600       169.14100         0.69600                
E05        26.97400       141.74900         6.10600                
E06        14.88800        78.23500         9.55900                
> 2025 04 22 14 03 34.0000000  0 15
G03  24401323.54200 128229820.69200      1547.14500                
G09  24301529.34100 127705398.62900      -545.40400                
G14  20703630.51500 108798312.68700      -349.90800                
G18  21850246.86500 114823822.27300      2513.59500                
G19  21696497.50800 114015863.94600     -2240.33100                
G22  23578526.37200 123905992.38000      2935.59800                
G23  20781637.42900 109208241.78500     -1253.43500                
G27  21221897.94600 111521826.41600      1811.09300                
G28  24260029.93100 127487317.75500     -3088.10700                
E01         6.08300        31.96800        -7.52200                
E02        19.91600       104.65700        -8.65900                
E03        29.82600       156.73700        -4.24800                
E04        31.98400       168.07700         1.43100                
E05        25.75500       135.34600         6.69600                
E06        13.05300        68.59300         9.70600                
> 2025 04 22 14 03 35.0000000  0 15
G03  24401029.28400 128228274.35800      1545.53800                
G09  24301633.06700 127705943.71200      -544.75200                
G14  20703697.11200 108798662.65200      -350.03200                
G18  21849768.47200 114821308.29800      2514.35000                
G19  21696923.95700 114018104.95300     -2241.69000                
G22  23577967.67200 123903056.39300      2936.34500                
G23  20781876.01500 109209495.56400     -1254.11600                
G27  21221553.42800 111520015.96400      1809.79600                
G28  24260617.65700 127490406.28000     -3088.92600                
E01         7.66400        40.27700        -8.91300                
E02        21.52300       113.10600        -8.23000                
E03        30.56900       160.64300        -3.56000                
E04        31.64200       166.28200         2.15900                
E05        24.42800       128.37000         7.25100                
E06        11.20300        58.87000         9.71300                
> 2025 04 22 14 03 36.0000000  0 15
G03  24400735.32100 128226729.57300      1544.05200                
G09  24301736.66400 127706488.11600      -544.05000                
G14  20703763.73700 108799012.77200      -350.21900                
G18  21849289.93300 114818793.56200      2515.11600                
G19  21697350.66400 114020347.31600     -2243.03900                
G22  23577408.84200 123900119.72000      2936.96700                
G23  20782114.72600 109210749.99500     -1254.74000                
G27  21221209.16400 111518206.84100      1808.43600                
G28  24261205.52400 127493495.53800     -3089.57400                
E01         9.42600        49.53400        -9.51100                
E02        23.04500       121.10200        -7.75300                
E03        31.18000       163.85200        -2.85500                
E04        31.16300       163.76300         2.87700                
E05        22.99800       120.85700         7.76900                
E06         9.37000        49.23900         9.50000                
> 2025 04 22 14 03 37.0000000  0 15
G03  24400441.62800 128225186.20500      1542.70500                
G09  24301840.12400 127707031.80300      -543.32300                
G14  20703830.40500 108799363.11500      -350.47900                
G18  21848811.24900 114816278.06100      2515.87400                
G19  21697777.62600 114022591.01400     -2244.35900                
G22  23576849.90600 123897182.49400      2937.44800                
G23  20782353.54900 109212005.02100     -1255.30200                
G27  21220865.16300 111516399.10400      1807.02800                
G28  24261793.49700 127496585.35600     -3090.04500                
E01        11.26000        59.17100        -9.71600                
E02        24.47200       128.59900        -7.23400                
E03        31.65500       166.34900        -2.13700                
E04        30.54800       160.53300         3.58100                
E05        21.47400       112.84700         8.24400                
E06         7.61200        40.00200         8.88400                
> 2025 04 22 14 03 38.0000000  0 15
G03  24400148.17700 128223644.10800      1541.51200                
G09  24301943.44500 127707574.76000      -542.59300                
G14  20703897.13000 108799713.75700      -350.82000                
G18  21848332.42300 114813761.81300      2516.60900                
G19  21698204.83500 114024836.01100     -2245.63300                
G22  23576290.89400 123894244.86400      2937.77700                
G23  20782592.47300 109213260.57700     -1255.80000                
G27  21220521.43300 111514592.79300      1805.58500                
G28  24262381.54200 127499675.55600     -3090.33700                
E01        13.11000        68.89400        -9.70300                
E02        25.79600       135.55800        -6.67800                
E03        31.99300       168.12200        -1.40800                
E04        29.80100       156.60600         4.26900                
E05        19.86400       104.38500         8.67200                
E06         6.03900        31.73600         7.45900                
> 2025 04 22 14 03 39.0000000  0 15
G03  24399854.93700 128222103.12300      1540.48400                
G09  24302046.63000 127708116.99700      -541.88600                
G14  20703963.92800 108800064.78400      -351.24800                
G18  21847853.46100 114811244.85000      2517.30200                
G19  21698632.28000 114027082.25300     -2246.84400                
G22  23575731.83400 123891306.98300      2937.94500                
G23  20782831.48600 109214516.59600     -1256.23000                
G27  21220177.98000 111512787.93600      1804.12400                
G28  24262969.62600 127502765.95700     -3090.44900                
E01        14.94400        78.53200        -9.55300                
E02        27.01100       141.94300        -6.08700                
E03        32.19100       169.16300        -0.67300                
E04        28.92500       152.00200         4.93500                
E05        18.17700        95.52200         9.04500                
E06         4.87400        25.61500         4.44400                
> 2025 04 22 14 03 40.0000000  0 15
G03  24399561.87700 128220563.07900      1539.63100                
G09  24302149.68300 127708658.54800      -541.22600                
G14  20704030.81700 108800416.28400      -351.76900                
G18  21847374.37200 114808727.22100      2517.93700                
G19  21699059.94900 114029329.66800     -2247.97800                
G22  23575172.75800 123888369.01900      2937.94400                
G23  20783070.57400 109215773.01100     -1256.59000                
G27  21219834.80600 111510984.54200      1802.66000                
G28  24263557.71500 127505856.38400     -3090.38700                
E01        16.74000        87.96800        -9.30600                
E02        28.11100       147.72300        -5.46700                
E03        32.24900       169.46700         0.06500                
E04        27.92400       146.74300         5.57800                
E05        16.42500        86.31600         9.35500                
E06         4.47600        23.52000        -0.47100                
> 2025 04 22 14 03 41.0000000  0 15
G03  24399268.96100 128219023.79800      1538.95800                
G09  24302252.61800 127709199.47300      -540.63600                
G14  20704097.81300 108800768.35400      -352.38600                
G18  21846895.16900 114806208.99200      2518.49900                
G19  21699487.82500 114031578.17100     -2249.02000                
G22  23574613.69800 123885431.14100      2937.77200                
G23  20783309.72400 109217029.75200     -1256.88200                
G27  21219491.90900 111509182.60700      1801.20800                
G28  24264145.77500 127508946.66400     -3090.15700                
E01        18.48100        97.11900        -8.98400                
E02        29.09000       152.86800        -4.81900                
E03        32.16600       169.03300         0.80300                
E04        26.80400       140.85400         6.19400                
E05        14.62200        76.83700         9.58700                
E06         5.03600        26.46300        -5.13100                
> 2025 04 22 14 03 42.0000000  0 15
G03  24398976.15600 128217485.09800      1538.46900                
G09  24302355.44800 127709739.85100      -540.13700                
G14  20704164.93700 108801121.08900      -353.10200                
G18  21846415.86700 114803690.24400      2518.97500                
G19  21699915.89000 114033827.66600     -2249.95700                
G22  23574054.68700 123882493.52100      2937.42900                
G23  20783548.92300 109218286.75100     -1257.10700                
G27  21219149.28600 111507382.11300      1799.78400                
G28  24264733.77700 127512036.63300     -3089.76800                
E01        20.15500       105.91500        -8.60000                
E02        29.94300       157.35300        -4.14800                
E03        31.94300       167.86300         1.53700                
E04        25.56900       134.36500         6.77900                
E05        12.78300        67.17500         9.71700                
E06         6.29600        33.08700        -7.80000                
> 2025 04 22 14 03 43.0000000  0 15
G03  24398683.42700 128215946.79500      1538.16400                
G09  24302458.19400 127710279.78500      -539.75100                
G14  20704232.20600 108801474.59000      -353.91600                
G18  21845936.48400 114801171.06900      2519.35100                
G19  21700344.12200 114036078.04100     -2250.78000                
G22  23573495.75800 123879556.32900      2936.91600                
G23  20783788.15800 109219543.94200     -1257.26600                
G27  21218806.93100 111505583.02100      1798.40300                
G28  24265321.69000 127515126.13800     -3089.23300                
E01        21.75100       114.30100        -8.16300                
E02        30.66700       161.15800        -3.45800                
E03        31.58100       165.96100         2.26400                
E04        24.22600       127.30800         7.32900                
E05        10.93300        57.45200         9.69900                
E06         7.91400        41.58800        -9.03600                
> 2025 04 22 14 03 44.0000000  0 15
G03  24398390.73900 128214408.70800      1538.03700                
G09  24302560.87900 127710819.39500      -539.49400                
G14  20704299.63900 108801828.95300      -354.82600                
G18  21845457.04000 114798651.57200      2519.61600                
G19  21700772.49900 114038329.17800     -2251.47900                
G22  23572936.94300 123876619.73200      2936.24000                
G23  20784027.41800 109220801.26100     -1257.36400                
G27  21218464.83300 111503785.28400      1797.07800                
G28  24265909.48900 127518215.04200     -3088.56700                
E01        23.25900       122.22700        -7.68000                
E02        31.25800       164.26300        -2.75100                
E03        31.08200       163.33800         2.98000                
E04        22.78200       119.72000         7.84100                
E05         9.10700        47.85600         9.44100                
E06         9.69100        50.92700        -9.56000                
> 2025 04 22 14 03 45.0000000  0 15
G03  24398098.05800 128212870.66000      1538.08300                
G09  24302663.52800 127711358.82200      -539.38400                
G14  20704367.25400 108802184.27300      -355.83000                
G18  21844977.55600 114796131.86700      2519.76300                
G19  21701200.99700 114040580.94900     -2252.04800                
G22  23572378.27000 123873683.89000      2935.40900                
G23  20784266.69100 109222058.64800     -1257.40400                
G27  21218122.98000 111501988.83800      1795.82400                
G28  24266497.15000 127521303.22300     -3087.78800                
E01        24.67100       129.64800        -7.15600                
E02        31.71300       166.65500        -2.03100                
E03        30.44800       160.00500         3.68300                
E04        21.24500       111.64100         8.30900                
E05         7.36700        38.71500         8.74100                
E06        11.53000        60.59100        -9.72500                
> 2025 04 22 14 03 46.0000000  0 15
G03  24397805.35300 128211332.48500      1538.29100                
G09  24302766.17200 127711898.21600      -539.43300                
G14  20704435.06900 108802540.64200      -356.92200                
G18  21844498.05600 114793612.07900      2519.78500                
G19  21701629.59000 114042833.22400     -2252.48400                
G22  23571819.77000 123870748.95100      2934.43500                
G23  20784505.96600 109223316.05000     -1257.39400                
G27  21217781.35900 111500193.60500      1794.65100                
G28  24267084.65400 127524390.57600     -3086.91500                
E01        25.98000       136.52600        -6.59400                
E02        32.03100       168.32200        -1.30100                
E03        29.68200       155.97900         4.36700                
E04        19.62300       103.11700         8.73000                
E05         5.83600        30.67000         7.13900                
E06        13.38000        70.31100        -9.68900                
> 2025 04 22 14 03 47.0000000  0 15
G03  24397512.59400 128209794.02500      1538.64900                
G09  24302868.84000 127712437.74400      -539.65300                
G14  20704503.09900 108802898.14500      -358.09600                
G18  21844018.56500 114791092.33300      2519.67700                
G19  21702058.25400 114045085.86600     -2252.78400                
G22  23571261.46800 123867815.05200      2933.33100                
G23  20784745.23600 109224573.41900     -1257.33800                
G27  21217439.95200 111498399.50100      1793.57000                
G28  24267671.98400 127527477.01800     -3085.97000                
E01        27.17900       142.82500        -5.99900                
E02        32.20800       169.25500        -0.56500                
E03        28.78700       151.27800         5.03100                
E04        17.92600        94.20000         9.09500                
E05         4.76000        25.01100         3.82400                
E06        15.20900        79.92500        -9.52200                
> 2025 04 22 14 03 48.0000000  0 15
G03  24397219.75300 128208255.13900      1539.14100                
G09  24302971.56800 127712977.58000      -540.04900                
G14  20704571.36000 108803256.86000      -359.34400                
G18  21843539.10600 114788572.76100      2519.43700                
G19  21702486.96200 114047338.74100     -2252.95000                
G22  23570703.38700 123864882.31600      2932.11300                
G23  20784984.49100 109225830.71300     -1257.24600                
G27  21217098.74200 111496606.42800      1792.59000                
G28  24268259.13000 127530562.48700     -3084.97500                
E01        28.26100       148.51300        -5.37400                
E02        32.24500       169.45100         0.17300                
E03        27.76900       145.92500         5.67000                
E04        16.16500        84.94900         9.39400                
E05         4.50000        23.64700        -1.24200                
E06        16.99800        89.32400        -9.26300                
> 2025 04 22 14 03 49.0000000  0 15
G03  24396926.80800 128206715.70100      1539.74900                
G09  24303074.38800 127713517.90400      -540.62800                
G14  20704639.86500 108803616.85500      -360.65600                
G18  21843059.70600 114786053.49600      2519.06500                
G19  21702915.68900 114049591.71600     -2252.98400                
G22  23570145.54700 123861950.84700      2930.80000                
G23  20785223.72500 109227087.89800     -1257.12400                
G27  21216757.70700 111494814.28000      1791.71900                
G28  24268846.08300 127533646.94700     -3083.95400                
E01        29.22200       153.56400        -4.72300                
E02        32.14200       168.90900         0.91100                
E03        26.63100       139.94700         6.28100                
E04        14.35500        75.43800         9.61300                
E05         5.18600        27.25200        -5.64600                
E06        18.73000        98.42700        -8.93100                
> 2025 04 22 14 03 50.0000000  0 15
G03  24396633.73800 128205175.60600      1540.45300                
G09  24303177.33600 127714058.89800      -541.39000                
G14  20704708.62500 108803978.19000      -362.02200                
G18  21842580.38900 114783534.66700      2518.56400                
G19  21703344.41000 114051844.66100     -2252.89200                
G22  23569587.96400 123859020.73000      2929.41200                
G23  20785462.93500 109228344.95200     -1256.98200                
G27  21216416.82800 111493022.94900      1790.96000                
G28  24269432.84100 127536730.38200     -3082.92900                
E01        30.05700       157.95100        -4.04900                
E02        31.89900       167.63100         1.64400                
E03        25.38000       133.37300         6.86100                
E04        12.51300        65.75800         9.72500                
E05         6.51700        34.24700        -8.04900                
E06        20.39300       107.16700        -8.53900                
> 2025 04 22 14 03 51.0000000  0 15
G03  24396340.52600 128203634.76800      1541.23200                
G09  24303280.44600 127714600.74400      -542.33300                
G14  20704777.64900 108804340.91300      -363.43000                
G18  21842101.17900 114781016.40200      2517.93900                
G19  21703773.10200 114054097.45400     -2252.68100                
G22  23569030.65100 123856092.03000      2927.96900                
G23  20785702.11500 109229601.85600     -1256.82800                
G27  21216076.08300 111491232.31800      1790.31700                
G28  24270019.40600 127539812.80000     -3081.92600                
E01        30.76200       161.65500        -3.35600                
E02        31.51700       165.62300         2.37000                
E03        24.02200       126.23600         7.40600                
E04        10.66400        56.04000         9.67900                
E05         8.16700        42.91800        -9.14500                
E06        21.97700       115.48800        -8.09500                
> 2025 04 22 14 03 52.0000000  0 15
G03  24396047.16100 128202093.12300      1542.06200                
G09  24303383.75200 127715143.62200      -543.45100                
G14  20704846.94400 108804705.06100      -364.86900                
G18  21841622.09900 114778498.82100      2517.19600                
G19  21704201.74400 114056349.98100     -2252.36200                
G22  23568473.61600 123853164.79100      2926.49400                
G23  20785941.26700 109230858.60400     -1256.67100                
G27  21215735.44800 111489442.27200      1789.79100                
G28  24270605.78300 127542894.23500     -3080.96700                
E01        31.33300       164.65700        -2.64600                
E02        30.99800       162.89500         3.08400                
E03        22.56400       118.57400         7.91200                
E04         8.84600        46.48500         9.37400                
E05         9.95800        52.32800        -9.60100                
E06        23.47100       123.34200        -7.60600                
> 2025 04 22 14 03 53.0000000  0 15
G03  24395753.63500 128200550.63200      1542.91900                
G09  24303487.28700 127715687.70200      -544.73600                
G14  20704916.51400 108805070.65700      -366.32500                
G18  21841143.17100 114775982.03700      2516.34600                
G19  21704630.31500 114058602.14000     -2251.94600                
G22  23567916.86300 123850239.03300      2925.01000                
G23  20786180.38900 109232115.19800     -1256.52100                
G27  21215394.90300 111487652.69400      1789.38000                
G28  24271191.98500 127545974.74400     -3080.07600                
E01        31.76800       166.94400        -1.92500                
E02        30.34400       159.45900         3.78400                
E03        21.01400       110.42700         8.37400                
E04         7.12700        37.45200         8.57900                
E05        11.80100        62.01300        -9.73000                
E06        24.86900       130.68600        -7.07600                
> 2025 04 22 14 03 54.0000000  0 15
G03  24395459.94500 128199007.28100      1543.77900                
G09  24303591.08100 127716233.14600      -546.17700                
G14  20704986.36300 108805437.71100      -367.78500                
G18  21840664.41400 114773466.15300      2515.39900                
G19  21705058.80000 114060853.83900     -2251.44700                
G22  23567360.39100 123847314.75600      2923.53900                
G23  20786419.48300 109233371.65000     -1256.38700                
G27  21215054.42500 111485863.47000      1789.08300                
G28  24271778.02500 127549054.40400     -3079.27300                
E01        32.06500       168.50400        -1.19400                
E02        29.55900       155.33300         4.46600                
E03        19.38000       101.84200         8.78700                
E04         5.64300        29.65500         6.78400                
E05        13.64900        71.72600        -9.67100                
E06        26.16200       137.48100        -6.50900                
> 2025 04 22 14 03 55.0000000  0 15
G03  24395166.09200 128197463.07700      1544.61900                
G09  24303695.16400 127716780.10200      -547.75900                
G14  20705056.48800 108805806.22300      -369.23600                
G18  21840185.84600 114770951.25900      2514.36700                
G19  21705487.18200 114063105.00400     -2250.87800                
G22  23566804.19600 123844391.93300      2922.10400                
G23  20786658.55500 109234627.97900     -1256.27800                
G27  21214713.99300 111484074.48900      1788.89200                
G28  24272363.92200 127552133.31500     -3078.57900                
E01        32.22200       169.33000        -0.45800                
E02        28.64600       150.53500         5.12600                
E03        17.67300        92.87200         9.14300                
E04         4.66300        24.50300         3.16100                
E05        15.47400        81.31500        -9.48900                
E06        27.34400       143.69300        -5.90900                
> 2025 04 22 14 03 56.0000000  0 15
G03  24394872.08500 128195918.05600      1545.41200                
G09  24303799.55900 127717328.70500      -549.46600                
G14  20705126.88800 108806176.17600      -370.66500                
G18  21839707.48100 114768437.43400      2513.26600                
G19  21705915.45100 114065355.57200     -2250.25800                
G22  23566248.27000 123841470.51800      2920.72700                
G23  20786897.60900 109235884.21500     -1256.20200                
G27  21214373.58800 111482285.64700      1788.80200                
G28  24272949.69900 127555211.59400     -3078.01200                
E01        32.23900       169.41800         0.28100                
E02        27.60900       145.08900         5.76100                
E03        15.90400        83.57900         9.43200                
E04         4.54500        23.88600        -1.99400                
E05        17.25500        90.67600        -9.21900                
E06        28.40900       149.29000        -5.28000                
> 2025 04 22 14 03 57.0000000  0 15
G03  24394577.93200 128194372.27300      1546.13700                
G09  24303904.29000 127717879.06800      -551.27800                
G14  20705197.55600 108806547.54200      -372.06000                
G18  21839229.33000 114765924.73700      2512.11000                
G19  21706343.59800 114067605.50100     -2249.60200                
G22  23565692.59700 123838550.44100      2919.42900                
G23  20787136.65200 109237140.39500     -1256.16600                
G27  21214033.19100 111480496.84900      1788.80400                
G28  24273535.38100 127558289.37600     -3077.58800                
E01        32.11600       168.76800         1.01800                
E02        26.45500       139.02100         6.36900                
E03        14.08900        74.03600         9.63700                
E04         5.35000        28.11300        -6.11400                
E05        18.97800        99.72900        -8.87700                
E06        29.35200       154.24500        -4.62500                
> 2025 04 22 14 03 58.0000000  0 15
G03  24394283.65000 128192825.80900      1546.77100                
G09  24304009.37400 127718431.28800      -553.17500                
G14  20705268.48600 108806920.28000      -373.40800                
G18  21838751.40400 114763413.21700      2510.91700                
G19  21706771.61900 114069854.76400     -2248.92800                
G22  23565137.16300 123835631.61600      2918.23000                
G23  20787375.69200 109238396.56200     -1256.17900                
G27  21213692.78600 111478708.00800      1788.88600                
G28  24274120.99700 127561366.81000     -3077.32000                
E01        31.85200       167.38300         1.75100                
E02        25.18800       132.36200         6.94400                
E03        12.24400        64.34100         9.73000                
E04         6.74400        35.44000        -8.26900                
E05        20.63000       108.41100        -8.47700                
E06        30.16800       158.53300        -3.94900                
> 2025 04 22 14 03 59.0000000  0 15
G03  24393989.25700 128191278.76600      1547.29300                
G09  24304114.82500 127718985.43800      -555.13400                
G14  20705339.66700 108807294.33900      -374.69900                
G18  21838273.70700 114760902.90300      2509.70200                
G19  21707199.51100 114072103.35100     -2248.25500                
G22  23564581.94700 123832713.93200      2917.14700                
G23  20787614.74100 109239652.76800     -1256.24600                
G27  21213352.35800 111476919.04900      1789.03800                
G28  24274706.57800 127564444.05800     -3077.21800                
E01        31.45000       165.27000         2.47500                
E02        23.81400       125.14600         7.48300                
E03        10.39600        54.63100         9.65500                
E04         8.42300        44.26200        -9.24100                
E05        22.20100       116.66600        -8.02600                
E06        30.85300       162.13500        -3.25300                
> 2025 04 22 14 04  0.0000000  0 15
G03  24393694.77700 128189731.26300      1547.68600                
G09  24304220.65300 127719541.56900      -557.13200                
G14  20705411.08700 108807669.65500      -375.92200                
G18  21837796.24200 114758393.80600      2508.48500                
G19  21707627.27600 114074351.27300     -2247.60000                
G22  23564026.92400 123829797.26700      2916.19600                
G23  20787853.80700 109240909.07100     -1256.37200                
G27  21213011.89600 111475129.91100      1789.24500                
G28  24275292.15600 127567521.29100     -3077.28900                
E01        30.91100       162.43700         3.18700                
E02        22.34200       117.40900         7.98300                
E03         8.58700        45.12400         9.29700                
E04        10.22500        53.73400        -9.63600                
E05        23.68200       124.44800        -7.53100                
E06        31.40500       165.03400        -2.54200                
> 2025 04 22 14 04  1.0000000  0 15
G03  24393400.23600 128188183.44000      1547.93300                
G09  24304326.86400 127720099.70800      -559.14600                
G14  20705482.73300 108808046.15700      -377.06800                
G18  21837319.00700 114755885.92000      2507.28100                
G19  21708054.92000 114076598.55700     -2246.98100                
G22  23563472.06800 123826881.48100      2915.39100                
G23  20788092.90300 109242165.53100     -1256.56200                
G27  21212671.39100 111473340.54200      1789.49400                
G28  24275877.76500 127570598.68500     -3077.53900                
E01        30.23800       158.90000         3.88500                
E02        20.77900       109.19500         8.43800                
E03         6.89100        36.21500         8.39700                
E04        12.07100        63.43600        -9.73100                
E05        25.06400       131.71400        -6.99500                
E06        31.82000       167.21500        -1.81800                
> 2025 04 22 14 04  2.0000000  0 15
G03  24393105.66300 128186635.44800      1548.02000                
G09  24304433.45600 127720659.85700      -561.14900                
G14  20705554.58900 108808423.76300      -378.13000                
G18  21836841.99900 114753379.22500      2506.10900                
G19  21708482.45100 114078845.24700     -2246.41500                
G22  23562917.35100 123823966.42200      2914.74200                
G23  20788332.04200 109243422.21500     -1256.81800                
G27  21212330.83500 111471550.91000      1789.76900                
G28  24276463.43800 127573676.41800     -3077.96900                
E01        29.43300       154.67400         4.56400                
E02        19.13400       100.55100         8.84300                
E03         5.46000        28.69500         6.38800                
E04        13.91800        73.13800        -9.65100                
E05        26.34200       138.42600        -6.42300                
E06        32.09600       168.66800        -1.08600                
> 2025 04 22 14 04  3.0000000  0 15
G03  24392811.08900 128185087.45300      1547.93700                
G09  24304540.42800 127721221.99500      -563.11900                
G14  20705626.63900 108808802.38600      -379.10100                
G18  21836365.20900 114750873.67800      2504.98600                
G19  21708909.88000 114081091.40400     -2245.91900                
G22  23562362.74200 123821051.93200      2914.25700                
G23  20788571.23700 109244679.18900     -1257.14400                
G27  21211990.22600 111469760.99500      1790.05600                
G28  24277049.21000 127576754.66900     -3078.57500                
E01        28.50200       149.78000         5.22000                
E02        17.41700        91.52900         9.19000                
E03         4.58500        24.09200         2.46000                
E04        15.73700        82.69900        -9.45500                
E05        27.50700       144.54900        -5.81900                
E06        32.23300       169.38600        -0.35000                
> 2025 04 22 14 04  4.0000000  0 15
G03  24392516.54900 128183539.63000      1547.67600                
G09  24304647.76900 127721786.07500      -565.03100                
G14  20705698.86400 108809181.93300      -379.97700                
G18  21835888.62700 114748369.22400      2503.92600                
G19  21709337.22300 114083337.10600     -2245.50700                
G22  23561808.20900 123818137.84100      2913.94200                
G23  20788810.49900 109245936.52300     -1257.53900                
G27  21211649.56200 111467970.79500      1790.33900                
G28  24277635.11300 127579833.61400     -3079.35400                
E01        27.44800       144.24100         5.85200                
E02        15.64100        82.19400         9.46800                
E03         4.61100        24.22900        -2.71700                
E04        17.51100        92.01900        -9.17300                
E05        28.55400       150.05400        -5.18600                
E06        32.22900       169.36600         0.38900                
> 2025 04 22 14 04  5.0000000  0 15
G03  24392222.07500 128181992.15900      1547.23200                
G09  24304755.46600 127722352.03000      -566.86300                
G14  20705771.24700 108809562.30800      -380.75600                
G18  21835412.24000 114745865.79200      2502.94500                
G19  21709764.49700 114085582.44400     -2245.19200                
G22  23561253.71900 123815223.97900      2913.79900                
G23  20789049.84400 109247194.28800     -1258.00300                
G27  21211308.84600 111466180.32000      1790.60200                
G28  24278221.18100 127582913.42100     -3080.29800                
E01        26.27700       138.08600         6.45400                
E02        13.81900        72.62200         9.65900                
E03         5.52500        29.03500        -6.53600                
E04        19.22400       101.02200        -8.82200                
E05        29.47900       154.91300        -4.52800                
E06        32.08500       168.60800         1.12600                
> 2025 04 22 14 04  6.0000000  0 15
G03  24391927.70300 128180445.22400      1546.60500                
G09  24304863.50300 127722919.76800      -568.59400                
G14  20705843.76900 108809943.41300      -381.43700                
G18  21834936.03100 114743363.29500      2502.05700                
G19  21710191.72000 114087827.52000     -2244.98600                
G22  23560699.24100 123812310.17500      2913.82600                
G23  20789289.28300 109248452.54900     -1258.53300                
G27  21210968.08300 111464389.59700      1790.83100                
G28  24278807.44300 127585994.24900     -3081.39400                
E01        24.99400       131.34300         7.02500                
E02        11.97200        62.91500         9.73100                
E03         6.97600        36.65900        -8.46500                
E04        20.86500       109.64500        -8.41400                
E05        30.27600       159.10200        -3.84800                
E06        31.80100       167.11600         1.85700                
> 2025 04 22 14 04  7.0000000  0 15
G03  24391633.46700 128178899.00700      1545.79600                
G09  24304971.85800 127723489.17800      -570.20400                
G14  20705916.41100 108810325.14800      -382.01900                
G18  21834459.98100 114740861.63600      2501.27200                
G19  21710618.91600 114090072.45000     -2244.90000                
G22  23560144.74100 123809396.26100      2914.02000                
G23  20789528.82900 109249711.37400     -1259.12900                
G27  21210627.28100 111462598.67000      1791.01000                
G28  24279393.92700 127589076.24400     -3082.63000                
E01        23.60600       124.04800         7.55800                
E02        10.12700        53.21800         9.62400                
E03         8.68000        45.61400        -9.32600                
E04        22.42300       117.83400        -7.95700                
E05        30.94200       162.60200        -3.15000                
E06        31.37900       164.89700         2.58000                
> 2025 04 22 14 04  8.0000000  0 15
G03  24391339.40300 128177353.68900      1544.81000                
G09  24305080.50700 127724060.13000      -571.67700                
G14  20705989.15400 108810707.41900      -382.50600                
G18  21833984.07000 114738360.70600      2500.60100                
G19  21711046.10800 114092317.35500     -2244.94000                
G22  23559590.19000 123806482.07200      2914.37400                
G23  20789768.49500 109250970.82400     -1259.78400                
G27  21210286.45000 111460807.59400      1791.12600                
G28  24279980.65900 127592159.53800     -3083.98900                
E01        22.12000       116.24000         8.05200                
E02         8.32900        43.76800         9.20800                
E03        10.49300        55.13900        -9.66400                
E04        23.89000       125.54300        -7.45500                
E05        31.47400       165.39600        -2.43600                
E06        30.82000       161.96100         3.29000                
> 2025 04 22 14 04  9.0000000  0 15
G03  24391045.54200 128175809.44100      1543.65500                
G09  24305189.42100 127724632.48000      -572.99600                
G14  20706061.98200 108811090.13000      -382.90200                
G18  21833508.27500 114735860.38600      2500.05100                
G19  21711473.31900 114094562.36700     -2245.11200                
G22  23559035.55600 123803567.45200      2914.87800                
G23  20790008.29000 109252230.95800     -1260.49400                
G27  21209945.60500 111459016.43900      1791.16700                
G28  24280567.65900 127595244.24500     -3085.45300                
E01        20.54400       107.96000         8.50000                
E02         6.66000        34.99800         8.19200                
E03        12.34100        64.85200        -9.72800                
E04        25.25800       132.73100        -6.91300                
E05        31.86900       167.47100        -1.71200                
E06        30.12800       158.32100         3.98500                
> 2025 04 22 14 04 10.0000000  0 15
G03  24390751.91700 128174266.42700      1542.34400                
G09  24305298.57100 127725206.06700      -574.15000                
G14  20706134.87700 108811473.19300      -383.21200                
G18  21833032.57200 114733360.55300      2499.62800                
G19  21711900.57600 114096807.61800     -2245.41900                
G22  23558480.81300 123800652.25800      2915.52000                
G23  20790248.22600 109253491.82600     -1261.25300                
G27  21209604.75900 111457225.28500      1791.12100                
G28  24281154.94600 127598330.46000     -3087.00100                
E01        18.88800        99.25600         8.89700                
E02         5.28800        27.78900         5.94800                
E03        14.18500        74.54200        -9.62900                
E04        26.51900       139.35900        -6.33700                
E05        32.12500       168.81700        -0.97900                
E06        29.30500       153.99700         4.66100                
> 2025 04 22 14 04 11.0000000  0 15
G03  24390458.55400 128172724.79800      1540.89000                
G09  24305407.92500 127725780.72200      -575.13100                
G14  20706207.82300 108811856.52700      -383.44400                
G18  21832556.93800 114730861.07800      2499.33600                
G19  21712327.90500 114099053.24400     -2245.86200                
G22  23557925.93600 123797736.36100      2916.28500                
G23  20790488.31000 109254753.47500     -1262.05300                
G27  21209263.93200 111455434.22400      1790.97900                
G28  24281742.53400 127601418.25600     -3088.61100                
E01        17.16200        90.18500         9.23500                
E02         4.52600        23.78400         1.72200                
E03        15.99900        84.07300        -9.41900                
E04        27.66700       145.39300        -5.72800                
E05        32.24100       169.42800        -0.24200                
E06        28.35500       149.00700         5.31400                
> 2025 04 22 14 04 12.0000000  0 15
G03  24390165.48100 128171184.68700      1539.30900                
G09  24305517.44700 127726356.26900      -575.93100                
G14  20706280.80600 108812240.05800      -383.60600                
G18  21832081.34700 114728361.82900      2499.17600                
G19  21712755.33000 114101299.38000     -2246.43900                
G22  23557370.90300 123794819.64400      2917.15500                
G23  20790728.54900 109256015.94300     -1262.88800                
G27  21208923.14100 111453643.35700      1790.73300                
G28  24282330.43300 127604507.68300     -3090.26000                
E01        15.37800        80.81000         9.50200                
E02         4.69600        24.67600        -3.40900                
E03        17.76400        93.35100        -9.12600                
E04        28.69700       150.80500        -5.09100                
E05        32.21700       169.30000         0.49700                
E06        27.28400       143.37700         5.94200                
> 2025 04 22 14 04 13.0000000  0 15
G03  24389872.71900 128169646.21200      1537.62200                
G09  24305627.10500 127726932.52400      -576.54900                
G14  20706353.81500 108812623.72000      -383.71000                
G18  21831605.77300 114725862.67500      2499.14600                
G19  21713182.87800 114103546.15900     -2247.14600                
G22  23556815.69600 123791902.01100      2918.11300                
G23  20790968.95000 109257279.25800     -1263.74900                
G27  21208582.40800 111451852.79100      1790.37700                
G28  24282918.64700 127607598.77000     -3091.92600                
E01        13.55100        71.21100         9.67800                
E02         5.71200        30.01900        -6.91800                
E03        19.46700       102.30200        -8.76600                
E04        29.60400       155.56800        -4.43000                
E05        32.05200       168.43500         1.23300                
E06        26.09600       137.13300         6.54000                
> 2025 04 22 14 04 14.0000000  0 15
G03  24389580.28700 128168109.47000      1535.84700                
G09  24305736.86300 127727509.30500      -576.98400                
G14  20706426.83800 108813007.46100      -383.76400                
G18  21831130.19400 114723363.48700      2499.24300                
G19  21713610.57200 114105793.70600     -2247.97600                
G22  23556260.30000 123788983.38500      2919.13700                
G23  20791209.51600 109258543.44400     -1264.62600                
G27  21208241.75300 111450062.63900      1789.90600                
G28  24283507.17800 127610691.52000     -3093.58300                
E01        11.70200        61.49500         9.72900                
E02         7.21400        37.91000        -8.64000                
E03        21.09700       110.86500        -8.35100                
E04        30.38200       159.65800        -3.74700                
E05        31.74800       166.83600         1.96300                
E06        24.79700       130.30800         7.10500                
> 2025 04 22 14 04 15.0000000  0 15
G03  24389288.19800 128166574.53600      1534.00900                
G09  24305846.68700 127728086.43200      -577.24000                
G14  20706499.86800 108813391.23700      -383.78300                
G18  21830654.58400 114720864.14200      2499.46000                
G19  21714038.43500 114108042.14200     -2248.92100                
G22  23555704.70500 123786063.71200      2920.20600                
G23  20791450.25100 109259808.51000     -1265.51100                
G27  21207901.19900 111448273.01400      1789.31900                
G28  24284096.02100 127613785.91400     -3095.20900                
E01         9.86000        51.81700         9.58700                
E02         8.94100        46.98400        -9.40000                
E03        22.64300       118.98700        -7.88600                
E04        31.02900       163.05600        -3.04600                
E05        31.30500       164.51100         2.68400                
E06        23.39400       122.93600         7.63300                
> 2025 04 22 14 04 16.0000000  0 15
G03  24388996.46400 128165041.46300      1532.13000                
G09  24305956.54200 127728663.72800      -577.32400                
G14  20706572.89900 108813775.01800      -383.77700                
G18  21830178.92200 114718364.52100      2499.79100                
G19  21714466.48800 114110291.57700     -2249.97000                
G22  23555148.90400 123783142.95600      2921.29700                
G23  20791691.15300 109261074.46200     -1266.39400                
G27  21207560.76800 111446484.03600      1788.61500                
G28  24284685.16900 127616881.90700     -3096.77900                
E01         8.07500        42.43200         9.10700                
E02        10.76200        56.55500        -9.68700                
E03        24.09600       126.62300        -7.37800                
E04        31.54000       165.74600        -2.33100                
E05        30.72700       161.47100         3.39300                
E06        21.89400       115.05600         8.12000                
> 2025 04 22 14 04 17.0000000  0 15
G03  24388705.09000 128163510.28000      1530.23400                
G09  24306066.39900 127729241.02600      -577.24600                
G14  20706645.92800 108814158.78600      -383.76000                
G18  21829703.18700 114715864.51800      2500.22500                
G19  21714894.75000 114112542.10700     -2251.11100                
G22  23554592.89400 123780221.10700      2922.38800                
G23  20791932.22300 109262341.29200     -1267.26600                
G27  21207220.48100 111444695.81800      1787.79700                
G28  24285274.60900 127619979.43300     -3098.27200                
E01         6.43600        33.82000         7.96100                
E02        12.61200        66.27600        -9.72200                
E03        25.44800       133.73100        -6.83200                
E04        31.91500       167.71500        -1.60500                
E05        30.01500       157.73100         4.08500                
E06        20.30600       106.71100         8.56100                
> 2025 04 22 14 04 18.0000000  0 15
G03  24388414.07600 128161980.99000      1528.34600                
G09  24306176.22600 127729818.17100      -577.01900                
G14  20706718.95300 108814542.53800      -383.74500                
G18  21829227.36100 114713364.03300      2500.75000                
G19  21715323.23600 114114793.81800     -2252.32900                
G22  23554036.67900 123777298.17600      2923.45600                
G23  20792173.45700 109263608.98600     -1268.11900                
G27  21206880.36100 111442908.47400      1786.87000                
G28  24285864.32400 127623078.40600     -3099.66600                
E01         5.13000        26.95600         5.46400                
E02        14.45300        75.94900        -9.60400                
E03        26.69300       140.27500        -6.25000                
E04        32.15100       168.95400        -0.87200                
E05        29.17300       153.30800         4.75800                
E06        18.63900        97.95100         8.95000                
> 2025 04 22 14 04 19.0000000  0 15
G03  24388123.41800 128160453.57300      1526.49100                
G09  24306285.99600 127730395.01900      -576.65700                
G14  20706791.97700 108814926.28100      -383.74500                
G18  21828751.42700 114710862.98400      2501.35300                
G19  21715751.96100 114117046.78000     -2253.61000                
G22  23553480.26500 123774374.19900      2924.47900                
G23  20792414.85100 109264877.51800     -1268.94200                
G27  21206540.42700 111441122.11000      1785.83800                
G28  24286454.29300 127626178.71500     -3100.94400                
E01         4.48900        23.58700         0.96300                
E02        16.26000        85.44900        -9.38000                
E03        27.82500       146.22100        -5.63700                
E04        32.24700       169.45700        -0.13400                
E05        28.20600       148.22300         5.40800                
E06        16.90400        88.83100         9.27900                
> 2025 04 22 14 04 20.0000000  0 15
G03  24387833.10800 128158927.98600      1524.69200                
G09  24306395.68700 127730971.44600      -576.17900                
G14  20706865.00400 108815310.03800      -383.77400                
G18  21828275.37200 114708361.29900      2502.01900                
G19  21716180.93300 114119301.04700     -2254.93600                
G22  23552923.66200 123771449.23100      2925.43400                
G23  20792656.39800 109266146.85600     -1269.72900                
G27  21206200.69900 111439336.82700      1784.70900                
G28  24287044.49300 127629280.23500     -3102.08600                
E01         4.79900        25.22000        -4.05500                
E02        18.01800        94.68400        -9.07700                
E03        28.83700       151.54000        -4.99700                
E04        32.20200       169.22200         0.60400                
E05        27.11700       142.50100         6.03100                
E06        15.11300        79.41800         9.53300                
> 2025 04 22 14 04 21.0000000  0 15
G03  24387543.13400 128157404.16100      1522.97200                
G09  24306505.27700 127731547.34500      -575.60500                
G14  20706938.03900 108815693.84200      -383.84300                
G18  21827799.18600 114705858.92300      2502.73200                
G19  21716610.16100 114121556.65400     -2256.29000                
G22  23552366.88500 123768523.34900      2926.30200                
G23  20792898.09100 109267416.96000     -1270.47200                
G27  21205861.19400 111437552.71600      1783.49400                
G28  24287634.89600 127632382.82600     -3103.08000                
E01         5.90900        31.05200        -7.26000                
E02        19.71100       103.58200        -8.70900                
E03        29.72500       156.20600        -4.33200                
E04        32.01700       168.24900         1.34000                
E05        25.91200       136.17100         6.62400                
E06        13.28200        69.79500         9.69400                
> 2025 04 22 14 04 22.0000000  0 15
G03  24387253.47800 128155882.00700      1521.35200                
G09  24306614.75000 127732122.63200      -574.95700                
G14  20707011.09300 108816077.74100      -383.96400                
G18  21827322.86100 114703355.81700      2503.47500                
G19  21717039.64800 114123813.62300     -2257.65400                
G22  23551809.95300 123765596.65000      2927.06400                
G23  20793139.92000 109268687.78100     -1271.16300                
G27  21205521.92800 111435769.85900      1782.20400                
G28  24288225.47300 127635486.33000     -3103.91200                
E01         7.45600        39.18000        -8.79500                
E02        21.32900       112.08300        -8.28600                
E03        30.48400       160.19700        -3.64600                
E04        31.69200       166.54400         2.06900                
E05        24.59800       129.26400         7.18400                
E06        11.43200        60.07400         9.72200                
> 2025 04 22 14 04 23.0000000  0 15
G03  24386964.11900 128154361.41400      1519.85100                
G09  24306724.09400 127732697.24100      -574.25600                
G14  20707084.17500 108816461.79100      -384.14800                
G18  21826846.39300 114700851.96000      2504.23200                
G19  21717469.39400 114126071.95200     -2259.00900                
G22  23551252.88700 123762669.25100      2927.70300                
G23  20793381.87500 109269959.26500     -1271.79700                
G27  21205182.91300 111433988.32500      1780.85100                
G28  24288816.19300 127638590.58200     -3104.57400                
E01         9.20200        48.35800        -9.46400                
E02        22.86100       120.13700        -7.81500                
E03        31.11200       163.49300        -2.94300                
E04        31.23000       164.11400         2.78900                
E05        23.18100       121.81500         7.70700                
E06         9.59400        50.41900         9.54300                
> 2025 04 22 14 04 24.0000000  0 15
G03  24386675.03200 128152842.25500      1518.48900                
G09  24306833.30300 127733271.13400      -573.52700                
G14  20707157.29900 108816846.06000      -384.40400                
G18  21826369.78100 114698347.34700      2504.98400                
G19  21717899.39500 114128331.62600     -2260.33900                
G22  23550695.71300 123759741.28000      2928.20300                
G23  20793623.94500 109271231.35300     -1272.36900                
G27  21204844.16100 111432208.16900      1779.44800                
G28  24289407.02100 127641695.40700     -3105.06000                
E01        11.03100        57.96800        -9.70500                
E02        24.30000       127.69800        -7.30100                
E03        31.60400       166.07800        -2.22600                
E04        30.63200       160.97100         3.49500                
E05        21.66800       113.86500         8.18700                
E06         7.82300        41.10900         8.99300                
> 2025 04 22 14 04 25.0000000  0 15
G03  24386386.19100 128151324.38300      1517.27800                
G09  24306942.37100 127733844.29400      -572.79500                
G14  20707230.47900 108817230.62500      -384.74100                
G18  21825893.02700 114695841.99000      2505.71500                
G19  21718329.64600 114130592.61000     -2261.62600                
G22  23550138.45800 123756812.88400      2928.55300                
G23  20793866.11800 109272503.97900     -1272.87600                
G27  21204505.67900 111430429.43600      1778.01100                
G28  24289997.92500 127644800.62900     -3105.36600                
E01        12.88100        67.69200        -9.71300                
E02        25.63800       134.72600        -6.74900                
E03        31.95800       167.94200        -1.49900                
E04        29.90100       157.13000         4.18500                
E05        20.06800       105.45600         8.62100                
E06         6.21800        32.67500         7.70300                
> 2025 04 22 14 04 26.0000000  0 15
G03  24386097.56400 128149807.64100      1516.23200                
G09  24307051.30200 127734416.73000      -572.08300                
G14  20707303.73200 108817615.57000      -385.16500                
G18  21825416.13800 114693335.92200      2506.40700                
G19  21718760.13700 114132854.85100     -2262.85200                
G22  23549581.15100 123753884.21700      2928.74300                
G23  20794108.38100 109273777.07900     -1273.31300                
G27  21204167.47300 111428652.15000      1776.55400                
G28  24290588.87100 127647906.06800     -3105.49300                
E01        14.71900        77.34700        -9.57800                
E02        26.86600       141.18400        -6.16200                
E03        32.17400       169.07400        -0.76500                
E04        29.04000       152.60800         4.85400                
E05        18.39000        96.64000         9.00200                
E06         4.98500        26.19600         4.93200                
> 2025 04 22 14 04 27.0000000  0 15
G03  24385809.12000 128148291.85800      1515.36100                
G09  24307160.10200 127734988.47500      -571.41600                
G14  20707377.07400 108818000.98600      -385.68200                
G18  21824939.12200 114690829.18800      2507.04300                
G19  21719190.85300 114135118.28200     -2264.00200                
G22  23549023.82300 123750955.44200      2928.76700                
G23  20794350.72000 109275050.58100     -1273.68200                
G27  21203829.54400 111426876.32500      1775.09200                
G28  24291179.82300 127651011.54500     -3105.44400                
E01        16.52000        86.81300        -9.34100                
E02        27.98100       147.04000        -5.54500                
E03        32.24900       169.47000        -0.02600                
E04        28.05500       147.42900         5.50000                
E05        16.64500        87.47300         9.32100                
E06         4.47200        23.50300         0.18900                
> 2025 04 22 14 04 28.0000000  0 15
G03  24385520.82500 128146776.85700      1514.66900                
G09  24307268.78000 127735559.58500      -570.81700                
G14  20707450.52400 108818386.96700      -386.29600                
G18  21824461.99200 114688321.85000      2507.61000                
G19  21719621.78000 114137382.81900     -2265.06200                
G22  23548466.50800 123748026.72900      2928.61900                
G23  20794593.12300 109276324.41600     -1273.98000                
G27  21203491.89300 111425101.95700      1773.64200                
G28  24291770.75000 127654116.88700     -3105.22600                
E01        18.26900        96.00300        -9.02700                
E02        28.97500       152.26500        -4.90100                
E03        32.18400       169.12700         0.71200                
E04        26.94900       141.61700         6.11900                
E05        14.84700        78.02300         9.56300                
E06         4.92000        25.85600        -4.65700                
> 2025 04 22 14 04 29.0000000  0 15
G03  24385232.64400 128145262.45600      1514.16100                
G09  24307377.35300 127736130.13900      -570.30800                
G14  20707524.10000 108818773.61000      -387.00800                
G18  21823984.76200 114685813.98900      2508.09100                
G19  21720052.90000 114139648.36600     -2266.01900                
G22  23547909.23700 123745098.24900      2928.30100                
G23  20794835.57600 109277598.51500     -1274.20900                
G27  21203154.51600 111423329.02800      1772.21800                
G28  24292361.62000 127657221.93100     -3104.84700                
E01        19.95200       104.84700        -8.65100                
E02        29.84500       156.83400        -4.23300                
E03        31.97800       168.04700         1.44700                
E04        25.72800       135.20100         6.70800                
E05        13.01200        68.37900         9.70800                
E06         6.11500        32.13500        -7.56600                
> 2025 04 22 14 04 30.0000000  0 15
G03  24384944.54300 128143748.47100      1513.83600                
G09  24307485.83900 127736700.23800      -569.91000                
G14  20707597.82100 108819161.01600      -387.81900                
G18  21823507.44900 114683305.69300      2508.47500                
G19  21720484.19000 114141914.81400     -2266.86300                
G22  23547352.04200 123742170.17400      2927.81300                
G23  20795078.06600 109278872.81000     -1274.37200                
G27  21202817.40600 111421557.50300      1770.83600                
G28  24292952.40400 127660326.52100     -3104.32100                
E01        21.55800       113.28600        -8.22000                
E02        30.58500       160.72400        -3.54400                
E03        31.63400       166.23600         2.17500                
E04        24.39800       128.21200         7.26300                
E05        11.16200        58.65500         9.71100                
E06         7.70200        40.47500        -8.93200                
